{
  "adr_en": "(no record found), MINOR PORTION OF 4/F., THE BEVERLY HOUSE, 93-107 LOCKHART ROAD, WAN CHAI, HONG KONG",
  "adr_tc": "\u9999\u6e2f\u7063\u4ed4\u99f1\u514b\u905393-107\u865f\u5229\u81e8\u5927\u5ec84\u6a13(\u5c11\u90e8\u4efd) (\u6c92\u6709\u8a18\u9304)",
  "geocode_en": [
    {
      "address_components": [
        {
          "long_name": "Beverly House",
          "short_name": "Beverly House",
          "types": [
            "premise"
          ]
        },
        {
          "long_name": "93",
          "short_name": "93",
          "types": [
            "street_number"
          ]
        },
        {
          "long_name": "Lockhart Road",
          "short_name": "Lockhart Rd",
          "types": [
            "route"
          ]
        },
        {
          "long_name": "Wan Chai",
          "short_name": "Wan Chai",
          "types": [
            "neighborhood",
            "political"
          ]
        },
        {
          "long_name": "Hong Kong Island",
          "short_name": "Hong Kong Island",
          "types": [
            "administrative_area_level_1",
            "political"
          ]
        },
        {
          "long_name": "Hong Kong",
          "short_name": "HK",
          "types": [
            "country",
            "political"
          ]
        }
      ],
      "formatted_address": "Beverly House, 93 Lockhart Rd, Wan Chai, Hong Kong",
      "geometry": {
        "bounds": {
          "northeast": {
            "lat": 22.2783261,
            "lng": 114.172342
          },
          "southwest": {
            "lat": 22.2781929,
            "lng": 114.171969
          }
        },
        "location": {
          "lat": 22.2782594,
          "lng": 114.1721514
        },
        "location_type": "ROOFTOP",
        "viewport": {
          "northeast": {
            "lat": 22.2796084802915,
            "lng": 114.1735044802915
          },
          "southwest": {
            "lat": 22.2769105197085,
            "lng": 114.1708065197085
          }
        }
      },
      "partial_match": true,
      "place_id": "ChIJY0z5XVwABDQRHuwmUjH1VZ8",
      "types": [
        "premise"
      ]
    }
  ],
  "geocode_tc": [
    {
      "address_components": [
        {
          "long_name": "\u6a13(\u5c11\u90e8\u4efd",
          "short_name": "\u6a13(\u5c11\u90e8\u4efd",
          "types": [
            "subpremise"
          ]
        },
        {
          "long_name": "\u5229\u81e8\u5927\u5ec8",
          "short_name": "\u5229\u81e8\u5927\u5ec8",
          "types": [
            "premise"
          ]
        },
        {
          "long_name": "93",
          "short_name": "93",
          "types": [
            "street_number"
          ]
        },
        {
          "long_name": "\u99f1\u514b\u9053",
          "short_name": "\u99f1\u514b\u9053",
          "types": [
            "route"
          ]
        },
        {
          "long_name": "\u7063\u4ed4",
          "short_name": "\u7063\u4ed4",
          "types": [
            "neighborhood",
            "political"
          ]
        },
        {
          "long_name": "\u9999\u6e2f\u5cf6",
          "short_name": "\u9999\u6e2f\u5cf6",
          "types": [
            "administrative_area_level_1",
            "political"
          ]
        },
        {
          "long_name": "\u9999\u6e2f",
          "short_name": "HK",
          "types": [
            "country",
            "political"
          ]
        }
      ],
      "formatted_address": "\u9999\u6e2f\u7063\u4ed4\u99f1\u514b\u905393\u865f\u5229\u81e8\u5927\u5ec8\u6a13(\u5c11\u90e8\u4efd",
      "geometry": {
        "bounds": {
          "northeast": {
            "lat": 22.2783261,
            "lng": 114.172342
          },
          "southwest": {
            "lat": 22.2781929,
            "lng": 114.171969
          }
        },
        "location": {
          "lat": 22.2782594,
          "lng": 114.1721514
        },
        "location_type": "ROOFTOP",
        "viewport": {
          "northeast": {
            "lat": 22.2796084802915,
            "lng": 114.1735044802915
          },
          "southwest": {
            "lat": 22.2769105197085,
            "lng": 114.1708065197085
          }
        }
      },
      "partial_match": true,
      "place_id": "EkHmqJMo5bCR6YOo5Lu9LCBCZXZlcmx5IEhvdXNlLCA5MyBMb2NraGFydCBSZCwgV2FuIENoYWksIEhvbmcgS29uZyIpGicKFgoUChIJY0z5XVwABDQRHuwmUjH1VZ8SDeaokyjlsJHpg6jku70",
      "types": [
        "subpremise"
      ]
    }
  ],
  "licno": "3912808036",
  "timestamp": 1564975666,
  "version": "1564966095"
}
