{
  "adr_en": "208, SHOP A ON G/F & PORTION OF SHOP A & SHOP B ON 1/F., TAI PING MANSION, NOS. 208-214 HOLLYWOOD ROAD & NOS. 21-27 TAI PING SHAN STREET, HONG KONG",
  "adr_tc": "\u9999\u6e2f\u592a\u5e73\u5c71\u885721-27\u865f\u53ca\u8377\u674e\u6d3b\u9053208-214\u865f\u592a\u5e73\u5927\u5ec8\u5730 \u4e0bA\u8216\u53ca\u4e00\u6a13A\u8216\u90e8\u4efd\u53caB\u8216 208",
  "geocode_en": [
    {
      "address_components": [
        {
          "long_name": "Tai Ping Mansion",
          "short_name": "Tai Ping Mansion",
          "types": [
            "premise"
          ]
        },
        {
          "long_name": "208-214",
          "short_name": "208-214",
          "types": [
            "street_number"
          ]
        },
        {
          "long_name": "Hollywood Road",
          "short_name": "Hollywood Rd",
          "types": [
            "route"
          ]
        },
        {
          "long_name": "Tai Ping Shan",
          "short_name": "Tai Ping Shan",
          "types": [
            "neighborhood",
            "political"
          ]
        },
        {
          "long_name": "Hong Kong Island",
          "short_name": "Hong Kong Island",
          "types": [
            "administrative_area_level_1",
            "political"
          ]
        },
        {
          "long_name": "Hong Kong",
          "short_name": "HK",
          "types": [
            "country",
            "political"
          ]
        }
      ],
      "formatted_address": "Tai Ping Mansion, 208-214 Hollywood Rd, Tai Ping Shan, Hong Kong",
      "geometry": {
        "bounds": {
          "northeast": {
            "lat": 22.28552,
            "lng": 114.147787
          },
          "southwest": {
            "lat": 22.2853329,
            "lng": 114.1475819
          }
        },
        "location": {
          "lat": 22.2854345,
          "lng": 114.147686
        },
        "location_type": "ROOFTOP",
        "viewport": {
          "northeast": {
            "lat": 22.2867754302915,
            "lng": 114.1490334302915
          },
          "southwest": {
            "lat": 22.2840774697085,
            "lng": 114.1463354697085
          }
        }
      },
      "partial_match": true,
      "place_id": "ChIJVS_RxH4ABDQRkMXuhfeXujs",
      "types": [
        "premise"
      ]
    }
  ],
  "geocode_tc": [
    {
      "address_components": [
        {
          "long_name": "\u592a\u5e73\u5927\u5ec8",
          "short_name": "\u592a\u5e73\u5927\u5ec8",
          "types": [
            "premise"
          ]
        },
        {
          "long_name": "208-214",
          "short_name": "208-214",
          "types": [
            "street_number"
          ]
        },
        {
          "long_name": "\u8377\u674e\u6d3b\u9053",
          "short_name": "\u8377\u674e\u6d3b\u9053",
          "types": [
            "route"
          ]
        },
        {
          "long_name": "\u592a\u5e73\u5c71",
          "short_name": "\u592a\u5e73\u5c71",
          "types": [
            "neighborhood",
            "political"
          ]
        },
        {
          "long_name": "\u9999\u6e2f\u5cf6",
          "short_name": "\u9999\u6e2f\u5cf6",
          "types": [
            "administrative_area_level_1",
            "political"
          ]
        },
        {
          "long_name": "\u9999\u6e2f",
          "short_name": "HK",
          "types": [
            "country",
            "political"
          ]
        }
      ],
      "formatted_address": "\u9999\u6e2f\u592a\u5e73\u5c71\u8377\u674e\u6d3b\u9053208-214\u865f\u592a\u5e73\u5927\u5ec8",
      "geometry": {
        "bounds": {
          "northeast": {
            "lat": 22.28552,
            "lng": 114.147787
          },
          "southwest": {
            "lat": 22.2853329,
            "lng": 114.1475819
          }
        },
        "location": {
          "lat": 22.2854345,
          "lng": 114.147686
        },
        "location_type": "ROOFTOP",
        "viewport": {
          "northeast": {
            "lat": 22.2867754302915,
            "lng": 114.1490334302915
          },
          "southwest": {
            "lat": 22.2840774697085,
            "lng": 114.1463354697085
          }
        }
      },
      "partial_match": true,
      "place_id": "ChIJVS_RxH4ABDQRkMXuhfeXujs",
      "types": [
        "premise"
      ]
    }
  ],
  "licno": "2218804340",
  "timestamp": 1564968756,
  "version": "1564966095"
}
