{
  "adr_en": "CHINESE KITCHEN, 4/F & 5/F., CHINA HONG KONG CENTRE, 122-126 CANTON ROAD, TSIM SHA TSUI, KOWLOON",
  "adr_tc": "\u4e5d\u9f8d\u5c16\u6c99\u5480\uff0c\u5ee3\u6771\u9053122-126\u865f\uff0c\u4e2d\u6e2f\u4e2d\u5fc35\u6a13\u53ca4\u6a13 \u4e2d\u570b\u5eda\u623f",
  "geocode_en": [
    {
      "address_components": [
        {
          "long_name": "122",
          "short_name": "122",
          "types": [
            "street_number"
          ]
        },
        {
          "long_name": "Canton Road",
          "short_name": "Canton Rd",
          "types": [
            "route"
          ]
        },
        {
          "long_name": "Tsim Sha Tsui",
          "short_name": "Tsim Sha Tsui",
          "types": [
            "neighborhood",
            "political"
          ]
        },
        {
          "long_name": "Hong Kong",
          "short_name": "HK",
          "types": [
            "country",
            "political"
          ]
        }
      ],
      "formatted_address": "Hong Kong, Tsim Sha Tsui, Canton Rd, 122\u865f\u5c16\u6c99\u5480 \u865f \u4e2d\u6e2f \u4e2d\u5fc3 5 \u6a13",
      "geometry": {
        "location": {
          "lat": 22.2994334,
          "lng": 114.1686643
        },
        "location_type": "ROOFTOP",
        "viewport": {
          "northeast": {
            "lat": 22.3007823802915,
            "lng": 114.1700132802915
          },
          "southwest": {
            "lat": 22.29808441970849,
            "lng": 114.1673153197085
          }
        }
      },
      "partial_match": true,
      "place_id": "ChIJwxQbOe0ABDQRhaqEYNR6_Ww",
      "plus_code": {
        "compound_code": "75X9+QF Hong Kong",
        "global_code": "7PJP75X9+QF"
      },
      "types": [
        "establishment",
        "food",
        "point_of_interest",
        "restaurant"
      ]
    },
    {
      "address_components": [
        {
          "long_name": "China Hong Kong Centre",
          "short_name": "China Hong Kong Centre",
          "types": [
            "premise"
          ]
        },
        {
          "long_name": "122-126",
          "short_name": "122-126",
          "types": [
            "street_number"
          ]
        },
        {
          "long_name": "Canton Road",
          "short_name": "Canton Rd",
          "types": [
            "route"
          ]
        },
        {
          "long_name": "Tsim Sha Tsui",
          "short_name": "Tsim Sha Tsui",
          "types": [
            "neighborhood",
            "political"
          ]
        },
        {
          "long_name": "Kowloon",
          "short_name": "Kowloon",
          "types": [
            "administrative_area_level_1",
            "political"
          ]
        },
        {
          "long_name": "Hong Kong",
          "short_name": "HK",
          "types": [
            "country",
            "political"
          ]
        }
      ],
      "formatted_address": "China Hong Kong Centre, 122-126 Canton Rd, Tsim Sha Tsui, Hong Kong",
      "geometry": {
        "bounds": {
          "northeast": {
            "lat": 22.2995781,
            "lng": 114.1688385
          },
          "southwest": {
            "lat": 22.2994115,
            "lng": 114.1686284
          }
        },
        "location": {
          "lat": 22.2994919,
          "lng": 114.1686912
        },
        "location_type": "ROOFTOP",
        "viewport": {
          "northeast": {
            "lat": 22.3008437802915,
            "lng": 114.1700824302915
          },
          "southwest": {
            "lat": 22.29814581970849,
            "lng": 114.1673844697085
          }
        }
      },
      "partial_match": true,
      "place_id": "ChIJzfPmOO0ABDQRKDqeUr270ZA",
      "types": [
        "premise"
      ]
    }
  ],
  "geocode_tc": [
    {
      "address_components": [
        {
          "long_name": "122",
          "short_name": "122",
          "types": [
            "street_number"
          ]
        },
        {
          "long_name": "\u5ee3\u6771\u9053",
          "short_name": "\u5ee3\u6771\u9053",
          "types": [
            "route"
          ]
        },
        {
          "long_name": "\u5c16\u6c99\u5480",
          "short_name": "\u5c16\u6c99\u5480",
          "types": [
            "neighborhood",
            "political"
          ]
        },
        {
          "long_name": "\u9999\u6e2f",
          "short_name": "HK",
          "types": [
            "country",
            "political"
          ]
        }
      ],
      "formatted_address": "\u9999\u6e2f\u5c16\u6c99\u5480\u5ee3\u6771\u9053122\u865f\u5c16\u6c99\u5480 \u865f \u4e2d\u6e2f \u4e2d\u5fc3 5 \u6a13",
      "geometry": {
        "location": {
          "lat": 22.2994334,
          "lng": 114.1686643
        },
        "location_type": "ROOFTOP",
        "viewport": {
          "northeast": {
            "lat": 22.3007823802915,
            "lng": 114.1700132802915
          },
          "southwest": {
            "lat": 22.29808441970849,
            "lng": 114.1673153197085
          }
        }
      },
      "place_id": "ChIJwxQbOe0ABDQRhaqEYNR6_Ww",
      "plus_code": {
        "compound_code": "75X9+QF \u9999\u6e2f",
        "global_code": "7PJP75X9+QF"
      },
      "types": [
        "establishment",
        "food",
        "point_of_interest",
        "restaurant"
      ]
    }
  ],
  "licno": "2261805251",
  "timestamp": 1564968756,
  "version": "1564966095"
}
