{
  "adr_en": "\u672c\u9663, 21/F, H8, 8 HAU FOOK STREET, TSIM SHA TSUI, KOWLOON",
  "adr_tc": "\u4e5d\u9f8d\u5c16\u6c99\u5480\u539a\u798f\u88578\u865fH8 21\u6a13 \u672c\u9663",
  "geocode_en": [
    {
      "address_components": [
        {
          "long_name": "Hong Kong",
          "short_name": "HK",
          "types": [
            "country",
            "political"
          ]
        }
      ],
      "formatted_address": "Hong Kong, \u5c16\u6c99\u5480\u539a\u798f\u88578\u865fH8 21\u6a13",
      "geometry": {
        "location": {
          "lat": 22.299589,
          "lng": 114.174559
        },
        "location_type": "GEOMETRIC_CENTER",
        "viewport": {
          "northeast": {
            "lat": 22.3009379802915,
            "lng": 114.1759079802915
          },
          "southwest": {
            "lat": 22.29824001970849,
            "lng": 114.1732100197085
          }
        }
      },
      "partial_match": true,
      "place_id": "ChIJTzsMY-4ABDQRqx2bIaSfZ7M",
      "plus_code": {
        "compound_code": "75XF+RR Hong Kong",
        "global_code": "7PJP75XF+RR"
      },
      "types": [
        "establishment",
        "food",
        "point_of_interest",
        "restaurant"
      ]
    },
    {
      "address_components": [
        {
          "long_name": "21",
          "short_name": "21",
          "types": [
            "subpremise"
          ]
        },
        {
          "long_name": "H8",
          "short_name": "H8",
          "types": [
            "premise"
          ]
        },
        {
          "long_name": "8",
          "short_name": "8",
          "types": [
            "street_number"
          ]
        },
        {
          "long_name": "Hau Fook Street",
          "short_name": "Hau Fook St",
          "types": [
            "route"
          ]
        },
        {
          "long_name": "Tsim Sha Tsui",
          "short_name": "Tsim Sha Tsui",
          "types": [
            "neighborhood",
            "political"
          ]
        },
        {
          "long_name": "Kowloon",
          "short_name": "Kowloon",
          "types": [
            "administrative_area_level_1",
            "political"
          ]
        },
        {
          "long_name": "Hong Kong",
          "short_name": "HK",
          "types": [
            "country",
            "political"
          ]
        }
      ],
      "formatted_address": "21, H8, 8 Hau Fook St, Tsim Sha Tsui, Hong Kong",
      "geometry": {
        "bounds": {
          "northeast": {
            "lat": 22.2996961,
            "lng": 114.174652
          },
          "southwest": {
            "lat": 22.299482,
            "lng": 114.174457
          }
        },
        "location": {
          "lat": 22.2995907,
          "lng": 114.1745665
        },
        "location_type": "ROOFTOP",
        "viewport": {
          "northeast": {
            "lat": 22.3009380302915,
            "lng": 114.1759034802915
          },
          "southwest": {
            "lat": 22.29824006970849,
            "lng": 114.1732055197085
          }
        }
      },
      "partial_match": true,
      "place_id": "Ei8yMSwgSDgsIDggSGF1IEZvb2sgU3QsIFRzaW0gU2hhIFRzdWksIEhvbmcgS29uZyIeGhwKFgoUChIJ58wNY-4ABDQRnnUl6PqFWu0SAjIx",
      "types": [
        "subpremise"
      ]
    },
    {
      "address_components": [
        {
          "long_name": "F",
          "short_name": "F",
          "types": [
            "subpremise"
          ]
        },
        {
          "long_name": "H8",
          "short_name": "H8",
          "types": [
            "premise"
          ]
        },
        {
          "long_name": "8",
          "short_name": "8",
          "types": [
            "street_number"
          ]
        },
        {
          "long_name": "Hau Fook Street",
          "short_name": "Hau Fook St",
          "types": [
            "route"
          ]
        },
        {
          "long_name": "Tsim Sha Tsui",
          "short_name": "Tsim Sha Tsui",
          "types": [
            "neighborhood",
            "political"
          ]
        },
        {
          "long_name": "Kowloon",
          "short_name": "Kowloon",
          "types": [
            "administrative_area_level_1",
            "political"
          ]
        },
        {
          "long_name": "Hong Kong",
          "short_name": "HK",
          "types": [
            "country",
            "political"
          ]
        }
      ],
      "formatted_address": "F, H8, 8 Hau Fook St, Tsim Sha Tsui, Hong Kong",
      "geometry": {
        "bounds": {
          "northeast": {
            "lat": 22.2996961,
            "lng": 114.174652
          },
          "southwest": {
            "lat": 22.299482,
            "lng": 114.174457
          }
        },
        "location": {
          "lat": 22.2995907,
          "lng": 114.1745665
        },
        "location_type": "ROOFTOP",
        "viewport": {
          "northeast": {
            "lat": 22.3009380302915,
            "lng": 114.1759034802915
          },
          "southwest": {
            "lat": 22.29824006970849,
            "lng": 114.1732055197085
          }
        }
      },
      "partial_match": true,
      "place_id": "Ei5GLCBIOCwgOCBIYXUgRm9vayBTdCwgVHNpbSBTaGEgVHN1aSwgSG9uZyBLb25nIh0aGwoWChQKEgnnzA1j7gAENBGedSXo-oVa7RIBRg",
      "types": [
        "subpremise"
      ]
    }
  ],
  "geocode_tc": [
    {
      "address_components": [
        {
          "long_name": "\u9999\u6e2f",
          "short_name": "HK",
          "types": [
            "country",
            "political"
          ]
        }
      ],
      "formatted_address": "\u9999\u6e2f\u5c16\u6c99\u5480\u539a\u798f\u88578\u865fH8 21\u6a13",
      "geometry": {
        "location": {
          "lat": 22.299589,
          "lng": 114.174559
        },
        "location_type": "GEOMETRIC_CENTER",
        "viewport": {
          "northeast": {
            "lat": 22.3009379802915,
            "lng": 114.1759079802915
          },
          "southwest": {
            "lat": 22.29824001970849,
            "lng": 114.1732100197085
          }
        }
      },
      "place_id": "ChIJTzsMY-4ABDQRqx2bIaSfZ7M",
      "plus_code": {
        "compound_code": "75XF+RR \u9999\u6e2f",
        "global_code": "7PJP75XF+RR"
      },
      "types": [
        "establishment",
        "food",
        "point_of_interest",
        "restaurant"
      ]
    }
  ],
  "licno": "2261808065",
  "timestamp": 1564968756,
  "version": "1564966095"
}
