{
  "adr_en": "\u4e91\u5357\u5c0f\u934b\u7c73\u7dda, SHOP 38, L2, WALDORF GARDEN, 1 TUEN LEE STREET, TUEN MUN, NEW TERRITORIES",
  "adr_tc": "\u65b0\u754c\u5c6f\u9580 \u5c6f\u5229\u88571\u865f \u83ef\u90fd\u82b1\u5712\u7b2c2\u5c64 38\u865f\u92ea \u4e91\u5357\u5c0f\u934b\u7c73\u7dda",
  "geocode_en": [
    {
      "address_components": [
        {
          "long_name": "Hong Kong",
          "short_name": "HK",
          "types": [
            "country",
            "political"
          ]
        }
      ],
      "formatted_address": "Shop 38, L2, Waldorf Garden, 1 Tuen Lee Street, Tuen Mun, New Territories, Hong Kong",
      "geometry": {
        "location": {
          "lat": 22.391902,
          "lng": 113.9782
        },
        "location_type": "GEOMETRIC_CENTER",
        "viewport": {
          "northeast": {
            "lat": 22.3932509802915,
            "lng": 113.9795489802915
          },
          "southwest": {
            "lat": 22.39055301970849,
            "lng": 113.9768510197085
          }
        }
      },
      "place_id": "ChIJAUN5Mhb7AzQRFUEbTP30Z7w",
      "plus_code": {
        "compound_code": "9XRH+Q7 Hong Kong",
        "global_code": "7PJM9XRH+Q7"
      },
      "types": [
        "establishment",
        "point_of_interest"
      ]
    }
  ],
  "geocode_tc": [
    {
      "address_components": [
        {
          "long_name": "\u9999\u6e2f",
          "short_name": "HK",
          "types": [
            "country",
            "political"
          ]
        }
      ],
      "formatted_address": "\u9999\u6e2f\u5c6f\u9580\u83ef\u90fd\u5546\u5834\u4e00\u6a1338\u865f\u8216",
      "geometry": {
        "location": {
          "lat": 22.3913085,
          "lng": 113.9781127
        },
        "location_type": "GEOMETRIC_CENTER",
        "viewport": {
          "northeast": {
            "lat": 22.3926574802915,
            "lng": 113.9794616802915
          },
          "southwest": {
            "lat": 22.38995951970849,
            "lng": 113.9767637197085
          }
        }
      },
      "place_id": "ChIJs0ZbLhb7AzQRTlBolXJY9Pg",
      "plus_code": {
        "compound_code": "9XRH+G6 \u9999\u6e2f",
        "global_code": "7PJM9XRH+G6"
      },
      "types": [
        "establishment",
        "food",
        "point_of_interest",
        "restaurant"
      ]
    },
    {
      "address_components": [
        {
          "long_name": "1",
          "short_name": "1",
          "types": [
            "street_number"
          ]
        },
        {
          "long_name": "\u5c6f\u5229\u8857",
          "short_name": "\u5c6f\u5229\u8857",
          "types": [
            "route"
          ]
        },
        {
          "long_name": "\u5c6f\u9580",
          "short_name": "\u5c6f\u9580",
          "types": [
            "neighborhood",
            "political"
          ]
        },
        {
          "long_name": "\u65b0\u754c",
          "short_name": "\u65b0\u754c",
          "types": [
            "administrative_area_level_1",
            "political"
          ]
        },
        {
          "long_name": "\u9999\u6e2f",
          "short_name": "HK",
          "types": [
            "country",
            "political"
          ]
        }
      ],
      "formatted_address": "\u9999\u6e2f\u5c6f\u9580\u5c6f\u5229\u88571\u865f",
      "geometry": {
        "location": {
          "lat": 22.3918997,
          "lng": 113.9782009
        },
        "location_type": "ROOFTOP",
        "viewport": {
          "northeast": {
            "lat": 22.3932486802915,
            "lng": 113.9795498802915
          },
          "southwest": {
            "lat": 22.3905507197085,
            "lng": 113.9768519197085
          }
        }
      },
      "place_id": "ChIJVxKALhb7AzQRGzkGUNSBrqQ",
      "plus_code": {
        "compound_code": "9XRH+Q7 \u9999\u6e2f",
        "global_code": "7PJM9XRH+Q7"
      },
      "types": [
        "establishment",
        "point_of_interest"
      ]
    }
  ],
  "licno": "3193800318",
  "timestamp": 1564975666,
  "version": "1564966095"
}
