{
  "adr_en": "Cedele Bakery Caf\u00e9, UNIT E6, 1/F, CITI TOWER, ONE BAY EAST, NO. 83 HOI BUN ROAD, KWUN TONG, KOWLOON",
  "adr_tc": "\u4e5d\u9f8d\u89c0\u5858\u6d77\u6ff1\u905383\u865fCITI TOWER,  ONE BAY EAST 1\u6a13E6\u55ae\u4f4d Cedele Bakery Caf\u00e9",
  "geocode_en": [
    {
      "address_components": [
        {
          "long_name": "83",
          "short_name": "83",
          "types": [
            "street_number"
          ]
        },
        {
          "long_name": "Hoi Bun Road",
          "short_name": "Hoi Bun Rd",
          "types": [
            "route"
          ]
        },
        {
          "long_name": "Kowloon",
          "short_name": "Kowloon",
          "types": [
            "administrative_area_level_1",
            "political"
          ]
        },
        {
          "long_name": "Hong Kong",
          "short_name": "HK",
          "types": [
            "country",
            "political"
          ]
        }
      ],
      "formatted_address": "83 Hoi Bun Rd, Hong Kong",
      "geometry": {
        "location": {
          "lat": 22.3155223,
          "lng": 114.2148301
        },
        "location_type": "ROOFTOP",
        "viewport": {
          "northeast": {
            "lat": 22.3168712802915,
            "lng": 114.2161790802915
          },
          "southwest": {
            "lat": 22.31417331970849,
            "lng": 114.2134811197085
          }
        }
      },
      "partial_match": true,
      "place_id": "ChIJt4Xr0zcBBDQRD_m_-bgtobs",
      "plus_code": {
        "compound_code": "8687+6W Hong Kong",
        "global_code": "7PJP8687+6W"
      },
      "types": [
        "establishment",
        "point_of_interest",
        "premise"
      ]
    },
    {
      "address_components": [
        {
          "long_name": "Manulife Tower at One Bay East",
          "short_name": "Manulife Tower at One Bay East",
          "types": [
            "premise"
          ]
        },
        {
          "long_name": "83",
          "short_name": "83",
          "types": [
            "street_number"
          ]
        },
        {
          "long_name": "Hoi Bun Road",
          "short_name": "Hoi Bun Rd",
          "types": [
            "route"
          ]
        },
        {
          "long_name": "Kowloon",
          "short_name": "Kowloon",
          "types": [
            "administrative_area_level_1",
            "political"
          ]
        },
        {
          "long_name": "Hong Kong",
          "short_name": "HK",
          "types": [
            "country",
            "political"
          ]
        }
      ],
      "formatted_address": "Manulife Tower at One Bay East, 83 Hoi Bun Rd, Hong Kong",
      "geometry": {
        "bounds": {
          "northeast": {
            "lat": 22.3162297,
            "lng": 114.2147683
          },
          "southwest": {
            "lat": 22.3155945,
            "lng": 114.2140872
          }
        },
        "location": {
          "lat": 22.3159461,
          "lng": 114.2144372
        },
        "location_type": "ROOFTOP",
        "viewport": {
          "northeast": {
            "lat": 22.3172610802915,
            "lng": 114.2157767302915
          },
          "southwest": {
            "lat": 22.3145631197085,
            "lng": 114.2130787697085
          }
        }
      },
      "partial_match": true,
      "place_id": "ChIJPZ7MMjYBBDQRdCQM_Y-EKuU",
      "types": [
        "premise"
      ]
    },
    {
      "address_components": [
        {
          "long_name": "Manulife Tower at One Bay East",
          "short_name": "Manulife Tower at One Bay East",
          "types": [
            "premise"
          ]
        },
        {
          "long_name": "83",
          "short_name": "83",
          "types": [
            "street_number"
          ]
        },
        {
          "long_name": "Hoi Bun Road",
          "short_name": "Hoi Bun Rd",
          "types": [
            "route"
          ]
        },
        {
          "long_name": "Kowloon",
          "short_name": "Kowloon",
          "types": [
            "administrative_area_level_1",
            "political"
          ]
        },
        {
          "long_name": "Hong Kong",
          "short_name": "HK",
          "types": [
            "country",
            "political"
          ]
        }
      ],
      "formatted_address": "Manulife Tower at One Bay East, 83 Hoi Bun Rd, Hong Kong",
      "geometry": {
        "bounds": {
          "northeast": {
            "lat": 22.3162297,
            "lng": 114.2147683
          },
          "southwest": {
            "lat": 22.3155945,
            "lng": 114.2140872
          }
        },
        "location": {
          "lat": 22.3159461,
          "lng": 114.2144372
        },
        "location_type": "ROOFTOP",
        "viewport": {
          "northeast": {
            "lat": 22.3172610802915,
            "lng": 114.2157767302915
          },
          "southwest": {
            "lat": 22.3145631197085,
            "lng": 114.2130787697085
          }
        }
      },
      "partial_match": true,
      "place_id": "ChIJPZ7MMjYBBDQRdCQM_Y-EKuU",
      "types": [
        "premise"
      ]
    }
  ],
  "geocode_tc": [
    {
      "address_components": [
        {
          "long_name": "83",
          "short_name": "83",
          "types": [
            "street_number"
          ]
        },
        {
          "long_name": "\u6d77\u6ff1\u9053",
          "short_name": "\u6d77\u6ff1\u9053",
          "types": [
            "route"
          ]
        },
        {
          "long_name": "\u4e5d\u9f8d",
          "short_name": "\u4e5d\u9f8d",
          "types": [
            "administrative_area_level_1",
            "political"
          ]
        },
        {
          "long_name": "\u9999\u6e2f",
          "short_name": "HK",
          "types": [
            "country",
            "political"
          ]
        }
      ],
      "formatted_address": "\u9999\u6e2f\u6d77\u6ff1\u905383\u865f",
      "geometry": {
        "location": {
          "lat": 22.3155223,
          "lng": 114.2148301
        },
        "location_type": "ROOFTOP",
        "viewport": {
          "northeast": {
            "lat": 22.3168712802915,
            "lng": 114.2161790802915
          },
          "southwest": {
            "lat": 22.31417331970849,
            "lng": 114.2134811197085
          }
        }
      },
      "partial_match": true,
      "place_id": "ChIJt4Xr0zcBBDQRD_m_-bgtobs",
      "plus_code": {
        "compound_code": "8687+6W \u9999\u6e2f",
        "global_code": "7PJP8687+6W"
      },
      "types": [
        "establishment",
        "point_of_interest",
        "premise"
      ]
    },
    {
      "address_components": [
        {
          "long_name": "Manulife Tower at One Bay East",
          "short_name": "Manulife Tower at One Bay East",
          "types": [
            "premise"
          ]
        },
        {
          "long_name": "83",
          "short_name": "83",
          "types": [
            "street_number"
          ]
        },
        {
          "long_name": "Hoi Bun Road",
          "short_name": "Hoi Bun Rd",
          "types": [
            "route"
          ]
        },
        {
          "long_name": "Kowloon",
          "short_name": "Kowloon",
          "types": [
            "administrative_area_level_1",
            "political"
          ]
        },
        {
          "long_name": "\u9999\u6e2f",
          "short_name": "HK",
          "types": [
            "country",
            "political"
          ]
        }
      ],
      "formatted_address": "Manulife Tower at One Bay East, 83 Hoi Bun Rd, \u9999\u6e2f",
      "geometry": {
        "bounds": {
          "northeast": {
            "lat": 22.3162297,
            "lng": 114.2147683
          },
          "southwest": {
            "lat": 22.3155945,
            "lng": 114.2140872
          }
        },
        "location": {
          "lat": 22.3159461,
          "lng": 114.2144372
        },
        "location_type": "ROOFTOP",
        "viewport": {
          "northeast": {
            "lat": 22.3172610802915,
            "lng": 114.2157767302915
          },
          "southwest": {
            "lat": 22.3145631197085,
            "lng": 114.2130787697085
          }
        }
      },
      "partial_match": true,
      "place_id": "ChIJPZ7MMjYBBDQRdCQM_Y-EKuU",
      "types": [
        "premise"
      ]
    },
    {
      "address_components": [
        {
          "long_name": "Manulife Tower at One Bay East",
          "short_name": "Manulife Tower at One Bay East",
          "types": [
            "premise"
          ]
        },
        {
          "long_name": "83",
          "short_name": "83",
          "types": [
            "street_number"
          ]
        },
        {
          "long_name": "Hoi Bun Road",
          "short_name": "Hoi Bun Rd",
          "types": [
            "route"
          ]
        },
        {
          "long_name": "Kowloon",
          "short_name": "Kowloon",
          "types": [
            "administrative_area_level_1",
            "political"
          ]
        },
        {
          "long_name": "\u9999\u6e2f",
          "short_name": "HK",
          "types": [
            "country",
            "political"
          ]
        }
      ],
      "formatted_address": "Manulife Tower at One Bay East, 83 Hoi Bun Rd, \u9999\u6e2f",
      "geometry": {
        "bounds": {
          "northeast": {
            "lat": 22.3162297,
            "lng": 114.2147683
          },
          "southwest": {
            "lat": 22.3155945,
            "lng": 114.2140872
          }
        },
        "location": {
          "lat": 22.3159461,
          "lng": 114.2144372
        },
        "location_type": "ROOFTOP",
        "viewport": {
          "northeast": {
            "lat": 22.3172610802915,
            "lng": 114.2157767302915
          },
          "southwest": {
            "lat": 22.3145631197085,
            "lng": 114.2130787697085
          }
        }
      },
      "partial_match": true,
      "place_id": "ChIJPZ7MMjYBBDQRdCQM_Y-EKuU",
      "types": [
        "premise"
      ]
    }
  ],
  "licno": "3151801874",
  "timestamp": 1564975666,
  "version": "1564966095"
}
