{
  "adr_en": "\u5229\u8208\u71d2\u81d8\u98ef\u5e97, SHOP E & D, G/F, FUNG YUE BUILDING, 70-86 KAU YUK ROAD, YUEN LONG, NEW TERRITORIES",
  "adr_tc": "\u65b0\u754c\u5143\u6717\u6559\u80b2\u8def70-86\u865f\u8c50\u88d5\u6a13\u5730\u4e0bE\u53caD\u92ea \u5229\u8208\u71d2\u81d8\u98ef\u5e97",
  "geocode_en": [
    {
      "address_components": [
        {
          "long_name": "2-14",
          "short_name": "2-14",
          "types": [
            "street_number"
          ]
        },
        {
          "long_name": "Fung Heung Street",
          "short_name": "Fung Heung St",
          "types": [
            "route"
          ]
        },
        {
          "long_name": "Yuen Long",
          "short_name": "Yuen Long",
          "types": [
            "neighborhood",
            "political"
          ]
        },
        {
          "long_name": "New Territories",
          "short_name": "New Territories",
          "types": [
            "administrative_area_level_1",
            "political"
          ]
        },
        {
          "long_name": "Hong Kong",
          "short_name": "HK",
          "types": [
            "country",
            "political"
          ]
        }
      ],
      "formatted_address": "2-14 Fung Heung St, Yuen Long, Hong Kong",
      "geometry": {
        "location": {
          "lat": 22.4423858,
          "lng": 114.0328999
        },
        "location_type": "ROOFTOP",
        "viewport": {
          "northeast": {
            "lat": 22.4437347802915,
            "lng": 114.0342488802915
          },
          "southwest": {
            "lat": 22.4410368197085,
            "lng": 114.0315509197085
          }
        }
      },
      "partial_match": true,
      "place_id": "ChIJ21xUYqfwAzQR73qmCTVmvrc",
      "plus_code": {
        "compound_code": "C2RM+X5 Hong Kong",
        "global_code": "7PJPC2RM+X5"
      },
      "types": [
        "establishment",
        "food",
        "point_of_interest",
        "restaurant"
      ]
    },
    {
      "address_components": [
        {
          "long_name": "Fung Yue Building",
          "short_name": "Fung Yue Building",
          "types": [
            "premise"
          ]
        },
        {
          "long_name": "70",
          "short_name": "70",
          "types": [
            "street_number"
          ]
        },
        {
          "long_name": "Kau Yuk Road",
          "short_name": "Kau Yuk Rd",
          "types": [
            "route"
          ]
        },
        {
          "long_name": "Yuen Long",
          "short_name": "Yuen Long",
          "types": [
            "neighborhood",
            "political"
          ]
        },
        {
          "long_name": "New Territories",
          "short_name": "New Territories",
          "types": [
            "administrative_area_level_1",
            "political"
          ]
        },
        {
          "long_name": "Hong Kong",
          "short_name": "HK",
          "types": [
            "country",
            "political"
          ]
        }
      ],
      "formatted_address": "Fung Yue Building, 70 Kau Yuk Rd, Yuen Long, Hong Kong",
      "geometry": {
        "bounds": {
          "northeast": {
            "lat": 22.443214,
            "lng": 114.0254631
          },
          "southwest": {
            "lat": 22.44311,
            "lng": 114.025033
          }
        },
        "location": {
          "lat": 22.4431688,
          "lng": 114.0252695
        },
        "location_type": "ROOFTOP",
        "viewport": {
          "northeast": {
            "lat": 22.4445109802915,
            "lng": 114.0265970302915
          },
          "southwest": {
            "lat": 22.4418130197085,
            "lng": 114.0238990697085
          }
        }
      },
      "partial_match": true,
      "place_id": "ChIJndOxqwr6AzQRkMyy5wA2ghs",
      "types": [
        "premise"
      ]
    }
  ],
  "geocode_tc": [
    {
      "address_components": [
        {
          "long_name": "\u5730\u4e0bE\u53caD",
          "short_name": "\u5730\u4e0bE\u53caD",
          "types": [
            "subpremise"
          ]
        },
        {
          "long_name": "\u8c50\u88d5\u6a13",
          "short_name": "\u8c50\u88d5\u6a13",
          "types": [
            "premise"
          ]
        },
        {
          "long_name": "70",
          "short_name": "70",
          "types": [
            "street_number"
          ]
        },
        {
          "long_name": "\u6559\u80b2\u8def",
          "short_name": "\u6559\u80b2\u8def",
          "types": [
            "route"
          ]
        },
        {
          "long_name": "\u5143\u6717",
          "short_name": "\u5143\u6717",
          "types": [
            "neighborhood",
            "political"
          ]
        },
        {
          "long_name": "\u65b0\u754c",
          "short_name": "\u65b0\u754c",
          "types": [
            "administrative_area_level_1",
            "political"
          ]
        },
        {
          "long_name": "\u9999\u6e2f",
          "short_name": "HK",
          "types": [
            "country",
            "political"
          ]
        }
      ],
      "formatted_address": "\u9999\u6e2f\u5143\u6717\u6559\u80b2\u8def70\u865f\u8c50\u88d5\u6a13\u5730\u4e0bE\u53caD",
      "geometry": {
        "bounds": {
          "northeast": {
            "lat": 22.443214,
            "lng": 114.0254631
          },
          "southwest": {
            "lat": 22.44311,
            "lng": 114.025033
          }
        },
        "location": {
          "lat": 22.4431688,
          "lng": 114.0252695
        },
        "location_type": "ROOFTOP",
        "viewport": {
          "northeast": {
            "lat": 22.4445109802915,
            "lng": 114.0265970302915
          },
          "southwest": {
            "lat": 22.4418130197085,
            "lng": 114.0238990697085
          }
        }
      },
      "partial_match": true,
      "place_id": "EkPlnLDkuItF5Y-KRCwgRnVuZyBZdWUgQnVpbGRpbmcsIDcwIEthdSBZdWsgUmQsIFl1ZW4gTG9uZywgSG9uZyBLb25nIicaJQoWChQKEgmd07GrCvoDNBGQzLLnADaCGxIL5Zyw5LiLReWPikQ",
      "types": [
        "subpremise"
      ]
    },
    {
      "address_components": [
        {
          "long_name": "\u9999\u6e2f",
          "short_name": "HK",
          "types": [
            "country",
            "political"
          ]
        }
      ],
      "formatted_address": "\u9999\u6e2fShop 3C, G/F, 50 Soy Street, Mongkok, Mong Kok",
      "geometry": {
        "location": {
          "lat": 22.316659,
          "lng": 114.172617
        },
        "location_type": "GEOMETRIC_CENTER",
        "viewport": {
          "northeast": {
            "lat": 22.3180079802915,
            "lng": 114.1739659802915
          },
          "southwest": {
            "lat": 22.31531001970849,
            "lng": 114.1712680197085
          }
        }
      },
      "partial_match": true,
      "place_id": "ChIJk_xticYABDQRxmJQtnwxPrQ",
      "plus_code": {
        "compound_code": "858F+M2 \u9999\u6e2f",
        "global_code": "7PJP858F+M2"
      },
      "types": [
        "establishment",
        "food",
        "point_of_interest",
        "restaurant"
      ]
    }
  ],
  "licno": "2294806315",
  "timestamp": 1564975666,
  "version": "1564966095"
}
