{
  "adr_en": "Frantzen's Kitchen, SHOP A & C, G/F., 11 UPPER STATION STREET, WESTERN, HONG KONG",
  "adr_tc": "\u9999\u6e2f\u4e0a\u74b0\u5dee\u9928\u91cc\u4e0a\u885711\u865f\u5730\u4e0bA\u53caC\u865f\u92ea Frantzen's Kitchen",
  "geocode_en": [
    {
      "address_components": [
        {
          "long_name": "11",
          "short_name": "11",
          "types": [
            "street_number"
          ]
        },
        {
          "long_name": "Upper Station Street",
          "short_name": "Upper Station St",
          "types": [
            "route"
          ]
        },
        {
          "long_name": "Sheung Wan",
          "short_name": "Sheung Wan",
          "types": [
            "neighborhood",
            "political"
          ]
        },
        {
          "long_name": "Hong Kong Island",
          "short_name": "Hong Kong Island",
          "types": [
            "administrative_area_level_1",
            "political"
          ]
        },
        {
          "long_name": "Hong Kong",
          "short_name": "HK",
          "types": [
            "country",
            "political"
          ]
        }
      ],
      "formatted_address": "11 Upper Station St, Sheung Wan, Hong Kong",
      "geometry": {
        "location": {
          "lat": 22.284914,
          "lng": 114.1481676
        },
        "location_type": "ROOFTOP",
        "viewport": {
          "northeast": {
            "lat": 22.2862629802915,
            "lng": 114.1495165802915
          },
          "southwest": {
            "lat": 22.2835650197085,
            "lng": 114.1468186197085
          }
        }
      },
      "place_id": "ChIJLwKcyX4ABDQRZ-cFYc6uc5Q",
      "plus_code": {
        "compound_code": "74MX+X7 Sheung Wan, Hong Kong",
        "global_code": "7PJP74MX+X7"
      },
      "types": [
        "establishment",
        "food",
        "point_of_interest",
        "restaurant"
      ]
    }
  ],
  "geocode_tc": [
    {
      "address_components": [
        {
          "long_name": "\u5dee\u9928\u91cc",
          "short_name": "\u5dee\u9928\u91cc",
          "types": [
            "route"
          ]
        },
        {
          "long_name": "\u7d05\u78e1",
          "short_name": "\u7d05\u78e1",
          "types": [
            "neighborhood",
            "political"
          ]
        },
        {
          "long_name": "\u4e5d\u9f8d",
          "short_name": "\u4e5d\u9f8d",
          "types": [
            "administrative_area_level_1",
            "political"
          ]
        },
        {
          "long_name": "\u9999\u6e2f",
          "short_name": "HK",
          "types": [
            "country",
            "political"
          ]
        }
      ],
      "formatted_address": "\u9999\u6e2f\u7d05\u78e1\u5dee\u9928\u91cc",
      "geometry": {
        "bounds": {
          "northeast": {
            "lat": 22.3087886,
            "lng": 114.1874082
          },
          "southwest": {
            "lat": 22.3068738,
            "lng": 114.1843894
          }
        },
        "location": {
          "lat": 22.307951,
          "lng": 114.185723
        },
        "location_type": "GEOMETRIC_CENTER",
        "viewport": {
          "northeast": {
            "lat": 22.3091801802915,
            "lng": 114.1874082
          },
          "southwest": {
            "lat": 22.3064822197085,
            "lng": 114.1843894
          }
        }
      },
      "partial_match": true,
      "place_id": "ChIJJWCudN4ABDQRH2JQ5d5DGTw",
      "types": [
        "route"
      ]
    },
    {
      "address_components": [
        {
          "long_name": "11",
          "short_name": "11",
          "types": [
            "street_number"
          ]
        },
        {
          "long_name": "\u5dee\u9928\u4e0a\u8857",
          "short_name": "\u5dee\u9928\u4e0a\u8857",
          "types": [
            "route"
          ]
        },
        {
          "long_name": "\u4e0a\u74b0",
          "short_name": "\u4e0a\u74b0",
          "types": [
            "neighborhood",
            "political"
          ]
        },
        {
          "long_name": "\u9999\u6e2f\u5cf6",
          "short_name": "\u9999\u6e2f\u5cf6",
          "types": [
            "administrative_area_level_1",
            "political"
          ]
        },
        {
          "long_name": "\u9999\u6e2f",
          "short_name": "HK",
          "types": [
            "country",
            "political"
          ]
        }
      ],
      "formatted_address": "\u9999\u6e2f\u4e0a\u74b0\u5dee\u9928\u4e0a\u885711\u865f",
      "geometry": {
        "location": {
          "lat": 22.284914,
          "lng": 114.1481676
        },
        "location_type": "ROOFTOP",
        "viewport": {
          "northeast": {
            "lat": 22.2862629802915,
            "lng": 114.1495165802915
          },
          "southwest": {
            "lat": 22.2835650197085,
            "lng": 114.1468186197085
          }
        }
      },
      "partial_match": true,
      "place_id": "ChIJLwKcyX4ABDQRZ-cFYc6uc5Q",
      "plus_code": {
        "compound_code": "74MX+X7 \u9999\u6e2f\u4e0a\u74b0",
        "global_code": "7PJP74MX+X7"
      },
      "types": [
        "establishment",
        "food",
        "point_of_interest",
        "restaurant"
      ]
    }
  ],
  "licno": "2218807622",
  "timestamp": 1564968756,
  "version": "1564966095"
}
