{
  "adr_en": "\u767e\u5229\u597d\u6d77\u9bae\u9152\u5bb6, G/F (PORTION) & SHOP NO. 128, 1/F, LEI MUK SHUE SHOPPING CENTRE, LEI MUK SHUE ESTATE PHASE 3, TSUEN WAN, NEW TERRITORIES",
  "adr_tc": "\u65b0\u754c\u8343\u7063 \u68a8\u6728\u6a39\u90a8\u7b2c\u4e09\u671f \u68a8\u6728\u6a39\u8cfc\u7269\u4e2d\u5fc3 1\u6a13128\u865f\u8216\u53ca\u5730\u4e0b(\u90e8\u4efd) \u767e\u5229\u597d\u6d77\u9bae\u9152\u5bb6",
  "geocode_en": [
    {
      "address_components": [
        {
          "long_name": "Hong Kong",
          "short_name": "HK",
          "types": [
            "country",
            "political"
          ]
        }
      ],
      "formatted_address": "Hong Kong, \u8475\u6d8c\u68a8\u6728\u6a39\u5546\u58341\u6a13",
      "geometry": {
        "location": {
          "lat": 22.3776496,
          "lng": 114.1366927
        },
        "location_type": "GEOMETRIC_CENTER",
        "viewport": {
          "northeast": {
            "lat": 22.3789985802915,
            "lng": 114.1380416802915
          },
          "southwest": {
            "lat": 22.37630061970849,
            "lng": 114.1353437197085
          }
        }
      },
      "partial_match": true,
      "place_id": "ChIJPWnd3ob4AzQRw_VAh4-KSto",
      "plus_code": {
        "compound_code": "94HP+3M Hong Kong",
        "global_code": "7PJP94HP+3M"
      },
      "types": [
        "establishment",
        "food",
        "point_of_interest",
        "restaurant"
      ]
    },
    {
      "address_components": [
        {
          "long_name": "Wo Yi Hop Road",
          "short_name": "Wo Yi Hop Rd",
          "types": [
            "route"
          ]
        },
        {
          "long_name": "Tsuen Wan",
          "short_name": "Tsuen Wan",
          "types": [
            "neighborhood",
            "political"
          ]
        },
        {
          "long_name": "New Territories",
          "short_name": "New Territories",
          "types": [
            "administrative_area_level_1",
            "political"
          ]
        },
        {
          "long_name": "Hong Kong",
          "short_name": "HK",
          "types": [
            "country",
            "political"
          ]
        }
      ],
      "formatted_address": "Wo Yi Hop Rd, Tsuen Wan, Hong Kong",
      "geometry": {
        "location": {
          "lat": 22.378159,
          "lng": 114.1366809
        },
        "location_type": "GEOMETRIC_CENTER",
        "viewport": {
          "northeast": {
            "lat": 22.37950798029151,
            "lng": 114.1380298802915
          },
          "southwest": {
            "lat": 22.3768100197085,
            "lng": 114.1353319197085
          }
        }
      },
      "partial_match": true,
      "place_id": "ChIJcXBW3ob4AzQRmOkoOM5kLiQ",
      "plus_code": {
        "compound_code": "94HP+7M Hong Kong",
        "global_code": "7PJP94HP+7M"
      },
      "types": [
        "establishment",
        "point_of_interest",
        "shopping_mall"
      ]
    }
  ],
  "geocode_tc": [
    {
      "address_components": [
        {
          "long_name": "\u8343\u7063",
          "short_name": "\u8343\u7063",
          "types": [
            "neighborhood",
            "political"
          ]
        },
        {
          "long_name": "\u65b0\u754c",
          "short_name": "\u65b0\u754c",
          "types": [
            "administrative_area_level_1",
            "political"
          ]
        },
        {
          "long_name": "\u9999\u6e2f",
          "short_name": "HK",
          "types": [
            "country",
            "political"
          ]
        }
      ],
      "formatted_address": "\u9999\u6e2f\u8343\u7063\u68a8\u6728\u6a39\u90a8",
      "geometry": {
        "location": {
          "lat": 22.3790547,
          "lng": 114.1357478
        },
        "location_type": "GEOMETRIC_CENTER",
        "viewport": {
          "northeast": {
            "lat": 22.3804036802915,
            "lng": 114.1370967802915
          },
          "southwest": {
            "lat": 22.3777057197085,
            "lng": 114.1343988197085
          }
        }
      },
      "partial_match": true,
      "place_id": "ChIJ3WAsBYf4AzQR5hCyWpOsRrc",
      "plus_code": {
        "compound_code": "94HP+J7 \u9999\u6e2f",
        "global_code": "7PJP94HP+J7"
      },
      "types": [
        "establishment",
        "point_of_interest"
      ]
    },
    {
      "address_components": [
        {
          "long_name": "\u9999\u6e2f",
          "short_name": "HK",
          "types": [
            "country",
            "political"
          ]
        }
      ],
      "formatted_address": "\u9999\u6e2f\u8475\u6d8c\u68a8\u6728\u6a39\u5546\u58341\u6a13",
      "geometry": {
        "location": {
          "lat": 22.3776496,
          "lng": 114.1366927
        },
        "location_type": "GEOMETRIC_CENTER",
        "viewport": {
          "northeast": {
            "lat": 22.3789985802915,
            "lng": 114.1380416802915
          },
          "southwest": {
            "lat": 22.37630061970849,
            "lng": 114.1353437197085
          }
        }
      },
      "partial_match": true,
      "place_id": "ChIJPWnd3ob4AzQRw_VAh4-KSto",
      "plus_code": {
        "compound_code": "94HP+3M \u9999\u6e2f",
        "global_code": "7PJP94HP+3M"
      },
      "types": [
        "establishment",
        "food",
        "point_of_interest",
        "restaurant"
      ]
    }
  ],
  "licno": "2292800960",
  "timestamp": 1564968756,
  "version": "1564966095"
}
