{
  "adr_en": "FOOD JOURNEY, G/F, NO. 13 TIN LIU NEW VILLAGE, MA WAN, TSUEN WAN, NEW TERRITORIES",
  "adr_tc": "\u65b0\u754c\u8343\u7063\u99ac\u7063 \u7530\u5bee\u65b0\u675113\u865f\u5730\u4e0b \u5473\u2027\u89ba\u2027\u904a\u8a18",
  "geocode_en": [
    {
      "address_components": [
        {
          "long_name": "Ma Wan",
          "short_name": "Ma Wan",
          "types": [
            "neighborhood",
            "political"
          ]
        },
        {
          "long_name": "New Territories",
          "short_name": "New Territories",
          "types": [
            "administrative_area_level_1",
            "political"
          ]
        },
        {
          "long_name": "Hong Kong",
          "short_name": "HK",
          "types": [
            "country",
            "political"
          ]
        }
      ],
      "formatted_address": "13 Tin Liu New Village, Ma Wan, Hong Kong",
      "geometry": {
        "location": {
          "lat": 22.352286,
          "lng": 114.058811
        },
        "location_type": "GEOMETRIC_CENTER",
        "viewport": {
          "northeast": {
            "lat": 22.3536349802915,
            "lng": 114.0601599802915
          },
          "southwest": {
            "lat": 22.3509370197085,
            "lng": 114.0574620197085
          }
        }
      },
      "place_id": "ChIJtdSlRFL5AzQRBEVEHv0BuVg",
      "plus_code": {
        "compound_code": "9325+WG Ma Wan, Hong Kong",
        "global_code": "7PJP9325+WG"
      },
      "types": [
        "establishment",
        "food",
        "point_of_interest",
        "restaurant"
      ]
    }
  ],
  "geocode_tc": [
    {
      "address_components": [
        {
          "long_name": "\u9999\u6e2f",
          "short_name": "HK",
          "types": [
            "country",
            "political"
          ]
        }
      ],
      "formatted_address": "\u9999\u6e2f\u99ac\u7063\u7530\u5bee\u65b0\u675113\u865f\u5730\u4e0b",
      "geometry": {
        "location": {
          "lat": 22.3522501,
          "lng": 114.0588462
        },
        "location_type": "GEOMETRIC_CENTER",
        "viewport": {
          "northeast": {
            "lat": 22.3535990802915,
            "lng": 114.0601951802915
          },
          "southwest": {
            "lat": 22.3509011197085,
            "lng": 114.0574972197085
          }
        }
      },
      "place_id": "ChIJGz9JaFL5AzQR8OflIB5OSyg",
      "plus_code": {
        "compound_code": "9325+WG \u9999\u6e2f",
        "global_code": "7PJP9325+WG"
      },
      "types": [
        "cafe",
        "establishment",
        "food",
        "point_of_interest",
        "restaurant"
      ]
    }
  ],
  "licno": "2292800474",
  "timestamp": 1564968756,
  "version": "1564966095"
}
