{
  "adr_en": "\u91d1\u767c\u71d2\u81d8\u98ef\u5e97, SHOP A, G/F, YING LOY MANSION, 19-25 YU CHAU STREET, SHAM SHUI PO, KOWLOON",
  "adr_tc": "\u4e5d\u9f8d\u6df1\u6c34\u57d7\u6c5d\u5dde\u885719-25\u865f\u82f1\u4f86\u5927\u5ec8\u5730\u4e0bA\u865f\u92ea \u91d1\u767c\u71d2\u81d8\u98ef\u5e97",
  "geocode_en": [
    {
      "address_components": [
        {
          "long_name": "Yu Chau Street",
          "short_name": "Yu Chau St",
          "types": [
            "route"
          ]
        },
        {
          "long_name": "Prince Edward",
          "short_name": "Prince Edward",
          "types": [
            "neighborhood",
            "political"
          ]
        },
        {
          "long_name": "Kowloon",
          "short_name": "Kowloon",
          "types": [
            "administrative_area_level_1",
            "political"
          ]
        },
        {
          "long_name": "Hong Kong",
          "short_name": "HK",
          "types": [
            "country",
            "political"
          ]
        }
      ],
      "formatted_address": "Yu Chau St, Prince Edward, Hong Kong",
      "geometry": {
        "location": {
          "lat": 22.3255969,
          "lng": 114.166784
        },
        "location_type": "GEOMETRIC_CENTER",
        "viewport": {
          "northeast": {
            "lat": 22.3269458802915,
            "lng": 114.1681329802915
          },
          "southwest": {
            "lat": 22.3242479197085,
            "lng": 114.1654350197085
          }
        }
      },
      "partial_match": true,
      "place_id": "ChIJ0TlNDrYABDQRvLAFz0Tfz7Y",
      "plus_code": {
        "compound_code": "85G8+6P Hong Kong",
        "global_code": "7PJP85G8+6P"
      },
      "types": [
        "establishment",
        "food",
        "point_of_interest",
        "store"
      ]
    },
    {
      "address_components": [
        {
          "long_name": "Ying Loy Mansion",
          "short_name": "Ying Loy Mansion",
          "types": [
            "premise"
          ]
        },
        {
          "long_name": "19-25",
          "short_name": "19-25",
          "types": [
            "street_number"
          ]
        },
        {
          "long_name": "Yu Chau Street",
          "short_name": "Yu Chau St",
          "types": [
            "route"
          ]
        },
        {
          "long_name": "Prince Edward",
          "short_name": "Prince Edward",
          "types": [
            "neighborhood",
            "political"
          ]
        },
        {
          "long_name": "Kowloon",
          "short_name": "Kowloon",
          "types": [
            "administrative_area_level_1",
            "political"
          ]
        },
        {
          "long_name": "Hong Kong",
          "short_name": "HK",
          "types": [
            "country",
            "political"
          ]
        }
      ],
      "formatted_address": "Ying Loy Mansion, 19-25 Yu Chau St, Prince Edward, Hong Kong",
      "geometry": {
        "bounds": {
          "northeast": {
            "lat": 22.325721,
            "lng": 114.166919
          },
          "southwest": {
            "lat": 22.3254771,
            "lng": 114.166647
          }
        },
        "location": {
          "lat": 22.3255845,
          "lng": 114.1667638
        },
        "location_type": "ROOFTOP",
        "viewport": {
          "northeast": {
            "lat": 22.3269480302915,
            "lng": 114.1681319802915
          },
          "southwest": {
            "lat": 22.3242500697085,
            "lng": 114.1654340197085
          }
        }
      },
      "partial_match": true,
      "place_id": "ChIJvUZNDrYABDQRIh5jZJhoOes",
      "types": [
        "premise"
      ]
    }
  ],
  "geocode_tc": [
    {
      "address_components": [
        {
          "long_name": "\u82f1\u4f86\u5927\u5ec8",
          "short_name": "\u82f1\u4f86\u5927\u5ec8",
          "types": [
            "premise"
          ]
        },
        {
          "long_name": "19-25",
          "short_name": "19-25",
          "types": [
            "street_number"
          ]
        },
        {
          "long_name": "\u6c5d\u5dde\u8857",
          "short_name": "\u6c5d\u5dde\u8857",
          "types": [
            "route"
          ]
        },
        {
          "long_name": "\u592a\u5b50",
          "short_name": "\u592a\u5b50",
          "types": [
            "neighborhood",
            "political"
          ]
        },
        {
          "long_name": "\u4e5d\u9f8d",
          "short_name": "\u4e5d\u9f8d",
          "types": [
            "administrative_area_level_1",
            "political"
          ]
        },
        {
          "long_name": "\u9999\u6e2f",
          "short_name": "HK",
          "types": [
            "country",
            "political"
          ]
        }
      ],
      "formatted_address": "\u9999\u6e2f\u592a\u5b50\u6c5d\u5dde\u885719-25\u865f\u82f1\u4f86\u5927\u5ec8",
      "geometry": {
        "bounds": {
          "northeast": {
            "lat": 22.325721,
            "lng": 114.166919
          },
          "southwest": {
            "lat": 22.3254771,
            "lng": 114.166647
          }
        },
        "location": {
          "lat": 22.3255845,
          "lng": 114.1667638
        },
        "location_type": "ROOFTOP",
        "viewport": {
          "northeast": {
            "lat": 22.3269480302915,
            "lng": 114.1681319802915
          },
          "southwest": {
            "lat": 22.3242500697085,
            "lng": 114.1654340197085
          }
        }
      },
      "partial_match": true,
      "place_id": "ChIJvUZNDrYABDQRIh5jZJhoOes",
      "types": [
        "premise"
      ]
    },
    {
      "address_components": [
        {
          "long_name": "\u6c5d\u5dde\u8857",
          "short_name": "\u6c5d\u5dde\u8857",
          "types": [
            "route"
          ]
        },
        {
          "long_name": "\u592a\u5b50",
          "short_name": "\u592a\u5b50",
          "types": [
            "neighborhood",
            "political"
          ]
        },
        {
          "long_name": "\u4e5d\u9f8d",
          "short_name": "\u4e5d\u9f8d",
          "types": [
            "administrative_area_level_1",
            "political"
          ]
        },
        {
          "long_name": "\u9999\u6e2f",
          "short_name": "HK",
          "types": [
            "country",
            "political"
          ]
        }
      ],
      "formatted_address": "\u9999\u6e2f\u592a\u5b50\u6c5d\u5dde\u8857",
      "geometry": {
        "location": {
          "lat": 22.3255969,
          "lng": 114.166784
        },
        "location_type": "GEOMETRIC_CENTER",
        "viewport": {
          "northeast": {
            "lat": 22.3269458802915,
            "lng": 114.1681329802915
          },
          "southwest": {
            "lat": 22.3242479197085,
            "lng": 114.1654350197085
          }
        }
      },
      "partial_match": true,
      "place_id": "ChIJ0TlNDrYABDQRvLAFz0Tfz7Y",
      "plus_code": {
        "compound_code": "85G8+6P \u9999\u6e2f",
        "global_code": "7PJP85G8+6P"
      },
      "types": [
        "establishment",
        "food",
        "point_of_interest",
        "store"
      ]
    }
  ],
  "licno": "2262811992",
  "timestamp": 1564968756,
  "version": "1564966095"
}
