{
  "adr_en": "\u7fe0\u82d1\u8d8a\u6cf0\u9910\u5ef3, SHOP B, G/F, CHEE HING BLDG, 66-70 TUNG CHOI STREET, MONG KOK, KOWLOON",
  "adr_tc": "\u4e5d\u9f8d\u65fa\u89d2\u901a\u83dc\u885766-70\u865f\u6642\u8208\u5927\u5ec8\u5730\u4e0bB\u8216 \u7fe0\u82d1\u8d8a\u6cf0\u9910\u5ef3",
  "geocode_en": [
    {
      "address_components": [
        {
          "long_name": "66\u865f",
          "short_name": "66\u865f",
          "types": [
            "street_number"
          ]
        },
        {
          "long_name": "Tung Choi Street",
          "short_name": "Tung Choi St",
          "types": [
            "route"
          ]
        },
        {
          "long_name": "Mong Kok",
          "short_name": "Mong Kok",
          "types": [
            "neighborhood",
            "political"
          ]
        },
        {
          "long_name": "Kowloon",
          "short_name": "Kowloon",
          "types": [
            "administrative_area_level_1",
            "political"
          ]
        },
        {
          "long_name": "Hong Kong",
          "short_name": "HK",
          "types": [
            "country",
            "political"
          ]
        }
      ],
      "formatted_address": "66\u865f Tung Choi St, Mong Kok, Hong Kong",
      "geometry": {
        "location": {
          "lat": 22.3189105,
          "lng": 114.1706834
        },
        "location_type": "ROOFTOP",
        "viewport": {
          "northeast": {
            "lat": 22.3202594802915,
            "lng": 114.1720323802915
          },
          "southwest": {
            "lat": 22.31756151970849,
            "lng": 114.1693344197085
          }
        }
      },
      "partial_match": true,
      "place_id": "ChIJr4BRy8cABDQRVtRNdU07FwY",
      "plus_code": {
        "compound_code": "859C+H7 Hong Kong",
        "global_code": "7PJP859C+H7"
      },
      "types": [
        "establishment",
        "food",
        "point_of_interest",
        "restaurant"
      ]
    },
    {
      "address_components": [
        {
          "long_name": "Chee Hing Building",
          "short_name": "Chee Hing Building",
          "types": [
            "premise"
          ]
        },
        {
          "long_name": "66-70",
          "short_name": "66-70",
          "types": [
            "street_number"
          ]
        },
        {
          "long_name": "Tung Choi Street",
          "short_name": "Tung Choi St",
          "types": [
            "route"
          ]
        },
        {
          "long_name": "Mong Kok",
          "short_name": "Mong Kok",
          "types": [
            "neighborhood",
            "political"
          ]
        },
        {
          "long_name": "Kowloon",
          "short_name": "Kowloon",
          "types": [
            "administrative_area_level_1",
            "political"
          ]
        },
        {
          "long_name": "Hong Kong",
          "short_name": "HK",
          "types": [
            "country",
            "political"
          ]
        }
      ],
      "formatted_address": "Chee Hing Building, 66-70 Tung Choi St, Mong Kok, Hong Kong",
      "geometry": {
        "bounds": {
          "northeast": {
            "lat": 22.318946,
            "lng": 114.1709461
          },
          "southwest": {
            "lat": 22.318778,
            "lng": 114.17075
          }
        },
        "location": {
          "lat": 22.3188617,
          "lng": 114.1708277
        },
        "location_type": "ROOFTOP",
        "viewport": {
          "northeast": {
            "lat": 22.3202109802915,
            "lng": 114.1721970302915
          },
          "southwest": {
            "lat": 22.3175130197085,
            "lng": 114.1694990697085
          }
        }
      },
      "partial_match": true,
      "place_id": "ChIJf--FNMYABDQR9GI32YeRqQQ",
      "types": [
        "premise"
      ]
    },
    {
      "address_components": [
        {
          "long_name": "Chee Hing Building",
          "short_name": "Chee Hing Building",
          "types": [
            "premise"
          ]
        },
        {
          "long_name": "66-70",
          "short_name": "66-70",
          "types": [
            "street_number"
          ]
        },
        {
          "long_name": "Tung Choi Street",
          "short_name": "Tung Choi St",
          "types": [
            "route"
          ]
        },
        {
          "long_name": "Mong Kok",
          "short_name": "Mong Kok",
          "types": [
            "neighborhood",
            "political"
          ]
        },
        {
          "long_name": "Kowloon",
          "short_name": "Kowloon",
          "types": [
            "administrative_area_level_1",
            "political"
          ]
        },
        {
          "long_name": "Hong Kong",
          "short_name": "HK",
          "types": [
            "country",
            "political"
          ]
        }
      ],
      "formatted_address": "Chee Hing Building, 66-70 Tung Choi St, Mong Kok, Hong Kong",
      "geometry": {
        "bounds": {
          "northeast": {
            "lat": 22.318946,
            "lng": 114.1709461
          },
          "southwest": {
            "lat": 22.318778,
            "lng": 114.17075
          }
        },
        "location": {
          "lat": 22.3188617,
          "lng": 114.1708277
        },
        "location_type": "ROOFTOP",
        "viewport": {
          "northeast": {
            "lat": 22.3202109802915,
            "lng": 114.1721970302915
          },
          "southwest": {
            "lat": 22.3175130197085,
            "lng": 114.1694990697085
          }
        }
      },
      "partial_match": true,
      "place_id": "ChIJf--FNMYABDQR9GI32YeRqQQ",
      "types": [
        "premise"
      ]
    }
  ],
  "geocode_tc": [
    {
      "address_components": [
        {
          "long_name": "66\u865f",
          "short_name": "66\u865f",
          "types": [
            "street_number"
          ]
        },
        {
          "long_name": "\u901a\u83dc\u8857",
          "short_name": "\u901a\u83dc\u8857",
          "types": [
            "route"
          ]
        },
        {
          "long_name": "\u65fa\u89d2",
          "short_name": "\u65fa\u89d2",
          "types": [
            "neighborhood",
            "political"
          ]
        },
        {
          "long_name": "\u4e5d\u9f8d",
          "short_name": "\u4e5d\u9f8d",
          "types": [
            "administrative_area_level_1",
            "political"
          ]
        },
        {
          "long_name": "\u9999\u6e2f",
          "short_name": "HK",
          "types": [
            "country",
            "political"
          ]
        }
      ],
      "formatted_address": "\u9999\u6e2f\u65fa\u89d2\u901a\u83dc\u885766\u865f",
      "geometry": {
        "location": {
          "lat": 22.3189105,
          "lng": 114.1706834
        },
        "location_type": "ROOFTOP",
        "viewport": {
          "northeast": {
            "lat": 22.3202594802915,
            "lng": 114.1720323802915
          },
          "southwest": {
            "lat": 22.31756151970849,
            "lng": 114.1693344197085
          }
        }
      },
      "place_id": "ChIJr4BRy8cABDQRVtRNdU07FwY",
      "plus_code": {
        "compound_code": "859C+H7 \u9999\u6e2f",
        "global_code": "7PJP859C+H7"
      },
      "types": [
        "establishment",
        "food",
        "point_of_interest",
        "restaurant"
      ]
    }
  ],
  "licno": "2262154196",
  "timestamp": 1564968756,
  "version": "1564966095"
}
