{
  "adr_en": "Everyone hope, SHOP 209, 2/F, CENTRAL SERVICES BUILDING, NAM FUNG INDUSTRIAL CITY, 18 TIN HAU ROAD, TUEN MUN, NEW TERRITORIES",
  "adr_tc": "\u65b0\u754c\u5c6f\u9580\u5929\u540e\u8def18\u865f\u5357\u8c50\u5de5\u696d\u57ce\u4e2d\u592e\u5927\u6a132\u6a13209\u865f\u92ea \u5927\u4f19\u5802",
  "geocode_en": [
    {
      "address_components": [
        {
          "long_name": "Hong Kong",
          "short_name": "HK",
          "types": [
            "country",
            "political"
          ]
        }
      ],
      "formatted_address": "Shop 209, 2/F, Central Services Building, Nam Fung Industrial City, 18 Tin Hau Road, Tuen Mun, New Territories, Hong Kong",
      "geometry": {
        "location": {
          "lat": 22.389342,
          "lng": 113.967902
        },
        "location_type": "GEOMETRIC_CENTER",
        "viewport": {
          "northeast": {
            "lat": 22.3906909802915,
            "lng": 113.9692509802915
          },
          "southwest": {
            "lat": 22.3879930197085,
            "lng": 113.9665530197085
          }
        }
      },
      "place_id": "ChIJbwQdozn7AzQR0CZL2xvvkJw",
      "plus_code": {
        "compound_code": "9XQ9+P5 Hong Kong",
        "global_code": "7PJM9XQ9+P5"
      },
      "types": [
        "establishment",
        "point_of_interest"
      ]
    }
  ],
  "geocode_tc": [
    {
      "address_components": [
        {
          "long_name": "\u5357\u8c50\u5de5\u696d\u57ce\u4e2d\u592e\u5927\u6a13",
          "short_name": "\u5357\u8c50\u5de5\u696d\u57ce\u4e2d\u592e\u5927\u6a13",
          "types": [
            "premise"
          ]
        },
        {
          "long_name": "18",
          "short_name": "18",
          "types": [
            "street_number"
          ]
        },
        {
          "long_name": "\u5929\u540e\u8def",
          "short_name": "\u5929\u540e\u8def",
          "types": [
            "route"
          ]
        },
        {
          "long_name": "\u5c6f\u9580",
          "short_name": "\u5c6f\u9580",
          "types": [
            "neighborhood",
            "political"
          ]
        },
        {
          "long_name": "\u65b0\u754c",
          "short_name": "\u65b0\u754c",
          "types": [
            "administrative_area_level_1",
            "political"
          ]
        },
        {
          "long_name": "\u9999\u6e2f",
          "short_name": "HK",
          "types": [
            "country",
            "political"
          ]
        }
      ],
      "formatted_address": "\u9999\u6e2f\u5c6f\u9580\u5929\u540e\u8def18\u865f\u5357\u8c50\u5de5\u696d\u57ce\u4e2d\u592e\u5927\u6a13",
      "geometry": {
        "bounds": {
          "northeast": {
            "lat": 22.3897391,
            "lng": 113.9680642
          },
          "southwest": {
            "lat": 22.3889457,
            "lng": 113.9677396
          }
        },
        "location": {
          "lat": 22.3894444,
          "lng": 113.9678652
        },
        "location_type": "ROOFTOP",
        "viewport": {
          "northeast": {
            "lat": 22.39069138029151,
            "lng": 113.9692508802915
          },
          "southwest": {
            "lat": 22.3879934197085,
            "lng": 113.9665529197085
          }
        }
      },
      "partial_match": true,
      "place_id": "ChIJR5_iojn7AzQRDh5ts5WXIhs",
      "types": [
        "premise"
      ]
    },
    {
      "address_components": [
        {
          "long_name": "\u9999\u6e2f",
          "short_name": "HK",
          "types": [
            "country",
            "political"
          ]
        }
      ],
      "formatted_address": "Shop 209, 2/F, Central Services Building, Nam Fung Industrial City, 18 Tin Hau Road, Tuen Mun, New Territories, \u9999\u6e2f",
      "geometry": {
        "location": {
          "lat": 22.389342,
          "lng": 113.967902
        },
        "location_type": "GEOMETRIC_CENTER",
        "viewport": {
          "northeast": {
            "lat": 22.3906909802915,
            "lng": 113.9692509802915
          },
          "southwest": {
            "lat": 22.3879930197085,
            "lng": 113.9665530197085
          }
        }
      },
      "partial_match": true,
      "place_id": "ChIJbwQdozn7AzQR0CZL2xvvkJw",
      "plus_code": {
        "compound_code": "9XQ9+P5 \u9999\u6e2f",
        "global_code": "7PJM9XQ9+P5"
      },
      "types": [
        "establishment",
        "point_of_interest"
      ]
    }
  ],
  "licno": "2293802370",
  "timestamp": 1564968756,
  "version": "1564966095"
}
