{
  "adr_en": "APRIL K, A-2, G/F, YAU YAT CHUEN, 15 FA PO ST., SHAM SHUI PO, KOWLOON",
  "adr_tc": "\u4e5d\u9f8d\u53c8\u4e00\u90a8\u82b1\u5703\u8857 15 \u865f\u5730\u4e0bA-2 \u865f\u8216 APRIL K",
  "geocode_en": [
    {
      "address_components": [
        {
          "long_name": "Hong Kong",
          "short_name": "HK",
          "types": [
            "country",
            "political"
          ]
        }
      ],
      "formatted_address": "Hong Kong, \u4e5d\u9f8d\u5858\u53c8\u4e00\u6751\u82b1\u5703\u885715\u865f\u5730\u4e0bA2\u8216",
      "geometry": {
        "location": {
          "lat": 22.3315845,
          "lng": 114.1758732
        },
        "location_type": "GEOMETRIC_CENTER",
        "viewport": {
          "northeast": {
            "lat": 22.3329334802915,
            "lng": 114.1772221802915
          },
          "southwest": {
            "lat": 22.33023551970849,
            "lng": 114.1745242197085
          }
        }
      },
      "partial_match": true,
      "place_id": "ChIJG20yPTMHBDQR_baZkXLCvik",
      "plus_code": {
        "compound_code": "85JG+J8 Hong Kong",
        "global_code": "7PJP85JG+J8"
      },
      "types": [
        "establishment",
        "food",
        "point_of_interest",
        "restaurant"
      ]
    },
    {
      "address_components": [
        {
          "long_name": "15",
          "short_name": "15",
          "types": [
            "street_number"
          ]
        },
        {
          "long_name": "Fa Po Street",
          "short_name": "Fa Po St",
          "types": [
            "route"
          ]
        },
        {
          "long_name": "Yau Yat Chuen",
          "short_name": "Yau Yat Chuen",
          "types": [
            "neighborhood",
            "political"
          ]
        },
        {
          "long_name": "Kowloon",
          "short_name": "Kowloon",
          "types": [
            "administrative_area_level_1",
            "political"
          ]
        },
        {
          "long_name": "Hong Kong",
          "short_name": "HK",
          "types": [
            "country",
            "political"
          ]
        }
      ],
      "formatted_address": "15 Fa Po St, Yau Yat Chuen, Hong Kong",
      "geometry": {
        "location": {
          "lat": 22.3316029,
          "lng": 114.1760213
        },
        "location_type": "RANGE_INTERPOLATED",
        "viewport": {
          "northeast": {
            "lat": 22.3329518802915,
            "lng": 114.1773702802915
          },
          "southwest": {
            "lat": 22.3302539197085,
            "lng": 114.1746723197085
          }
        }
      },
      "partial_match": true,
      "place_id": "EiUxNSBGYSBQbyBTdCwgWWF1IFlhdCBDaHVlbiwgSG9uZyBLb25nIhoSGAoUChIJJ-nuIjMHBDQR7i0tmigwnf4QDw",
      "types": [
        "street_address"
      ]
    }
  ],
  "geocode_tc": [
    {
      "address_components": [
        {
          "long_name": "\u9999\u6e2f",
          "short_name": "HK",
          "types": [
            "country",
            "political"
          ]
        }
      ],
      "formatted_address": "\u9999\u6e2f\u4e5d\u9f8d\u5858\u53c8\u4e00\u6751\u82b1\u5703\u885715\u865f\u5730\u4e0bA2\u8216",
      "geometry": {
        "location": {
          "lat": 22.3315845,
          "lng": 114.1758732
        },
        "location_type": "GEOMETRIC_CENTER",
        "viewport": {
          "northeast": {
            "lat": 22.3329334802915,
            "lng": 114.1772221802915
          },
          "southwest": {
            "lat": 22.33023551970849,
            "lng": 114.1745242197085
          }
        }
      },
      "place_id": "ChIJG20yPTMHBDQR_baZkXLCvik",
      "plus_code": {
        "compound_code": "85JG+J8 \u9999\u6e2f",
        "global_code": "7PJP85JG+J8"
      },
      "types": [
        "establishment",
        "food",
        "point_of_interest",
        "restaurant"
      ]
    }
  ],
  "licno": "2263190821",
  "timestamp": 1564968756,
  "version": "1564966095"
}
