{
  "adr_en": "\u9418\u8a18, G/F, 55 FUK WAH STREET, SHAM SHUI PO, KOWLOON",
  "adr_tc": "\u4e5d\u9f8d\u798f\u83ef\u8857 55 \u865f\u5730\u4e0b \u9418\u8a18",
  "geocode_en": [
    {
      "address_components": [
        {
          "long_name": "Hong Kong",
          "short_name": "HK",
          "types": [
            "country",
            "political"
          ]
        }
      ],
      "formatted_address": "G/F, 55 Fuk Wah Street, Sham Shui Po, Kowloon, Hong Kong",
      "geometry": {
        "location": {
          "lat": 22.3286929,
          "lng": 114.1658463
        },
        "location_type": "GEOMETRIC_CENTER",
        "viewport": {
          "northeast": {
            "lat": 22.3300418802915,
            "lng": 114.1671952802915
          },
          "southwest": {
            "lat": 22.3273439197085,
            "lng": 114.1644973197085
          }
        }
      },
      "place_id": "ChIJ8-vzprUABDQRXaswMBp2ZjQ",
      "plus_code": {
        "compound_code": "85H8+F8 Hong Kong",
        "global_code": "7PJP85H8+F8"
      },
      "types": [
        "establishment",
        "food",
        "point_of_interest",
        "restaurant"
      ]
    },
    {
      "address_components": [
        {
          "long_name": "Hong Kong",
          "short_name": "HK",
          "types": [
            "country",
            "political"
          ]
        }
      ],
      "formatted_address": "G/F, 55 Fuk Wah Street, Sham Shui Po, Hong Kong",
      "geometry": {
        "location": {
          "lat": 22.3286937,
          "lng": 114.1658456
        },
        "location_type": "GEOMETRIC_CENTER",
        "viewport": {
          "northeast": {
            "lat": 22.3300426802915,
            "lng": 114.1671945802915
          },
          "southwest": {
            "lat": 22.3273447197085,
            "lng": 114.1644966197085
          }
        }
      },
      "place_id": "ChIJwYFTprUABDQRluNz6WUPtks",
      "plus_code": {
        "compound_code": "85H8+F8 Hong Kong",
        "global_code": "7PJP85H8+F8"
      },
      "types": [
        "establishment",
        "food",
        "point_of_interest",
        "restaurant"
      ]
    }
  ],
  "geocode_tc": [
    {
      "address_components": [
        {
          "long_name": "\u5730\u4e0b \u9418\u8a18",
          "short_name": "\u5730\u4e0b \u9418\u8a18",
          "types": [
            "subpremise"
          ]
        },
        {
          "long_name": "\u6df1\u5d07\u95a3",
          "short_name": "\u6df1\u5d07\u95a3",
          "types": [
            "premise"
          ]
        },
        {
          "long_name": "55B",
          "short_name": "55B",
          "types": [
            "street_number"
          ]
        },
        {
          "long_name": "\u798f\u83ef\u8857",
          "short_name": "\u798f\u83ef\u8857",
          "types": [
            "route"
          ]
        },
        {
          "long_name": "\u5858\u5c3e",
          "short_name": "\u5858\u5c3e",
          "types": [
            "neighborhood",
            "political"
          ]
        },
        {
          "long_name": "\u4e5d\u9f8d",
          "short_name": "\u4e5d\u9f8d",
          "types": [
            "administrative_area_level_1",
            "political"
          ]
        },
        {
          "long_name": "\u9999\u6e2f",
          "short_name": "HK",
          "types": [
            "country",
            "political"
          ]
        }
      ],
      "formatted_address": "\u9999\u6e2f\u5858\u5c3e\u798f\u83ef\u885755B\u865f\u6df1\u5d07\u95a3\u5730\u4e0b \u9418\u8a18",
      "geometry": {
        "bounds": {
          "northeast": {
            "lat": 22.3290639,
            "lng": 114.1655661
          },
          "southwest": {
            "lat": 22.3287859,
            "lng": 114.1652629
          }
        },
        "location": {
          "lat": 22.3289542,
          "lng": 114.1654401
        },
        "location_type": "ROOFTOP",
        "viewport": {
          "northeast": {
            "lat": 22.3302738802915,
            "lng": 114.1667634802915
          },
          "southwest": {
            "lat": 22.3275759197085,
            "lng": 114.1640655197085
          }
        }
      },
      "place_id": "EkLlnLDkuIsg6ZCY6KiYLCBTaGFtIFRzdW5nIENvdXJ0LCA1NUIgRnVrIFdhIFN0LCBUb25nIE1pLCBIb25nIEtvbmciKRonChYKFAoSCfHSlai1AAQ0EXCTKvdKNnJfEg3lnLDkuIsg6ZCY6KiY",
      "types": [
        "subpremise"
      ]
    }
  ],
  "licno": "3163122235",
  "timestamp": 1564975666,
  "version": "1564966095"
}
