{
  "adr_en": "SOUPER AUTHENTIC, G/F., TUNG SHAN BLDG., 88 JERVOIS STREET, SHEUNG WAN, HONG KONG",
  "adr_tc": "\u9999\u6e2f\u4e0a\u74b0\u8607\u676d\u885788\u865f\u7d71\u751f\u5546\u696d\u5927\u5ec8\u5730\u4e0b \u7403\u54e5\u71c9\u6e6f",
  "geocode_en": [
    {
      "address_components": [
        {
          "long_name": "88",
          "short_name": "88",
          "types": [
            "street_number"
          ]
        },
        {
          "long_name": "Jervois Street",
          "short_name": "Jervois St",
          "types": [
            "route"
          ]
        },
        {
          "long_name": "Sheung Wan",
          "short_name": "Sheung Wan",
          "types": [
            "neighborhood",
            "political"
          ]
        },
        {
          "long_name": "Hong Kong Island",
          "short_name": "Hong Kong Island",
          "types": [
            "administrative_area_level_1",
            "political"
          ]
        },
        {
          "long_name": "Hong Kong",
          "short_name": "HK",
          "types": [
            "country",
            "political"
          ]
        }
      ],
      "formatted_address": "88 Jervois St, Sheung Wan, Hong Kong",
      "geometry": {
        "location": {
          "lat": 22.2849955,
          "lng": 114.1510753
        },
        "location_type": "ROOFTOP",
        "viewport": {
          "northeast": {
            "lat": 22.2863444802915,
            "lng": 114.1524242802915
          },
          "southwest": {
            "lat": 22.2836465197085,
            "lng": 114.1497263197085
          }
        }
      },
      "partial_match": true,
      "place_id": "ChIJacbcE3wABDQRTAwoa0F3X-w",
      "plus_code": {
        "compound_code": "75M2+XC Hong Kong",
        "global_code": "7PJP75M2+XC"
      },
      "types": [
        "establishment",
        "food",
        "point_of_interest",
        "restaurant"
      ]
    },
    {
      "address_components": [
        {
          "long_name": "88",
          "short_name": "88",
          "types": [
            "street_number"
          ]
        },
        {
          "long_name": "Jervois Street",
          "short_name": "Jervois St",
          "types": [
            "route"
          ]
        },
        {
          "long_name": "Sheung Wan",
          "short_name": "Sheung Wan",
          "types": [
            "neighborhood",
            "political"
          ]
        },
        {
          "long_name": "Hong Kong Island",
          "short_name": "Hong Kong Island",
          "types": [
            "administrative_area_level_1",
            "political"
          ]
        },
        {
          "long_name": "Hong Kong",
          "short_name": "HK",
          "types": [
            "country",
            "political"
          ]
        }
      ],
      "formatted_address": "88 Jervois St, Sheung Wan, Hong Kong",
      "geometry": {
        "bounds": {
          "northeast": {
            "lat": 22.2849949,
            "lng": 114.151072
          },
          "southwest": {
            "lat": 22.2848599,
            "lng": 114.150957
          }
        },
        "location": {
          "lat": 22.284912,
          "lng": 114.151007
        },
        "location_type": "ROOFTOP",
        "viewport": {
          "northeast": {
            "lat": 22.2862763802915,
            "lng": 114.1523634802915
          },
          "southwest": {
            "lat": 22.2835784197085,
            "lng": 114.1496655197085
          }
        }
      },
      "partial_match": true,
      "place_id": "ChIJQZPZE3wABDQR-GMicAXeiBo",
      "types": [
        "premise"
      ]
    }
  ],
  "geocode_tc": [
    {
      "address_components": [
        {
          "long_name": "88",
          "short_name": "88",
          "types": [
            "street_number"
          ]
        },
        {
          "long_name": "\u8607\u676d\u8857",
          "short_name": "\u8607\u676d\u8857",
          "types": [
            "route"
          ]
        },
        {
          "long_name": "\u4e0a\u74b0",
          "short_name": "\u4e0a\u74b0",
          "types": [
            "neighborhood",
            "political"
          ]
        },
        {
          "long_name": "\u9999\u6e2f\u5cf6",
          "short_name": "\u9999\u6e2f\u5cf6",
          "types": [
            "administrative_area_level_1",
            "political"
          ]
        },
        {
          "long_name": "\u9999\u6e2f",
          "short_name": "HK",
          "types": [
            "country",
            "political"
          ]
        }
      ],
      "formatted_address": "\u9999\u6e2f\u4e0a\u74b0\u8607\u676d\u885788\u865f",
      "geometry": {
        "location": {
          "lat": 22.2849955,
          "lng": 114.1510753
        },
        "location_type": "ROOFTOP",
        "viewport": {
          "northeast": {
            "lat": 22.2863444802915,
            "lng": 114.1524242802915
          },
          "southwest": {
            "lat": 22.2836465197085,
            "lng": 114.1497263197085
          }
        }
      },
      "place_id": "ChIJacbcE3wABDQRTAwoa0F3X-w",
      "plus_code": {
        "compound_code": "75M2+XC \u9999\u6e2f",
        "global_code": "7PJP75M2+XC"
      },
      "types": [
        "establishment",
        "food",
        "point_of_interest",
        "restaurant"
      ]
    }
  ],
  "licno": "2218809646",
  "timestamp": 1564968756,
  "version": "1564966095"
}
