{
  "adr_en": "MALAYA RESTAURANT, SHOP 1D, G/F, WING CHEUNG COURT, 37-47 BONHAM ROAD, WESTERN, HONG KONG",
  "adr_tc": "\u9999\u6e2f\u822c\u54b8\u905337-47\u865f \u7a4e\u7ae0\u5927\u5ec8\u5730\u4e0b1D\u8216 \u99ac\u4f86\u4e9e\u9910\u5ef3",
  "geocode_en": [
    {
      "address_components": [
        {
          "long_name": "Hong Kong",
          "short_name": "HK",
          "types": [
            "country",
            "political"
          ]
        }
      ],
      "formatted_address": "Hong Kong, \u534a\u5c71\u822c\u542b\u905337-47\u865f\u5730\u4e0b1D\u92ea",
      "geometry": {
        "location": {
          "lat": 22.284811,
          "lng": 114.141746
        },
        "location_type": "GEOMETRIC_CENTER",
        "viewport": {
          "northeast": {
            "lat": 22.2861599802915,
            "lng": 114.1430949802915
          },
          "southwest": {
            "lat": 22.28346201970849,
            "lng": 114.1403970197085
          }
        }
      },
      "partial_match": true,
      "place_id": "ChIJOcoaMIf_AzQR3Gh3a2zhVOk",
      "plus_code": {
        "compound_code": "74MR+WM Hong Kong",
        "global_code": "7PJP74MR+WM"
      },
      "types": [
        "establishment",
        "food",
        "point_of_interest",
        "restaurant"
      ]
    },
    {
      "address_components": [
        {
          "long_name": "Wing Cheung Court",
          "short_name": "Wing Cheung Court",
          "types": [
            "premise"
          ]
        },
        {
          "long_name": "37-47",
          "short_name": "37-47",
          "types": [
            "street_number"
          ]
        },
        {
          "long_name": "Bonham Road",
          "short_name": "Bonham Rd",
          "types": [
            "route"
          ]
        },
        {
          "long_name": "Sai Ying Pun",
          "short_name": "Sai Ying Pun",
          "types": [
            "neighborhood",
            "political"
          ]
        },
        {
          "long_name": "Hong Kong Island",
          "short_name": "Hong Kong Island",
          "types": [
            "administrative_area_level_1",
            "political"
          ]
        },
        {
          "long_name": "Hong Kong",
          "short_name": "HK",
          "types": [
            "country",
            "political"
          ]
        }
      ],
      "formatted_address": "Wing Cheung Court, 37-47 Bonham Rd, Sai Ying Pun, Hong Kong",
      "geometry": {
        "bounds": {
          "northeast": {
            "lat": 22.284922,
            "lng": 114.1419389
          },
          "southwest": {
            "lat": 22.2846929,
            "lng": 114.1416971
          }
        },
        "location": {
          "lat": 22.2848198,
          "lng": 114.141822
        },
        "location_type": "ROOFTOP",
        "viewport": {
          "northeast": {
            "lat": 22.2861564302915,
            "lng": 114.1431669802915
          },
          "southwest": {
            "lat": 22.2834584697085,
            "lng": 114.1404690197085
          }
        }
      },
      "partial_match": true,
      "place_id": "ChIJ385tMIf_AzQR1kXr7m588U0",
      "types": [
        "premise"
      ]
    }
  ],
  "geocode_tc": [
    {
      "address_components": [
        {
          "long_name": "\u9999\u6e2f",
          "short_name": "HK",
          "types": [
            "country",
            "political"
          ]
        }
      ],
      "formatted_address": "\u9999\u6e2f\u534a\u5c71\u822c\u542b\u905337-47\u865f\u5730\u4e0b1D\u92ea",
      "geometry": {
        "location": {
          "lat": 22.284811,
          "lng": 114.141746
        },
        "location_type": "GEOMETRIC_CENTER",
        "viewport": {
          "northeast": {
            "lat": 22.2861599802915,
            "lng": 114.1430949802915
          },
          "southwest": {
            "lat": 22.28346201970849,
            "lng": 114.1403970197085
          }
        }
      },
      "place_id": "ChIJOcoaMIf_AzQR3Gh3a2zhVOk",
      "plus_code": {
        "compound_code": "74MR+WM \u9999\u6e2f",
        "global_code": "7PJP74MR+WM"
      },
      "types": [
        "establishment",
        "food",
        "point_of_interest",
        "restaurant"
      ]
    }
  ],
  "licno": "2214188701",
  "timestamp": 1564968756,
  "version": "1564966095"
}
