{
  "adr_en": "Sweet Dessert, G/F., BLOCK 23, HANG HAU RESITE VILLAGE, TSEUNG KWAN O, SAI KUNG, NEW TERRITORIES",
  "adr_tc": "\u65b0\u754c\u897f\u8ca2 \u5c07\u8ecd\u6fb3\u5751\u53e3\u675123\u5ea7\u5730\u4e0b \u7cd6\u4f70\u5e9c",
  "geocode_en": [
    {
      "address_components": [
        {
          "long_name": "Hang Hau",
          "short_name": "Hang Hau",
          "types": [
            "neighborhood",
            "political"
          ]
        },
        {
          "long_name": "New Territories",
          "short_name": "New Territories",
          "types": [
            "administrative_area_level_1",
            "political"
          ]
        },
        {
          "long_name": "Hong Kong",
          "short_name": "HK",
          "types": [
            "country",
            "political"
          ]
        }
      ],
      "formatted_address": "Hang Hau, Hong Kong",
      "geometry": {
        "bounds": {
          "northeast": {
            "lat": 22.3241102,
            "lng": 114.2719157
          },
          "southwest": {
            "lat": 22.3086926,
            "lng": 114.2590785
          }
        },
        "location": {
          "lat": 22.3172623,
          "lng": 114.2672828
        },
        "location_type": "APPROXIMATE",
        "viewport": {
          "northeast": {
            "lat": 22.3241102,
            "lng": 114.2719157
          },
          "southwest": {
            "lat": 22.3086926,
            "lng": 114.2590785
          }
        }
      },
      "partial_match": true,
      "place_id": "ChIJfwRKeHUEBDQRSr3TiFu1E_E",
      "types": [
        "neighborhood",
        "political"
      ]
    },
    {
      "address_components": [
        {
          "long_name": "Tseung Kwan O",
          "short_name": "Tseung Kwan O",
          "types": [
            "neighborhood",
            "political"
          ]
        },
        {
          "long_name": "New Territories",
          "short_name": "New Territories",
          "types": [
            "administrative_area_level_1",
            "political"
          ]
        },
        {
          "long_name": "Hong Kong",
          "short_name": "HK",
          "types": [
            "country",
            "political"
          ]
        }
      ],
      "formatted_address": "Tseung Kwan O, Hong Kong",
      "geometry": {
        "bounds": {
          "northeast": {
            "lat": 22.3147112,
            "lng": 114.2654406
          },
          "southwest": {
            "lat": 22.3005346,
            "lng": 114.255294
          }
        },
        "location": {
          "lat": 22.3119357,
          "lng": 114.2568776
        },
        "location_type": "APPROXIMATE",
        "viewport": {
          "northeast": {
            "lat": 22.3147112,
            "lng": 114.2654406
          },
          "southwest": {
            "lat": 22.3005346,
            "lng": 114.255294
          }
        }
      },
      "partial_match": true,
      "place_id": "ChIJQclRg-kDBDQRcCbTSL7_7M0",
      "types": [
        "neighborhood",
        "political"
      ]
    }
  ],
  "geocode_tc": [
    {
      "address_components": [
        {
          "long_name": "23",
          "short_name": "23",
          "types": [
            "street_number"
          ]
        },
        {
          "long_name": "\u5ead\u548c\u91cc",
          "short_name": "\u5ead\u548c\u91cc",
          "types": [
            "route"
          ]
        },
        {
          "long_name": "\u5c07\u8ecd\u6fb3",
          "short_name": "\u5c07\u8ecd\u6fb3",
          "types": [
            "neighborhood",
            "political"
          ]
        },
        {
          "long_name": "\u65b0\u754c",
          "short_name": "\u65b0\u754c",
          "types": [
            "administrative_area_level_1",
            "political"
          ]
        },
        {
          "long_name": "\u9999\u6e2f",
          "short_name": "HK",
          "types": [
            "country",
            "political"
          ]
        }
      ],
      "formatted_address": "\u9999\u6e2f\u5c07\u8ecd\u6fb3\u5ead\u548c\u91cc23\u865f\u5c07\u8ecd\u6fb3\u5751\u53e3\u6751 \u865f\u5730\u4e0b",
      "geometry": {
        "location": {
          "lat": 22.3203822,
          "lng": 114.2667697
        },
        "location_type": "ROOFTOP",
        "viewport": {
          "northeast": {
            "lat": 22.3217311802915,
            "lng": 114.2681186802915
          },
          "southwest": {
            "lat": 22.31903321970849,
            "lng": 114.2654207197085
          }
        }
      },
      "place_id": "ChIJl_hkaXQEBDQRnfEr0ChFE60",
      "plus_code": {
        "compound_code": "87C8+5P \u9999\u6e2f",
        "global_code": "7PJP87C8+5P"
      },
      "types": [
        "establishment",
        "food",
        "point_of_interest"
      ]
    }
  ],
  "licno": "2298000818",
  "timestamp": 1564975666,
  "version": "1564966095"
}
