{
  "adr_en": "\u6771\u65b9\u591c\u7e3d\u6703, 3/F, BUCKINGHAM BUILDING, 317-321 NATHAN ROAD, KOWLOON",
  "adr_tc": "\u4e5d\u9f8d\u5f4c\u6566\u9053317-321\u865f \u91d1\u6f22\u5927\u5ec83\u6a13 \u6771\u65b9\u591c\u7e3d\u6703",
  "geocode_en": [
    {
      "address_components": [
        {
          "long_name": "Hong Kong",
          "short_name": "HK",
          "types": [
            "country",
            "political"
          ]
        }
      ],
      "formatted_address": "Hong Kong, \u4e5d\u9f8d\u5f4c\u6566\u9053317-321\u865f\u91d1\u6f22\u5927\u5ec83\u5b57\u6a13",
      "geometry": {
        "location": {
          "lat": 22.306272,
          "lng": 114.171259
        },
        "location_type": "GEOMETRIC_CENTER",
        "viewport": {
          "northeast": {
            "lat": 22.3076209802915,
            "lng": 114.1726079802915
          },
          "southwest": {
            "lat": 22.3049230197085,
            "lng": 114.1699100197085
          }
        }
      },
      "partial_match": true,
      "place_id": "ChIJO1EqUuoABDQR1msyPvpt_UA",
      "plus_code": {
        "compound_code": "854C+GG Hong Kong",
        "global_code": "7PJP854C+GG"
      },
      "types": [
        "establishment",
        "point_of_interest"
      ]
    },
    {
      "address_components": [
        {
          "long_name": "Buckingham Building",
          "short_name": "Buckingham Building",
          "types": [
            "premise"
          ]
        },
        {
          "long_name": "317-321",
          "short_name": "317-321",
          "types": [
            "street_number"
          ]
        },
        {
          "long_name": "Nathan Road",
          "short_name": "Nathan Rd",
          "types": [
            "route"
          ]
        },
        {
          "long_name": "Yau Ma Tei",
          "short_name": "Yau Ma Tei",
          "types": [
            "neighborhood",
            "political"
          ]
        },
        {
          "long_name": "Kowloon",
          "short_name": "Kowloon",
          "types": [
            "administrative_area_level_1",
            "political"
          ]
        },
        {
          "long_name": "Hong Kong",
          "short_name": "HK",
          "types": [
            "country",
            "political"
          ]
        }
      ],
      "formatted_address": "Buckingham Building, 317-321 Nathan Rd, Yau Ma Tei, Hong Kong",
      "geometry": {
        "bounds": {
          "northeast": {
            "lat": 22.3064649,
            "lng": 114.1713949
          },
          "southwest": {
            "lat": 22.3061971,
            "lng": 114.171121
          }
        },
        "location": {
          "lat": 22.3063194,
          "lng": 114.1712922
        },
        "location_type": "ROOFTOP",
        "viewport": {
          "northeast": {
            "lat": 22.3076799802915,
            "lng": 114.1726069302915
          },
          "southwest": {
            "lat": 22.3049820197085,
            "lng": 114.1699089697085
          }
        }
      },
      "partial_match": true,
      "place_id": "ChIJq-GcUeoABDQRCpYaUILvb5A",
      "types": [
        "premise"
      ]
    }
  ],
  "geocode_tc": [
    {
      "address_components": [
        {
          "long_name": "\u9999\u6e2f",
          "short_name": "HK",
          "types": [
            "country",
            "political"
          ]
        }
      ],
      "formatted_address": "\u9999\u6e2f\u4e5d\u9f8d\u5f4c\u6566\u9053317-321\u865f\u91d1\u6f22\u5927\u5ec83\u5b57\u6a13",
      "geometry": {
        "location": {
          "lat": 22.306272,
          "lng": 114.171259
        },
        "location_type": "GEOMETRIC_CENTER",
        "viewport": {
          "northeast": {
            "lat": 22.3076209802915,
            "lng": 114.1726079802915
          },
          "southwest": {
            "lat": 22.3049230197085,
            "lng": 114.1699100197085
          }
        }
      },
      "place_id": "ChIJO1EqUuoABDQR1msyPvpt_UA",
      "plus_code": {
        "compound_code": "854C+GG \u9999\u6e2f",
        "global_code": "7PJP854C+GG"
      },
      "types": [
        "establishment",
        "point_of_interest"
      ]
    }
  ],
  "licno": "3161225053",
  "timestamp": 1564975666,
  "version": "1564966095"
}
