{
  "adr_en": "ASSEMBLY, G/F, AND THE OUTSIDE SEATING ACCOMODATION AT SHOPFRONT, MIRA STUDIO HOTEL, NO. 6 KNUTSFORD TERRACE, KOWLOON",
  "adr_tc": "\u4e5d\u9f8d\u8afe\u58eb\u4f5b\u81fa6\u865f MIRA STUDIO HOTEL \u5730\u4e0b \u53ca\u8216\u524d\u9732\u5929\u5ea7\u4f4d ASSEMBLY",
  "geocode_en": [
    {
      "address_components": [
        {
          "long_name": "Tsim Sha Tsui",
          "short_name": "Tsim Sha Tsui",
          "types": [
            "neighborhood",
            "political"
          ]
        },
        {
          "long_name": "Kowloon",
          "short_name": "Kowloon",
          "types": [
            "administrative_area_level_1",
            "political"
          ]
        },
        {
          "long_name": "Hong Kong",
          "short_name": "HK",
          "types": [
            "country",
            "political"
          ]
        }
      ],
      "formatted_address": "G-1/F, 6 Knutsford Terrace, Tsim Sha Tsui, Hong Kong",
      "geometry": {
        "location": {
          "lat": 22.3011738,
          "lng": 114.1735227
        },
        "location_type": "GEOMETRIC_CENTER",
        "viewport": {
          "northeast": {
            "lat": 22.3025227802915,
            "lng": 114.1748716802915
          },
          "southwest": {
            "lat": 22.2998248197085,
            "lng": 114.1721737197085
          }
        }
      },
      "partial_match": true,
      "place_id": "ChIJrSkVIOwABDQRE6F0XVbkc7k",
      "plus_code": {
        "compound_code": "852F+FC Tsim Sha Tsui, Hong Kong",
        "global_code": "7PJP852F+FC"
      },
      "types": [
        "bar",
        "establishment",
        "food",
        "point_of_interest",
        "restaurant"
      ]
    },
    {
      "address_components": [
        {
          "long_name": "6",
          "short_name": "6",
          "types": [
            "street_number"
          ]
        },
        {
          "long_name": "Knutsford Terrace",
          "short_name": "Knutsford Terrace",
          "types": [
            "route"
          ]
        },
        {
          "long_name": "Tsim Sha Tsui",
          "short_name": "Tsim Sha Tsui",
          "types": [
            "neighborhood",
            "political"
          ]
        },
        {
          "long_name": "Kowloon",
          "short_name": "Kowloon",
          "types": [
            "administrative_area_level_1",
            "political"
          ]
        },
        {
          "long_name": "Hong Kong",
          "short_name": "HK",
          "types": [
            "country",
            "political"
          ]
        }
      ],
      "formatted_address": "6 Knutsford Terrace, Tsim Sha Tsui, Hong Kong",
      "geometry": {
        "bounds": {
          "northeast": {
            "lat": 22.301423,
            "lng": 114.17365
          },
          "southwest": {
            "lat": 22.301164,
            "lng": 114.17351
          }
        },
        "location": {
          "lat": 22.3013139,
          "lng": 114.1735912
        },
        "location_type": "ROOFTOP",
        "viewport": {
          "northeast": {
            "lat": 22.3026424802915,
            "lng": 114.1749289802915
          },
          "southwest": {
            "lat": 22.2999445197085,
            "lng": 114.1722310197085
          }
        }
      },
      "partial_match": true,
      "place_id": "ChIJ6yprIOwABDQRpqzts3pngoM",
      "types": [
        "premise"
      ]
    }
  ],
  "geocode_tc": [
    {
      "address_components": [
        {
          "long_name": "1",
          "short_name": "1",
          "types": [
            "street_number"
          ]
        },
        {
          "long_name": "\u8afe\u58eb\u4f5b\u53f0",
          "short_name": "\u8afe\u58eb\u4f5b\u53f0",
          "types": [
            "route"
          ]
        },
        {
          "long_name": "\u5c16\u6c99\u5480",
          "short_name": "\u5c16\u6c99\u5480",
          "types": [
            "neighborhood",
            "political"
          ]
        },
        {
          "long_name": "\u4e5d\u9f8d",
          "short_name": "\u4e5d\u9f8d",
          "types": [
            "administrative_area_level_1",
            "political"
          ]
        },
        {
          "long_name": "\u9999\u6e2f",
          "short_name": "HK",
          "types": [
            "country",
            "political"
          ]
        }
      ],
      "formatted_address": "\u9999\u6e2f\u5c16\u6c99\u5480\u8afe\u58eb\u4f5b\u53f01\u865f",
      "geometry": {
        "location": {
          "lat": 22.301066,
          "lng": 114.173331
        },
        "location_type": "ROOFTOP",
        "viewport": {
          "northeast": {
            "lat": 22.3024149802915,
            "lng": 114.1746799802915
          },
          "southwest": {
            "lat": 22.2997170197085,
            "lng": 114.1719820197085
          }
        }
      },
      "place_id": "ChIJdWqtJuwABDQRBCJbbA1HE0M",
      "plus_code": {
        "compound_code": "852F+C8 \u9999\u6e2f",
        "global_code": "7PJP852F+C8"
      },
      "types": [
        "establishment",
        "point_of_interest",
        "shopping_mall"
      ]
    }
  ],
  "licno": "3161806128",
  "timestamp": 1564975666,
  "version": "1564966095"
}
