{
  "adr_en": "DEER HORN RESTAURANT &' BAR, SHOP 11, G/F., MUI WO CENTRE, 3 NGAN WAN ROAD, MUI WO, LANTAU ISLAND, NEW TERRITORIES",
  "adr_tc": "\u65b0\u754c\u5927\u5dbc\u5c71\u6885\u7aa9\u9280\u904b\u8def3\u865f\u6885\u7aa9\u4e2d\u5fc3\u5730\u4e0b11\u865f\u8216 DEER HORN RESTAURANT &' BAR",
  "geocode_en": [
    {
      "address_components": [
        {
          "long_name": "Hong Kong",
          "short_name": "HK",
          "types": [
            "country",
            "political"
          ]
        }
      ],
      "formatted_address": "Shop 11, G/F, Mui Wo Centre, 3 Ngan Wan Road, Mui Wo, Lantau Island, Hong Kong",
      "geometry": {
        "location": {
          "lat": 22.2643594,
          "lng": 114.0017588
        },
        "location_type": "GEOMETRIC_CENTER",
        "viewport": {
          "northeast": {
            "lat": 22.2657083802915,
            "lng": 114.0031077802915
          },
          "southwest": {
            "lat": 22.2630104197085,
            "lng": 114.0004098197085
          }
        }
      },
      "place_id": "ChIJ__6UNStWATQR5PHwoq7rh_Q",
      "plus_code": {
        "compound_code": "7272+PP Hong Kong",
        "global_code": "7PJP7272+PP"
      },
      "types": [
        "establishment",
        "food",
        "point_of_interest",
        "restaurant"
      ]
    }
  ],
  "geocode_tc": [
    {
      "address_components": [
        {
          "long_name": "3",
          "short_name": "3",
          "types": [
            "street_number"
          ]
        },
        {
          "long_name": "\u9280\u904b\u8def",
          "short_name": "\u9280\u904b\u8def",
          "types": [
            "route"
          ]
        },
        {
          "long_name": "\u6885\u7aa9",
          "short_name": "\u6885\u7aa9",
          "types": [
            "neighborhood",
            "political"
          ]
        },
        {
          "long_name": "\u65b0\u754c",
          "short_name": "\u65b0\u754c",
          "types": [
            "administrative_area_level_1",
            "political"
          ]
        },
        {
          "long_name": "\u9999\u6e2f",
          "short_name": "HK",
          "types": [
            "country",
            "political"
          ]
        }
      ],
      "formatted_address": "\u9999\u6e2f\u6885\u7aa9\u9280\u904b\u8def3\u865f",
      "geometry": {
        "location": {
          "lat": 22.264235,
          "lng": 114.001688
        },
        "location_type": "ROOFTOP",
        "viewport": {
          "northeast": {
            "lat": 22.2655839802915,
            "lng": 114.0030369802915
          },
          "southwest": {
            "lat": 22.2628860197085,
            "lng": 114.0003390197085
          }
        }
      },
      "partial_match": true,
      "place_id": "ChIJ6YdqNitWATQRCChkHQaUL9g",
      "plus_code": {
        "compound_code": "7272+MM \u9999\u6e2f",
        "global_code": "7PJP7272+MM"
      },
      "types": [
        "establishment",
        "point_of_interest"
      ]
    },
    {
      "address_components": [
        {
          "long_name": "\u9999\u6e2f",
          "short_name": "HK",
          "types": [
            "country",
            "political"
          ]
        }
      ],
      "formatted_address": "Shop 11, G/F, Mui Wo Centre, 3 Ngan Wan Road, Mui Wo, Lantau Island, \u9999\u6e2f",
      "geometry": {
        "location": {
          "lat": 22.2643594,
          "lng": 114.0017588
        },
        "location_type": "GEOMETRIC_CENTER",
        "viewport": {
          "northeast": {
            "lat": 22.2657083802915,
            "lng": 114.0031077802915
          },
          "southwest": {
            "lat": 22.2630104197085,
            "lng": 114.0004098197085
          }
        }
      },
      "partial_match": true,
      "place_id": "ChIJ__6UNStWATQR5PHwoq7rh_Q",
      "plus_code": {
        "compound_code": "7272+PP \u9999\u6e2f",
        "global_code": "7PJP7272+PP"
      },
      "types": [
        "establishment",
        "food",
        "point_of_interest",
        "restaurant"
      ]
    }
  ],
  "licno": "2217801052",
  "timestamp": 1564968756,
  "version": "1564966095"
}
