{
  "adr_en": "MING SING RESTAURANT, SHOP 1, G/F., ON TAI BUILDING, 45-51 TING ON STREET, NGAU TAU KOK, KOWLOON",
  "adr_tc": "\u4e5d\u9f8d\u725b\u982d\u89d2\u5b9a\u5b89\u885745-51\u865f\u5b89\u6cf0\u5927\u53a6\u5730\u4e0b1\u865f\u8216 \u540d\u6607\u9910\u5ef3",
  "geocode_en": [
    {
      "address_components": [
        {
          "long_name": "Hong Kong",
          "short_name": "HK",
          "types": [
            "country",
            "political"
          ]
        }
      ],
      "formatted_address": "Hong Kong, \u725b\u982d\u89d2\u5b9a\u5b89\u885745\u865f\u5b89\u6cf0\u6a13\u5730\u4e0b",
      "geometry": {
        "location": {
          "lat": 22.3169022,
          "lng": 114.2165491
        },
        "location_type": "GEOMETRIC_CENTER",
        "viewport": {
          "northeast": {
            "lat": 22.3182511802915,
            "lng": 114.2178980802915
          },
          "southwest": {
            "lat": 22.3155532197085,
            "lng": 114.2152001197085
          }
        }
      },
      "partial_match": true,
      "place_id": "ChIJiXLvv0kBBDQR7XQS3LH8j6k",
      "plus_code": {
        "compound_code": "8688+QJ Hong Kong",
        "global_code": "7PJP8688+QJ"
      },
      "types": [
        "establishment",
        "food",
        "point_of_interest",
        "restaurant"
      ]
    },
    {
      "address_components": [
        {
          "long_name": "On Tai Building",
          "short_name": "On Tai Building",
          "types": [
            "premise"
          ]
        },
        {
          "long_name": "45-51",
          "short_name": "45-51",
          "types": [
            "street_number"
          ]
        },
        {
          "long_name": "Ting On Street",
          "short_name": "Ting On St",
          "types": [
            "route"
          ]
        },
        {
          "long_name": "Ngau Tau Kok",
          "short_name": "Ngau Tau Kok",
          "types": [
            "neighborhood",
            "political"
          ]
        },
        {
          "long_name": "Kowloon",
          "short_name": "Kowloon",
          "types": [
            "administrative_area_level_1",
            "political"
          ]
        },
        {
          "long_name": "Hong Kong",
          "short_name": "HK",
          "types": [
            "country",
            "political"
          ]
        }
      ],
      "formatted_address": "On Tai Building, 45-51 Ting On St, Ngau Tau Kok, Hong Kong",
      "geometry": {
        "bounds": {
          "northeast": {
            "lat": 22.3169939,
            "lng": 114.216567
          },
          "southwest": {
            "lat": 22.3167639,
            "lng": 114.216337
          }
        },
        "location": {
          "lat": 22.3168692,
          "lng": 114.2164573
        },
        "location_type": "ROOFTOP",
        "viewport": {
          "northeast": {
            "lat": 22.3182278802915,
            "lng": 114.2178009802915
          },
          "southwest": {
            "lat": 22.3155299197085,
            "lng": 114.2151030197085
          }
        }
      },
      "partial_match": true,
      "place_id": "ChIJpd3uwUkBBDQRspx0U1NLZx0",
      "types": [
        "premise"
      ]
    }
  ],
  "geocode_tc": [
    {
      "address_components": [
        {
          "long_name": "\u9999\u6e2f",
          "short_name": "HK",
          "types": [
            "country",
            "political"
          ]
        }
      ],
      "formatted_address": "\u9999\u6e2f\u725b\u982d\u89d2\u5b9a\u5b89\u885745\u865f\u5b89\u6cf0\u6a13\u5730\u4e0b",
      "geometry": {
        "location": {
          "lat": 22.3169022,
          "lng": 114.2165491
        },
        "location_type": "GEOMETRIC_CENTER",
        "viewport": {
          "northeast": {
            "lat": 22.3182511802915,
            "lng": 114.2178980802915
          },
          "southwest": {
            "lat": 22.3155532197085,
            "lng": 114.2152001197085
          }
        }
      },
      "place_id": "ChIJiXLvv0kBBDQR7XQS3LH8j6k",
      "plus_code": {
        "compound_code": "8688+QJ \u9999\u6e2f",
        "global_code": "7PJP8688+QJ"
      },
      "types": [
        "establishment",
        "food",
        "point_of_interest",
        "restaurant"
      ]
    }
  ],
  "licno": "2251802505",
  "timestamp": 1564968756,
  "version": "1564966095"
}
