{
  "adr_en": "SHING TSAI KEE, SHOP 21, LEVEL 1, JADE PLAZA, 3 ON CHEE ROAD, TAI PO, NEW TERRITORIES",
  "adr_tc": "SHOP 21, LEVEL 1, JADE PLAZA, 3 ON CHEE ROAD, TAI PO, NEW TERRITORIES \u6210\u4ed4\u8a18\u9eb5\u98df",
  "geocode_en": [
    {
      "address_components": [
        {
          "long_name": "SHOP 21, LEVEL",
          "short_name": "SHOP 21, LEVEL",
          "types": [
            "subpremise"
          ]
        },
        {
          "long_name": "Jade Plaza Block A",
          "short_name": "Jade Plaza Block A",
          "types": [
            "premise"
          ]
        },
        {
          "long_name": "3",
          "short_name": "3",
          "types": [
            "street_number"
          ]
        },
        {
          "long_name": "On Chee Road",
          "short_name": "On Chee Rd",
          "types": [
            "route"
          ]
        },
        {
          "long_name": "Tai Po",
          "short_name": "Tai Po",
          "types": [
            "neighborhood",
            "political"
          ]
        },
        {
          "long_name": "New Territories",
          "short_name": "New Territories",
          "types": [
            "administrative_area_level_1",
            "political"
          ]
        },
        {
          "long_name": "Hong Kong",
          "short_name": "HK",
          "types": [
            "country",
            "political"
          ]
        }
      ],
      "formatted_address": "SHOP 21, LEVEL, Jade Plaza Block A, 3 On Chee Rd, Tai Po, Hong Kong",
      "geometry": {
        "bounds": {
          "northeast": {
            "lat": 22.45318,
            "lng": 114.168462
          },
          "southwest": {
            "lat": 22.453002,
            "lng": 114.168282
          }
        },
        "location": {
          "lat": 22.4530721,
          "lng": 114.1683894
        },
        "location_type": "ROOFTOP",
        "viewport": {
          "northeast": {
            "lat": 22.4544399802915,
            "lng": 114.1697209802915
          },
          "southwest": {
            "lat": 22.4517420197085,
            "lng": 114.1670230197085
          }
        }
      },
      "partial_match": true,
      "place_id": "EkNTSE9QIDIxLCBMRVZFTCwgSmFkZSBQbGF6YSBCbG9jayBBLCAzIE9uIENoZWUgUmQsIFRhaSBQbywgSG9uZyBLb25nIioaKAoWChQKEgnjv2fyRwgENBFA2AEdGNXzVxIOU0hPUCAyMSwgTEVWRUw",
      "types": [
        "subpremise"
      ]
    }
  ],
  "geocode_tc": [
    {
      "address_components": [
        {
          "long_name": "3",
          "short_name": "3",
          "types": [
            "street_number"
          ]
        },
        {
          "long_name": "\u5b89\u6148\u8def",
          "short_name": "\u5b89\u6148\u8def",
          "types": [
            "route"
          ]
        },
        {
          "long_name": "\u5927\u57d4",
          "short_name": "\u5927\u57d4",
          "types": [
            "neighborhood",
            "political"
          ]
        },
        {
          "long_name": "\u65b0\u754c",
          "short_name": "\u65b0\u754c",
          "types": [
            "administrative_area_level_1",
            "political"
          ]
        },
        {
          "long_name": "\u9999\u6e2f",
          "short_name": "HK",
          "types": [
            "country",
            "political"
          ]
        }
      ],
      "formatted_address": "\u9999\u6e2f\u5927\u57d4\u5b89\u6148\u8def3\u865f",
      "geometry": {
        "location": {
          "lat": 22.4532381,
          "lng": 114.1678653
        },
        "location_type": "ROOFTOP",
        "viewport": {
          "northeast": {
            "lat": 22.4545870802915,
            "lng": 114.1692142802915
          },
          "southwest": {
            "lat": 22.4518891197085,
            "lng": 114.1665163197085
          }
        }
      },
      "partial_match": true,
      "place_id": "ChIJE8-8CjgIBDQRNTSLTMQ26Vk",
      "plus_code": {
        "compound_code": "F539+74 \u9999\u6e2f",
        "global_code": "7PJPF539+74"
      },
      "types": [
        "establishment",
        "point_of_interest"
      ]
    },
    {
      "address_components": [
        {
          "long_name": "\u9999\u6e2f",
          "short_name": "HK",
          "types": [
            "country",
            "political"
          ]
        }
      ],
      "formatted_address": "\u9999\u6e2f\u5927\u57d4\u5b89\u6148\u8def3\u865f\u7fe0\u5c4f\u82b1\u5712\u5546\u5834\u5730\u4e0b20\u865f",
      "geometry": {
        "location": {
          "lat": 22.4534078,
          "lng": 114.1676462
        },
        "location_type": "GEOMETRIC_CENTER",
        "viewport": {
          "northeast": {
            "lat": 22.4547567802915,
            "lng": 114.1689951802915
          },
          "southwest": {
            "lat": 22.45205881970849,
            "lng": 114.1662972197085
          }
        }
      },
      "partial_match": true,
      "place_id": "ChIJz7PuCTgIBDQRxlJHYFHZ-Fo",
      "plus_code": {
        "compound_code": "F539+93 \u9999\u6e2f",
        "global_code": "7PJPF539+93"
      },
      "types": [
        "establishment",
        "food",
        "point_of_interest",
        "restaurant"
      ]
    }
  ],
  "licno": "3195800163",
  "timestamp": 1564975666,
  "version": "1564966095"
}
