{
  "adr_en": "DELI-O, SHOP UNIT NO. 268A, 2ND FLOOR, SHUN TAK CENTRE (PODIUM), 200 CONNAUGHT ROAD CENTRAL, HONG KONG",
  "adr_tc": "\u9999\u6e2f\u5e72\u8afe\u9053\u4e2d200\u865f\u4fe1\u5fb7\u4e2d\u5fc3(\u5e73\u53f0)2\u6a13268A\u865f\u92ea DELI-O",
  "geocode_en": [
    {
      "address_components": [
        {
          "long_name": "Hong Kong",
          "short_name": "HK",
          "types": [
            "country",
            "political"
          ]
        }
      ],
      "formatted_address": "Hong Kong, \u4e0a\u74b0\u5e72\u8afe\u9053\u4e2d168-200\u865f\u4fe1\u5fb7\u4e2d\u5fc32\u6a13268A\u865f\u8216",
      "geometry": {
        "location": {
          "lat": 22.2879762,
          "lng": 114.1518314
        },
        "location_type": "GEOMETRIC_CENTER",
        "viewport": {
          "northeast": {
            "lat": 22.2893251802915,
            "lng": 114.1531803802915
          },
          "southwest": {
            "lat": 22.2866272197085,
            "lng": 114.1504824197085
          }
        }
      },
      "partial_match": true,
      "place_id": "ChIJlxm6vX0ABDQRS3Y-xkLr9oY",
      "plus_code": {
        "compound_code": "75Q2+5P Hong Kong",
        "global_code": "7PJP75Q2+5P"
      },
      "types": [
        "establishment",
        "point_of_interest"
      ]
    },
    {
      "address_components": [
        {
          "long_name": "200",
          "short_name": "200",
          "types": [
            "street_number"
          ]
        },
        {
          "long_name": "Connaught Road Central",
          "short_name": "Connaught Rd Central",
          "types": [
            "route"
          ]
        },
        {
          "long_name": "Sheung Wan",
          "short_name": "Sheung Wan",
          "types": [
            "neighborhood",
            "political"
          ]
        },
        {
          "long_name": "Hong Kong Island",
          "short_name": "Hong Kong Island",
          "types": [
            "administrative_area_level_1",
            "political"
          ]
        },
        {
          "long_name": "Hong Kong",
          "short_name": "HK",
          "types": [
            "country",
            "political"
          ]
        }
      ],
      "formatted_address": "200 Connaught Rd Central, Sheung Wan, Hong Kong",
      "geometry": {
        "location": {
          "lat": 22.2878936,
          "lng": 114.1520234
        },
        "location_type": "ROOFTOP",
        "viewport": {
          "northeast": {
            "lat": 22.2892425802915,
            "lng": 114.1533723802915
          },
          "southwest": {
            "lat": 22.2865446197085,
            "lng": 114.1506744197085
          }
        }
      },
      "partial_match": true,
      "place_id": "ChIJnaFhg30ABDQR13da_JAMCRk",
      "plus_code": {
        "compound_code": "75Q2+5R Hong Kong",
        "global_code": "7PJP75Q2+5R"
      },
      "types": [
        "street_address"
      ]
    },
    {
      "address_components": [
        {
          "long_name": "Shun Tak Centre",
          "short_name": "Shun Tak Centre",
          "types": [
            "premise"
          ]
        },
        {
          "long_name": "168-200",
          "short_name": "168-200",
          "types": [
            "street_number"
          ]
        },
        {
          "long_name": "Connaught Road Central",
          "short_name": "Connaught Rd Central",
          "types": [
            "route"
          ]
        },
        {
          "long_name": "Sheung Wan",
          "short_name": "Sheung Wan",
          "types": [
            "neighborhood",
            "political"
          ]
        },
        {
          "long_name": "Hong Kong Island",
          "short_name": "Hong Kong Island",
          "types": [
            "administrative_area_level_1",
            "political"
          ]
        },
        {
          "long_name": "Hong Kong",
          "short_name": "HK",
          "types": [
            "country",
            "political"
          ]
        }
      ],
      "formatted_address": "Shun Tak Centre, 168-200 Connaught Rd Central, Sheung Wan, Hong Kong",
      "geometry": {
        "bounds": {
          "northeast": {
            "lat": 22.2883143,
            "lng": 114.1528687
          },
          "southwest": {
            "lat": 22.2873915,
            "lng": 114.1508055
          }
        },
        "location": {
          "lat": 22.2879098,
          "lng": 114.1517914
        },
        "location_type": "ROOFTOP",
        "viewport": {
          "northeast": {
            "lat": 22.2892018802915,
            "lng": 114.1531860802915
          },
          "southwest": {
            "lat": 22.2865039197085,
            "lng": 114.1504881197085
          }
        }
      },
      "partial_match": true,
      "place_id": "ChIJKUGRwX0ABDQRrvlfieLMpN0",
      "types": [
        "premise"
      ]
    }
  ],
  "geocode_tc": [
    {
      "address_components": [
        {
          "long_name": "\u9999\u6e2f",
          "short_name": "HK",
          "types": [
            "country",
            "political"
          ]
        }
      ],
      "formatted_address": "\u9999\u6e2f\u4e0a\u74b0\u5e72\u8afe\u9053\u4e2d168-200\u865f\u4fe1\u5fb7\u4e2d\u5fc32\u6a13268A\u865f\u8216",
      "geometry": {
        "location": {
          "lat": 22.2879762,
          "lng": 114.1518314
        },
        "location_type": "GEOMETRIC_CENTER",
        "viewport": {
          "northeast": {
            "lat": 22.2893251802915,
            "lng": 114.1531803802915
          },
          "southwest": {
            "lat": 22.2866272197085,
            "lng": 114.1504824197085
          }
        }
      },
      "place_id": "ChIJlxm6vX0ABDQRS3Y-xkLr9oY",
      "plus_code": {
        "compound_code": "75Q2+5P \u9999\u6e2f",
        "global_code": "7PJP75Q2+5P"
      },
      "types": [
        "establishment",
        "point_of_interest"
      ]
    }
  ],
  "licno": "2218806124",
  "timestamp": 1564968756,
  "version": "1564966095"
}
