{
  "adr_en": "\u6d77\u5929\u82b1\u5712\u9152\u5bb6, G/F(PORTION),1/F & 2/F, CASTLE PEAK BAY, 5 SAM SHING STREET, TUEN MUN, NEW TERRITORIES",
  "adr_tc": "\u65b0\u754c\u5c6f\u9580\u9752\u5c71\u7063\u4e09\u8056\u88575\u865f\u5730\u4e0b(\u90e8\u4efd), \u4e00\u6a13\u53ca\u4e8c\u6a13 \u6d77\u5929\u82b1\u5712\u9152\u5bb6",
  "geocode_en": [
    {
      "address_components": [
        {
          "long_name": "Hong Kong",
          "short_name": "HK",
          "types": [
            "country",
            "political"
          ]
        }
      ],
      "formatted_address": "Hong Kong, \u4e09\u8056\u88575\u865f",
      "geometry": {
        "location": {
          "lat": 22.380162,
          "lng": 113.978871
        },
        "location_type": "GEOMETRIC_CENTER",
        "viewport": {
          "northeast": {
            "lat": 22.3815109802915,
            "lng": 113.9802199802915
          },
          "southwest": {
            "lat": 22.3788130197085,
            "lng": 113.9775220197085
          }
        }
      },
      "partial_match": true,
      "place_id": "ChIJOxjlZ2r7AzQR12Pzc0PEo8g",
      "plus_code": {
        "compound_code": "9XJH+3G Hong Kong",
        "global_code": "7PJM9XJH+3G"
      },
      "types": [
        "establishment",
        "food",
        "point_of_interest",
        "restaurant"
      ]
    },
    {
      "address_components": [
        {
          "long_name": "Castle Peak Bay",
          "short_name": "Castle Peak Bay",
          "types": [
            "establishment",
            "point_of_interest",
            "transit_station"
          ]
        },
        {
          "long_name": "Tuen Mun",
          "short_name": "Tuen Mun",
          "types": [
            "neighborhood",
            "political"
          ]
        },
        {
          "long_name": "New Territories",
          "short_name": "New Territories",
          "types": [
            "administrative_area_level_1",
            "political"
          ]
        },
        {
          "long_name": "Hong Kong",
          "short_name": "HK",
          "types": [
            "country",
            "political"
          ]
        }
      ],
      "formatted_address": "Castle Peak Bay, Tuen Mun, Hong Kong",
      "geometry": {
        "location": {
          "lat": 22.379119,
          "lng": 113.980728
        },
        "location_type": "GEOMETRIC_CENTER",
        "viewport": {
          "northeast": {
            "lat": 22.3804679802915,
            "lng": 113.9820769802915
          },
          "southwest": {
            "lat": 22.3777700197085,
            "lng": 113.9793790197085
          }
        }
      },
      "partial_match": true,
      "place_id": "ChIJpcUIymv7AzQReBPZjqGsEvY",
      "plus_code": {
        "compound_code": "9XHJ+J7 Hong Kong",
        "global_code": "7PJM9XHJ+J7"
      },
      "types": [
        "establishment",
        "point_of_interest",
        "transit_station"
      ]
    },
    {
      "address_components": [
        {
          "long_name": "5",
          "short_name": "5",
          "types": [
            "street_number"
          ]
        },
        {
          "long_name": "Sam Shing Street",
          "short_name": "Sam Shing St",
          "types": [
            "route"
          ]
        },
        {
          "long_name": "Tuen Mun",
          "short_name": "Tuen Mun",
          "types": [
            "neighborhood",
            "political"
          ]
        },
        {
          "long_name": "New Territories",
          "short_name": "New Territories",
          "types": [
            "administrative_area_level_1",
            "political"
          ]
        },
        {
          "long_name": "Hong Kong",
          "short_name": "HK",
          "types": [
            "country",
            "political"
          ]
        }
      ],
      "formatted_address": "5 Sam Shing St, Tuen Mun, Hong Kong",
      "geometry": {
        "location": {
          "lat": 22.3804411,
          "lng": 113.9788139
        },
        "location_type": "RANGE_INTERPOLATED",
        "viewport": {
          "northeast": {
            "lat": 22.3817900802915,
            "lng": 113.9801628802915
          },
          "southwest": {
            "lat": 22.3790921197085,
            "lng": 113.9774649197085
          }
        }
      },
      "partial_match": true,
      "place_id": "EiM1IFNhbSBTaGluZyBTdCwgVHVlbiBNdW4sIEhvbmcgS29uZyIaEhgKFAoSCf15N2dq-wM0EWfCB-veIImOEAU",
      "types": [
        "street_address"
      ]
    }
  ],
  "geocode_tc": [
    {
      "address_components": [
        {
          "long_name": "\u9999\u6e2f",
          "short_name": "HK",
          "types": [
            "country",
            "political"
          ]
        }
      ],
      "formatted_address": "\u9999\u6e2f\u4e09\u8056\u88575\u865f",
      "geometry": {
        "location": {
          "lat": 22.380162,
          "lng": 113.978871
        },
        "location_type": "GEOMETRIC_CENTER",
        "viewport": {
          "northeast": {
            "lat": 22.3815109802915,
            "lng": 113.9802199802915
          },
          "southwest": {
            "lat": 22.3788130197085,
            "lng": 113.9775220197085
          }
        }
      },
      "place_id": "ChIJOxjlZ2r7AzQR12Pzc0PEo8g",
      "plus_code": {
        "compound_code": "9XJH+3G \u9999\u6e2f",
        "global_code": "7PJM9XJH+3G"
      },
      "types": [
        "establishment",
        "food",
        "point_of_interest",
        "restaurant"
      ]
    }
  ],
  "licno": "2293000813",
  "timestamp": 1564968756,
  "version": "1564966095"
}
