{
  "adr_en": "66 HOT POT, SHOP NO. 7, G/F & M/F, NGAI HING MANSION, 74-76 HAK PO STREET, 2-24 PAK PO STREET & 5 YIM PO FONG STREET, MONG KOK, KOWLOON",
  "adr_tc": "\u4e5d\u9f8d\u65fa\u89d2\u67d3\u5e03\u623f\u88575\u865f\u53ca\u767d\u5e03\u88572-24\u865f\u53ca\u9ed1\u5e03\u885774-76\u865f \u85dd\u8208\u5927\u5ec87\u865f\u8216\u5730\u4e0b\u53ca\u95a3\u6a13 \u9678\u9678\u96de\u7172\u706b\u934b",
  "geocode_en": [
    {
      "address_components": [
        {
          "long_name": "33\u865f",
          "short_name": "33\u865f",
          "types": [
            "street_number"
          ]
        },
        {
          "long_name": "Nelson Street",
          "short_name": "Nelson St",
          "types": [
            "route"
          ]
        },
        {
          "long_name": "Mong Kok",
          "short_name": "Mong Kok",
          "types": [
            "neighborhood",
            "political"
          ]
        },
        {
          "long_name": "Kowloon",
          "short_name": "Kowloon",
          "types": [
            "administrative_area_level_1",
            "political"
          ]
        },
        {
          "long_name": "Hong Kong",
          "short_name": "HK",
          "types": [
            "country",
            "political"
          ]
        }
      ],
      "formatted_address": "33\u865f Nelson St, Mong Kok, Hong Kong",
      "geometry": {
        "location": {
          "lat": 22.3189559,
          "lng": 114.1727506
        },
        "location_type": "ROOFTOP",
        "viewport": {
          "northeast": {
            "lat": 22.3203048802915,
            "lng": 114.1740995802915
          },
          "southwest": {
            "lat": 22.3176069197085,
            "lng": 114.1714016197085
          }
        }
      },
      "partial_match": true,
      "place_id": "ChIJK355EMYABDQRyQL2sUrh7S4",
      "plus_code": {
        "compound_code": "859F+H4 Mong Kok, Hong Kong",
        "global_code": "7PJP859F+H4"
      },
      "types": [
        "establishment",
        "food",
        "point_of_interest",
        "restaurant"
      ]
    },
    {
      "address_components": [
        {
          "long_name": "Ngai Hing Mansion",
          "short_name": "Ngai Hing Mansion",
          "types": [
            "premise"
          ]
        },
        {
          "long_name": "2-24",
          "short_name": "2-24",
          "types": [
            "street_number"
          ]
        },
        {
          "long_name": "Pak Po Street",
          "short_name": "Pak Po St",
          "types": [
            "route"
          ]
        },
        {
          "long_name": "Mong Kok",
          "short_name": "Mong Kok",
          "types": [
            "neighborhood",
            "political"
          ]
        },
        {
          "long_name": "Kowloon",
          "short_name": "Kowloon",
          "types": [
            "administrative_area_level_1",
            "political"
          ]
        },
        {
          "long_name": "Hong Kong",
          "short_name": "HK",
          "types": [
            "country",
            "political"
          ]
        }
      ],
      "formatted_address": "Ngai Hing Mansion, 2-24 Pak Po St, Mong Kok, Hong Kong",
      "geometry": {
        "bounds": {
          "northeast": {
            "lat": 22.317915,
            "lng": 114.1734291
          },
          "southwest": {
            "lat": 22.3176571,
            "lng": 114.172746
          }
        },
        "location": {
          "lat": 22.317798,
          "lng": 114.1731499
        },
        "location_type": "ROOFTOP",
        "viewport": {
          "northeast": {
            "lat": 22.3191350302915,
            "lng": 114.1744365302915
          },
          "southwest": {
            "lat": 22.3164370697085,
            "lng": 114.1717385697085
          }
        }
      },
      "partial_match": true,
      "place_id": "ChIJAZ6eccYABDQR9KqDhookIoo",
      "types": [
        "premise"
      ]
    },
    {
      "address_components": [
        {
          "long_name": "Hak Po Street",
          "short_name": "Hak Po Street",
          "types": [
            "premise"
          ]
        },
        {
          "long_name": "91-97",
          "short_name": "91-97",
          "types": [
            "street_number"
          ]
        },
        {
          "long_name": "Hak Po Street",
          "short_name": "Hak Po St",
          "types": [
            "route"
          ]
        },
        {
          "long_name": "Mong Kok",
          "short_name": "Mong Kok",
          "types": [
            "neighborhood",
            "political"
          ]
        },
        {
          "long_name": "Kowloon",
          "short_name": "Kowloon",
          "types": [
            "administrative_area_level_1",
            "political"
          ]
        },
        {
          "long_name": "Hong Kong",
          "short_name": "HK",
          "types": [
            "country",
            "political"
          ]
        }
      ],
      "formatted_address": "Hak Po Street, 91-97 Hak Po St, Mong Kok, Hong Kong",
      "geometry": {
        "bounds": {
          "northeast": {
            "lat": 22.3194039,
            "lng": 114.172264
          },
          "southwest": {
            "lat": 22.319201,
            "lng": 114.1720501
          }
        },
        "location": {
          "lat": 22.3192852,
          "lng": 114.1721514
        },
        "location_type": "ROOFTOP",
        "viewport": {
          "northeast": {
            "lat": 22.3206514302915,
            "lng": 114.1735060302915
          },
          "southwest": {
            "lat": 22.3179534697085,
            "lng": 114.1708080697085
          }
        }
      },
      "partial_match": true,
      "place_id": "ChIJkbh0IsYABDQRxuDwwX1Bn5Q",
      "types": [
        "premise"
      ]
    }
  ],
  "geocode_tc": [
    {
      "address_components": [
        {
          "long_name": "5",
          "short_name": "5",
          "types": [
            "street_number"
          ]
        },
        {
          "long_name": "\u67d3\u5e03\u623f\u8857",
          "short_name": "\u67d3\u5e03\u623f\u8857",
          "types": [
            "route"
          ]
        },
        {
          "long_name": "\u65fa\u89d2",
          "short_name": "\u65fa\u89d2",
          "types": [
            "neighborhood",
            "political"
          ]
        },
        {
          "long_name": "\u4e5d\u9f8d",
          "short_name": "\u4e5d\u9f8d",
          "types": [
            "administrative_area_level_1",
            "political"
          ]
        },
        {
          "long_name": "\u9999\u6e2f",
          "short_name": "HK",
          "types": [
            "country",
            "political"
          ]
        }
      ],
      "formatted_address": "\u9999\u6e2f\u65fa\u89d2\u67d3\u5e03\u623f\u88575\u865f",
      "geometry": {
        "location": {
          "lat": 22.317843,
          "lng": 114.173387
        },
        "location_type": "ROOFTOP",
        "viewport": {
          "northeast": {
            "lat": 22.3191919802915,
            "lng": 114.1747359802915
          },
          "southwest": {
            "lat": 22.3164940197085,
            "lng": 114.1720380197085
          }
        }
      },
      "partial_match": true,
      "place_id": "ChIJDcs2dMYABDQRnqiE6sngvJY",
      "plus_code": {
        "compound_code": "859F+49 \u9999\u6e2f",
        "global_code": "7PJP859F+49"
      },
      "types": [
        "street_address"
      ]
    },
    {
      "address_components": [
        {
          "long_name": "74-76",
          "short_name": "74-76",
          "types": [
            "street_number"
          ]
        },
        {
          "long_name": "\u9ed1\u5e03\u8857",
          "short_name": "\u9ed1\u5e03\u8857",
          "types": [
            "route"
          ]
        },
        {
          "long_name": "\u65fa\u89d2",
          "short_name": "\u65fa\u89d2",
          "types": [
            "neighborhood",
            "political"
          ]
        },
        {
          "long_name": "\u4e5d\u9f8d",
          "short_name": "\u4e5d\u9f8d",
          "types": [
            "administrative_area_level_1",
            "political"
          ]
        },
        {
          "long_name": "\u9999\u6e2f",
          "short_name": "HK",
          "types": [
            "country",
            "political"
          ]
        }
      ],
      "formatted_address": "\u9999\u6e2f\u65fa\u89d2\u9ed1\u5e03\u885774-76\u865f",
      "geometry": {
        "location": {
          "lat": 22.317798,
          "lng": 114.1731499
        },
        "location_type": "ROOFTOP",
        "viewport": {
          "northeast": {
            "lat": 22.3191469802915,
            "lng": 114.1744988802915
          },
          "southwest": {
            "lat": 22.3164490197085,
            "lng": 114.1718009197085
          }
        }
      },
      "partial_match": true,
      "place_id": "ChIJAZ6eccYABDQRP_dVWKZEWQU",
      "plus_code": {
        "compound_code": "859F+47 \u9999\u6e2f",
        "global_code": "7PJP859F+47"
      },
      "types": [
        "street_address"
      ]
    },
    {
      "address_components": [
        {
          "long_name": "\u865f\u8216\u5730\u4e0b\u53ca",
          "short_name": "\u865f\u8216\u5730\u4e0b\u53ca",
          "types": [
            "subpremise"
          ]
        },
        {
          "long_name": "\u85dd\u8208\u5927\u5ec8",
          "short_name": "\u85dd\u8208\u5927\u5ec8",
          "types": [
            "premise"
          ]
        },
        {
          "long_name": "2-24",
          "short_name": "2-24",
          "types": [
            "street_number"
          ]
        },
        {
          "long_name": "\u767d\u5e03\u8857",
          "short_name": "\u767d\u5e03\u8857",
          "types": [
            "route"
          ]
        },
        {
          "long_name": "\u65fa\u89d2",
          "short_name": "\u65fa\u89d2",
          "types": [
            "neighborhood",
            "political"
          ]
        },
        {
          "long_name": "\u4e5d\u9f8d",
          "short_name": "\u4e5d\u9f8d",
          "types": [
            "administrative_area_level_1",
            "political"
          ]
        },
        {
          "long_name": "\u9999\u6e2f",
          "short_name": "HK",
          "types": [
            "country",
            "political"
          ]
        }
      ],
      "formatted_address": "\u9999\u6e2f\u65fa\u89d2\u767d\u5e03\u88572-24\u865f\u85dd\u8208\u5927\u5ec8\u865f\u8216\u5730\u4e0b\u53ca",
      "geometry": {
        "bounds": {
          "northeast": {
            "lat": 22.317915,
            "lng": 114.1734291
          },
          "southwest": {
            "lat": 22.3176571,
            "lng": 114.172746
          }
        },
        "location": {
          "lat": 22.317798,
          "lng": 114.1731499
        },
        "location_type": "ROOFTOP",
        "viewport": {
          "northeast": {
            "lat": 22.3191350302915,
            "lng": 114.1744365302915
          },
          "southwest": {
            "lat": 22.3164370697085,
            "lng": 114.1717385697085
          }
        }
      },
      "partial_match": true,
      "place_id": "EkfomZ_oiJblnLDkuIvlj4osIE5nYWkgSGluZyBNYW5zaW9uLCAyLTI0IFBhayBQbyBTdCwgTW9uZyBLb2ssIEhvbmcgS29uZyIrGikKFgoUChIJAZ6eccYABDQR9KqDhookIooSD-iZn-iIluWcsOS4i-WPig",
      "types": [
        "subpremise"
      ]
    },
    {
      "address_components": [
        {
          "long_name": "16",
          "short_name": "16",
          "types": [
            "street_number"
          ]
        },
        {
          "long_name": "\u767d\u5e03\u8857",
          "short_name": "\u767d\u5e03\u8857",
          "types": [
            "route"
          ]
        },
        {
          "long_name": "\u65fa\u89d2",
          "short_name": "\u65fa\u89d2",
          "types": [
            "neighborhood",
            "political"
          ]
        },
        {
          "long_name": "\u4e5d\u9f8d",
          "short_name": "\u4e5d\u9f8d",
          "types": [
            "administrative_area_level_1",
            "political"
          ]
        },
        {
          "long_name": "\u9999\u6e2f",
          "short_name": "HK",
          "types": [
            "country",
            "political"
          ]
        }
      ],
      "formatted_address": "\u9999\u6e2f\u65fa\u89d2\u767d\u5e03\u885716\u865f",
      "geometry": {
        "location": {
          "lat": 22.3176318,
          "lng": 114.17309
        },
        "location_type": "ROOFTOP",
        "viewport": {
          "northeast": {
            "lat": 22.3189807802915,
            "lng": 114.1744389802915
          },
          "southwest": {
            "lat": 22.31628281970849,
            "lng": 114.1717410197085
          }
        }
      },
      "partial_match": true,
      "place_id": "ChIJydZZcMYABDQRyEpOVCj1bKo",
      "plus_code": {
        "compound_code": "859F+36 \u9999\u6e2f",
        "global_code": "7PJP859F+36"
      },
      "types": [
        "establishment",
        "food",
        "point_of_interest",
        "restaurant"
      ]
    }
  ],
  "licno": "2262810403",
  "timestamp": 1564968756,
  "version": "1564966095"
}
