{
  "adr_en": "Fairwood Fast Food, SHOP NO. 65, OCEAN WALK, 168-236 WU CHUI ROAD, TUEN MUN, NEW TERRITORIES",
  "adr_tc": "\u65b0\u754c\u5c6f\u9580\u6e56\u7fe0\u8def168 \u81f3 236 \u865f\u6d77\u8da3\u574a65 \u865f\u8216 \u5927\u5feb\u6d3b",
  "geocode_en": [
    {
      "address_components": [
        {
          "long_name": "Hong Kong",
          "short_name": "HK",
          "types": [
            "country",
            "political"
          ]
        }
      ],
      "formatted_address": "Hong Kong, \u5c6f\u9580\u6e56\u7fe0\u8def168-236\u865f\u6d77\u8da3\u574a65\u865f\u8216",
      "geometry": {
        "location": {
          "lat": 22.3727246,
          "lng": 113.9656699
        },
        "location_type": "GEOMETRIC_CENTER",
        "viewport": {
          "northeast": {
            "lat": 22.3740735802915,
            "lng": 113.9670188802915
          },
          "southwest": {
            "lat": 22.3713756197085,
            "lng": 113.9643209197085
          }
        }
      },
      "partial_match": true,
      "place_id": "ChIJY0sdolr7AzQRXgv7v0PqmJ8",
      "plus_code": {
        "compound_code": "9XF8+37 Hong Kong",
        "global_code": "7PJM9XF8+37"
      },
      "types": [
        "establishment",
        "food",
        "point_of_interest",
        "restaurant"
      ]
    },
    {
      "address_components": [
        {
          "long_name": "168-236",
          "short_name": "168-236",
          "types": [
            "street_number"
          ]
        },
        {
          "long_name": "Wu Chui Road",
          "short_name": "Wu Chui Rd",
          "types": [
            "route"
          ]
        },
        {
          "long_name": "Tuen Mun",
          "short_name": "Tuen Mun",
          "types": [
            "neighborhood",
            "political"
          ]
        },
        {
          "long_name": "New Territories",
          "short_name": "New Territories",
          "types": [
            "administrative_area_level_1",
            "political"
          ]
        },
        {
          "long_name": "Hong Kong",
          "short_name": "HK",
          "types": [
            "country",
            "political"
          ]
        }
      ],
      "formatted_address": "168-236 Wu Chui Rd, Tuen Mun, Hong Kong",
      "geometry": {
        "location": {
          "lat": 22.372698,
          "lng": 113.966237
        },
        "location_type": "ROOFTOP",
        "viewport": {
          "northeast": {
            "lat": 22.3740469802915,
            "lng": 113.9675859802915
          },
          "southwest": {
            "lat": 22.3713490197085,
            "lng": 113.9648880197085
          }
        }
      },
      "partial_match": true,
      "place_id": "ChIJDVP3mVr7AzQRQ9TGaAjrCqE",
      "plus_code": {
        "compound_code": "9XF8+3F Hong Kong",
        "global_code": "7PJM9XF8+3F"
      },
      "types": [
        "establishment",
        "point_of_interest",
        "shopping_mall"
      ]
    }
  ],
  "geocode_tc": [
    {
      "address_components": [
        {
          "long_name": "\u9999\u6e2f",
          "short_name": "HK",
          "types": [
            "country",
            "political"
          ]
        }
      ],
      "formatted_address": "\u9999\u6e2f\u5c6f\u9580\u6e56\u7fe0\u8def168-236\u865f\u6d77\u8da3\u574a65\u865f\u8216",
      "geometry": {
        "location": {
          "lat": 22.3727246,
          "lng": 113.9656699
        },
        "location_type": "GEOMETRIC_CENTER",
        "viewport": {
          "northeast": {
            "lat": 22.3740735802915,
            "lng": 113.9670188802915
          },
          "southwest": {
            "lat": 22.3713756197085,
            "lng": 113.9643209197085
          }
        }
      },
      "place_id": "ChIJY0sdolr7AzQRXgv7v0PqmJ8",
      "plus_code": {
        "compound_code": "9XF8+37 \u9999\u6e2f",
        "global_code": "7PJM9XF8+37"
      },
      "types": [
        "establishment",
        "food",
        "point_of_interest",
        "restaurant"
      ]
    }
  ],
  "licno": "2293800222",
  "timestamp": 1564968756,
  "version": "1564966095"
}
