{
  "adr_en": "San Hing, SHOP NO. 24, G/F, LIN FAT BUILDING, 2 FUNG KWAN STREET, YUEN LONG, NEW TERRITORIES",
  "adr_tc": "\u65b0\u754c\u5143\u6717 \u9cf3\u7fa4\u88572\u865f \u5e74\u767c\u5927\u5ec8 \u5730\u4e0b24\u865f\u92ea \u65b0\u8208",
  "geocode_en": [
    {
      "address_components": [
        {
          "long_name": "SHOP NO. 24, G",
          "short_name": "SHOP NO. 24, G",
          "types": [
            "subpremise"
          ]
        },
        {
          "long_name": "Lin Fat Building",
          "short_name": "Lin Fat Building",
          "types": [
            "premise"
          ]
        },
        {
          "long_name": "Fung Kwan Street",
          "short_name": "Fung Kwan St",
          "types": [
            "route"
          ]
        },
        {
          "long_name": "Yuen Long",
          "short_name": "Yuen Long",
          "types": [
            "neighborhood",
            "political"
          ]
        },
        {
          "long_name": "New Territories",
          "short_name": "New Territories",
          "types": [
            "administrative_area_level_1",
            "political"
          ]
        },
        {
          "long_name": "Hong Kong",
          "short_name": "HK",
          "types": [
            "country",
            "political"
          ]
        }
      ],
      "formatted_address": "SHOP NO. 24, G, Lin Fat Building, Fung Kwan St, Yuen Long, Hong Kong",
      "geometry": {
        "bounds": {
          "northeast": {
            "lat": 22.442516,
            "lng": 114.0350879
          },
          "southwest": {
            "lat": 22.4423149,
            "lng": 114.034866
          }
        },
        "location": {
          "lat": 22.4424266,
          "lng": 114.0349795
        },
        "location_type": "ROOFTOP",
        "viewport": {
          "northeast": {
            "lat": 22.4437644302915,
            "lng": 114.0363259302915
          },
          "southwest": {
            "lat": 22.4410664697085,
            "lng": 114.0336279697085
          }
        }
      },
      "partial_match": true,
      "place_id": "EkRTSE9QIE5PLiAyNCwgRywgTGluIEZhdCBCdWlsZGluZywgRnVuZyBLd2FuIFN0LCBZdWVuIExvbmcsIEhvbmcgS29uZyIqGigKFgoUChIJo9dojqfwAzQRXmf2SPJ6gHcSDlNIT1AgTk8uIDI0LCBH",
      "types": [
        "subpremise"
      ]
    }
  ],
  "geocode_tc": [
    {
      "address_components": [
        {
          "long_name": "\u5e74\u767c\u5927\u5ec8",
          "short_name": "\u5e74\u767c\u5927\u5ec8",
          "types": [
            "premise"
          ]
        },
        {
          "long_name": "\u9cf3\u7fa4\u8857",
          "short_name": "\u9cf3\u7fa4\u8857",
          "types": [
            "route"
          ]
        },
        {
          "long_name": "\u5143\u6717",
          "short_name": "\u5143\u6717",
          "types": [
            "neighborhood",
            "political"
          ]
        },
        {
          "long_name": "\u65b0\u754c",
          "short_name": "\u65b0\u754c",
          "types": [
            "administrative_area_level_1",
            "political"
          ]
        },
        {
          "long_name": "\u9999\u6e2f",
          "short_name": "HK",
          "types": [
            "country",
            "political"
          ]
        }
      ],
      "formatted_address": "\u9999\u6e2f\u5143\u6717\u9cf3\u7fa4\u8857\u5e74\u767c\u5927\u5ec8",
      "geometry": {
        "bounds": {
          "northeast": {
            "lat": 22.442516,
            "lng": 114.0350879
          },
          "southwest": {
            "lat": 22.4423149,
            "lng": 114.034866
          }
        },
        "location": {
          "lat": 22.4424266,
          "lng": 114.0349795
        },
        "location_type": "ROOFTOP",
        "viewport": {
          "northeast": {
            "lat": 22.4437644302915,
            "lng": 114.0363259302915
          },
          "southwest": {
            "lat": 22.4410664697085,
            "lng": 114.0336279697085
          }
        }
      },
      "partial_match": true,
      "place_id": "ChIJo9dojqfwAzQRXmf2SPJ6gHc",
      "types": [
        "premise"
      ]
    }
  ],
  "licno": "3194001644",
  "timestamp": 1564975666,
  "version": "1564966095"
}
