{
  "adr_en": "\u91d1\u83e0\u863f, G/F, 108 APLEICHAU MAIN STREET, APLEICHAU, SOUTHERN, HONG KONG",
  "adr_tc": "\u9999\u6e2f\u9999\u6e2f\u4ed4 \u9d28\u8137\u6d32\u5927\u8857108\u865f\u5730\u4e0b \u91d1\u83e0\u863f",
  "geocode_en": [
    {
      "address_components": [
        {
          "long_name": "108\u865f",
          "short_name": "108\u865f",
          "types": [
            "street_number"
          ]
        },
        {
          "long_name": "Ap Lei Chau Main Street",
          "short_name": "Ap Lei Chau Main St",
          "types": [
            "route"
          ]
        },
        {
          "long_name": "Ap Lei Chau",
          "short_name": "Ap Lei Chau",
          "types": [
            "neighborhood",
            "political"
          ]
        },
        {
          "long_name": "Hong Kong Island",
          "short_name": "Hong Kong Island",
          "types": [
            "administrative_area_level_1",
            "political"
          ]
        },
        {
          "long_name": "Hong Kong",
          "short_name": "HK",
          "types": [
            "country",
            "political"
          ]
        }
      ],
      "formatted_address": "108\u865f Ap Lei Chau Main St, Ap Lei Chau, Hong Kong",
      "geometry": {
        "location": {
          "lat": 22.2438403,
          "lng": 114.1549145
        },
        "location_type": "ROOFTOP",
        "viewport": {
          "northeast": {
            "lat": 22.2451892802915,
            "lng": 114.1562634802915
          },
          "southwest": {
            "lat": 22.2424913197085,
            "lng": 114.1535655197085
          }
        }
      },
      "place_id": "ChIJlVOjG6iqBjQR-WR-IkERThg",
      "plus_code": {
        "compound_code": "65V3+GX Ap Lei Chau, Hong Kong",
        "global_code": "7PJP65V3+GX"
      },
      "types": [
        "establishment",
        "food",
        "point_of_interest",
        "restaurant"
      ]
    }
  ],
  "geocode_tc": [
    {
      "address_components": [
        {
          "long_name": "108\u865f",
          "short_name": "108\u865f",
          "types": [
            "street_number"
          ]
        },
        {
          "long_name": "\u9d28\u8137\u6d32\u5927\u8857",
          "short_name": "\u9d28\u8137\u6d32\u5927\u8857",
          "types": [
            "route"
          ]
        },
        {
          "long_name": "\u9d28\u8137\u6d32",
          "short_name": "\u9d28\u8137\u6d32",
          "types": [
            "neighborhood",
            "political"
          ]
        },
        {
          "long_name": "\u9999\u6e2f\u5cf6",
          "short_name": "\u9999\u6e2f\u5cf6",
          "types": [
            "administrative_area_level_1",
            "political"
          ]
        },
        {
          "long_name": "\u9999\u6e2f",
          "short_name": "HK",
          "types": [
            "country",
            "political"
          ]
        }
      ],
      "formatted_address": "\u9999\u6e2f\u9d28\u8137\u6d32\u9d28\u8137\u6d32\u5927\u8857108\u865f",
      "geometry": {
        "location": {
          "lat": 22.2438403,
          "lng": 114.1549145
        },
        "location_type": "ROOFTOP",
        "viewport": {
          "northeast": {
            "lat": 22.2451892802915,
            "lng": 114.1562634802915
          },
          "southwest": {
            "lat": 22.2424913197085,
            "lng": 114.1535655197085
          }
        }
      },
      "place_id": "ChIJlVOjG6iqBjQR-WR-IkERThg",
      "plus_code": {
        "compound_code": "65V3+GX \u9999\u6e2f\u9d28\u8137\u6d32",
        "global_code": "7PJP65V3+GX"
      },
      "types": [
        "establishment",
        "food",
        "point_of_interest",
        "restaurant"
      ]
    },
    {
      "address_components": [
        {
          "long_name": "\u9d28\u8137\u6d32",
          "short_name": "\u9d28\u8137\u6d32",
          "types": [
            "establishment",
            "natural_feature"
          ]
        },
        {
          "long_name": "\u9999\u6e2f\u5cf6",
          "short_name": "\u9999\u6e2f\u5cf6",
          "types": [
            "administrative_area_level_1",
            "political"
          ]
        },
        {
          "long_name": "\u9999\u6e2f",
          "short_name": "HK",
          "types": [
            "country",
            "political"
          ]
        }
      ],
      "formatted_address": "\u9999\u6e2f\u9d28\u8137\u6d32",
      "geometry": {
        "bounds": {
          "northeast": {
            "lat": 22.2457869,
            "lng": 114.163185
          },
          "southwest": {
            "lat": 22.2338824,
            "lng": 114.1440607
          }
        },
        "location": {
          "lat": 22.2418581,
          "lng": 114.1528532
        },
        "location_type": "APPROXIMATE",
        "viewport": {
          "northeast": {
            "lat": 22.2457869,
            "lng": 114.163185
          },
          "southwest": {
            "lat": 22.2338824,
            "lng": 114.1440607
          }
        }
      },
      "place_id": "ChIJLXjXxKiqBjQRjFs4ben-eik",
      "types": [
        "establishment",
        "natural_feature"
      ]
    }
  ],
  "licno": "2215201887",
  "timestamp": 1564968756,
  "version": "1564966095"
}
