{
  "adr_en": "Cuisine De Hunan, SHOP C ON MEZZANINE FLOOR & PORTION OF G/F, NATHAN TOWER, 518-520 NATHAN ROAD, YAU MA TEI, KOWLOON",
  "adr_tc": "\u4e5d\u9f8d\u6cb9\u9ebb\u5730\u5f4c\u6566\u9053518-520\u865f\u5f4c\u6566\u884c \u95a3\u6a13C\u92ea\u548c\u90e8\u4efd\u5730\u4e0b \u6e58\u80b4\u4e16\u5bb6",
  "geocode_en": [
    {
      "address_components": [
        {
          "long_name": "Nathan Tower",
          "short_name": "Nathan Tower",
          "types": [
            "premise"
          ]
        },
        {
          "long_name": "518-520",
          "short_name": "518-520",
          "types": [
            "street_number"
          ]
        },
        {
          "long_name": "Nathan Road",
          "short_name": "Nathan Rd",
          "types": [
            "route"
          ]
        },
        {
          "long_name": "Yau Ma Tei",
          "short_name": "Yau Ma Tei",
          "types": [
            "neighborhood",
            "political"
          ]
        },
        {
          "long_name": "Kowloon",
          "short_name": "Kowloon",
          "types": [
            "administrative_area_level_1",
            "political"
          ]
        },
        {
          "long_name": "Hong Kong",
          "short_name": "HK",
          "types": [
            "country",
            "political"
          ]
        }
      ],
      "formatted_address": "Nathan Tower, 518-520 Nathan Rd, Yau Ma Tei, Hong Kong",
      "geometry": {
        "bounds": {
          "northeast": {
            "lat": 22.312455,
            "lng": 114.171144
          },
          "southwest": {
            "lat": 22.3123671,
            "lng": 114.1709319
          }
        },
        "location": {
          "lat": 22.3124053,
          "lng": 114.1709903
        },
        "location_type": "ROOFTOP",
        "viewport": {
          "northeast": {
            "lat": 22.3137600302915,
            "lng": 114.1723869302915
          },
          "southwest": {
            "lat": 22.3110620697085,
            "lng": 114.1696889697085
          }
        }
      },
      "partial_match": true,
      "place_id": "ChIJJdKAHMEABDQR_G8rfC_hJr0",
      "types": [
        "premise"
      ]
    }
  ],
  "geocode_tc": [
    {
      "address_components": [
        {
          "long_name": "516",
          "short_name": "516",
          "types": [
            "street_number"
          ]
        },
        {
          "long_name": "\u5f4c\u6566\u9053",
          "short_name": "\u5f4c\u6566\u9053",
          "types": [
            "route"
          ]
        },
        {
          "long_name": "\u6cb9\u9ebb\u5730",
          "short_name": "\u6cb9\u9ebb\u5730",
          "types": [
            "neighborhood",
            "political"
          ]
        },
        {
          "long_name": "\u9999\u6e2f",
          "short_name": "HK",
          "types": [
            "country",
            "political"
          ]
        }
      ],
      "formatted_address": "\u9999\u6e2f\u6cb9\u9ebb\u5730\u5f4c\u6566\u9053516\u865f\u865f",
      "geometry": {
        "location": {
          "lat": 22.3123399,
          "lng": 114.1709347
        },
        "location_type": "ROOFTOP",
        "viewport": {
          "northeast": {
            "lat": 22.3136888802915,
            "lng": 114.1722836802915
          },
          "southwest": {
            "lat": 22.31099091970849,
            "lng": 114.1695857197085
          }
        }
      },
      "partial_match": true,
      "place_id": "ChIJS1DCHMEABDQR4_4aklMdyUA",
      "plus_code": {
        "compound_code": "856C+W9 \u9999\u6e2f",
        "global_code": "7PJP856C+W9"
      },
      "types": [
        "establishment",
        "food",
        "point_of_interest",
        "restaurant"
      ]
    },
    {
      "address_components": [
        {
          "long_name": "\u5f4c\u6566\u884c",
          "short_name": "\u5f4c\u6566\u884c",
          "types": [
            "premise"
          ]
        },
        {
          "long_name": "518-520",
          "short_name": "518-520",
          "types": [
            "street_number"
          ]
        },
        {
          "long_name": "\u5f4c\u6566\u9053",
          "short_name": "\u5f4c\u6566\u9053",
          "types": [
            "route"
          ]
        },
        {
          "long_name": "\u6cb9\u9ebb\u5730",
          "short_name": "\u6cb9\u9ebb\u5730",
          "types": [
            "neighborhood",
            "political"
          ]
        },
        {
          "long_name": "\u4e5d\u9f8d",
          "short_name": "\u4e5d\u9f8d",
          "types": [
            "administrative_area_level_1",
            "political"
          ]
        },
        {
          "long_name": "\u9999\u6e2f",
          "short_name": "HK",
          "types": [
            "country",
            "political"
          ]
        }
      ],
      "formatted_address": "\u9999\u6e2f\u6cb9\u9ebb\u5730\u5f4c\u6566\u9053518-520\u865f\u5f4c\u6566\u884c",
      "geometry": {
        "bounds": {
          "northeast": {
            "lat": 22.312455,
            "lng": 114.171144
          },
          "southwest": {
            "lat": 22.3123671,
            "lng": 114.1709319
          }
        },
        "location": {
          "lat": 22.3124053,
          "lng": 114.1709903
        },
        "location_type": "ROOFTOP",
        "viewport": {
          "northeast": {
            "lat": 22.3137600302915,
            "lng": 114.1723869302915
          },
          "southwest": {
            "lat": 22.3110620697085,
            "lng": 114.1696889697085
          }
        }
      },
      "partial_match": true,
      "place_id": "ChIJJdKAHMEABDQR_G8rfC_hJr0",
      "types": [
        "premise"
      ]
    }
  ],
  "licno": "2261814851",
  "timestamp": 1564968756,
  "version": "1564966095"
}
