{
  "adr_en": "ITAMOMO CAFE, SHOP 321C, LEVEL 3, CHEUNG FAT PLAZA, 6 TAM KON SHAN ROAD, TSING YI, NEW TERRITORIES",
  "adr_tc": "\u65b0\u754c\u9752\u8863\u62c5\u6746\u5c71\u8def6\u865f\u9577\u767c\u5546\u5834\u7b2c3\u5c64321C\u865f\u92ea \u610f\u6a02\u9910\u5ef3",
  "geocode_en": [
    {
      "address_components": [
        {
          "long_name": "Tsing Yi",
          "short_name": "Tsing Yi",
          "types": [
            "neighborhood",
            "political"
          ]
        },
        {
          "long_name": "New Territories",
          "short_name": "New Territories",
          "types": [
            "administrative_area_level_1",
            "political"
          ]
        },
        {
          "long_name": "Hong Kong",
          "short_name": "HK",
          "types": [
            "country",
            "political"
          ]
        }
      ],
      "formatted_address": "Shop 321C, Cheung Fat Plaza, 6 Tam Kon Shan Rd, NT, Tsing Yi, Hong Kong",
      "geometry": {
        "location": {
          "lat": 22.3621019,
          "lng": 114.1028459
        },
        "location_type": "GEOMETRIC_CENTER",
        "viewport": {
          "northeast": {
            "lat": 22.3634508802915,
            "lng": 114.1041948802915
          },
          "southwest": {
            "lat": 22.3607529197085,
            "lng": 114.1014969197085
          }
        }
      },
      "place_id": "ChIJsetlwt34AzQR4aiZHhYcuF0",
      "plus_code": {
        "compound_code": "9463+R4 Hong Kong",
        "global_code": "7PJP9463+R4"
      },
      "types": [
        "establishment",
        "food",
        "point_of_interest",
        "restaurant"
      ]
    }
  ],
  "geocode_tc": [
    {
      "address_components": [
        {
          "long_name": "Tsing Yi",
          "short_name": "Tsing Yi",
          "types": [
            "neighborhood",
            "political"
          ]
        },
        {
          "long_name": "New Territories",
          "short_name": "New Territories",
          "types": [
            "administrative_area_level_1",
            "political"
          ]
        },
        {
          "long_name": "\u9999\u6e2f",
          "short_name": "HK",
          "types": [
            "country",
            "political"
          ]
        }
      ],
      "formatted_address": "Shop 321C, Cheung Fat Plaza, 6 Tam Kon Shan Rd, NT, Tsing Yi, \u9999\u6e2f",
      "geometry": {
        "location": {
          "lat": 22.3621019,
          "lng": 114.1028459
        },
        "location_type": "GEOMETRIC_CENTER",
        "viewport": {
          "northeast": {
            "lat": 22.3634508802915,
            "lng": 114.1041948802915
          },
          "southwest": {
            "lat": 22.3607529197085,
            "lng": 114.1014969197085
          }
        }
      },
      "partial_match": true,
      "place_id": "ChIJsetlwt34AzQR4aiZHhYcuF0",
      "plus_code": {
        "compound_code": "9463+R4 \u9999\u6e2f",
        "global_code": "7PJP9463+R4"
      },
      "types": [
        "establishment",
        "food",
        "point_of_interest",
        "restaurant"
      ]
    },
    {
      "address_components": [
        {
          "long_name": "\u5c64321C\u865f\u92ea",
          "short_name": "\u5c64321C\u865f\u92ea",
          "types": [
            "subpremise"
          ]
        },
        {
          "long_name": "6",
          "short_name": "6",
          "types": [
            "street_number"
          ]
        },
        {
          "long_name": "\u62c5\u6746\u5c71\u8def",
          "short_name": "\u62c5\u6746\u5c71\u8def",
          "types": [
            "route"
          ]
        },
        {
          "long_name": "\u9752\u8863",
          "short_name": "\u9752\u8863",
          "types": [
            "neighborhood",
            "political"
          ]
        },
        {
          "long_name": "\u65b0\u754c",
          "short_name": "\u65b0\u754c",
          "types": [
            "administrative_area_level_1",
            "political"
          ]
        },
        {
          "long_name": "\u9999\u6e2f",
          "short_name": "HK",
          "types": [
            "country",
            "political"
          ]
        }
      ],
      "formatted_address": "\u9999\u6e2f\u9752\u8863\u62c5\u6746\u5c71\u8def6\u865f\u5c64321C\u865f\u92ea",
      "geometry": {
        "bounds": {
          "northeast": {
            "lat": 22.3627704,
            "lng": 114.1041648
          },
          "southwest": {
            "lat": 22.3619377,
            "lng": 114.1025535
          }
        },
        "location": {
          "lat": 22.3622285,
          "lng": 114.1028738
        },
        "location_type": "ROOFTOP",
        "viewport": {
          "northeast": {
            "lat": 22.3637030302915,
            "lng": 114.1047081302915
          },
          "southwest": {
            "lat": 22.3610050697085,
            "lng": 114.1020101697085
          }
        }
      },
      "partial_match": true,
      "place_id": "EjXlsaQzMjFD6Jmf6YuqLCA2IFRhbSBLb24gU2hhbiBSZCwgVHNpbmcgWWksIEhvbmcgS29uZyIpGicKFgoUChIJdx5kw934AzQRXJxVE78bbj4SDeWxpDMyMUPomZ_pi6o",
      "types": [
        "subpremise"
      ]
    }
  ],
  "licno": "2291801629",
  "timestamp": 1564968756,
  "version": "1564966095"
}
