{
  "adr_en": "Largos Hotel, BASEMENT 1 (PORTION), BASEMENT 2(PORTION) & 1/F (PORTION), 30-36 NANKING STREET, JORDAN, KOWLOON",
  "adr_tc": "\u4e5d\u9f8d\u4f50\u6566\u5357\u4eac\u885730-36\u865f\u4e00\u6a13\u90e8\u4efd \u5730\u5eab\u7b2c\u4e8c\u5c64\u90e8\u4efd\u53ca\u5730\u5eab\u7b2c\u4e00\u5c64\u90e8\u4efd \u6717\u9038\u9152\u5e97",
  "geocode_en": [
    {
      "address_components": [
        {
          "long_name": "30",
          "short_name": "30",
          "types": [
            "street_number"
          ]
        },
        {
          "long_name": "Nanking Street",
          "short_name": "Nanking St",
          "types": [
            "route"
          ]
        },
        {
          "long_name": "Jordan",
          "short_name": "Jordan",
          "types": [
            "neighborhood",
            "political"
          ]
        },
        {
          "long_name": "Kowloon",
          "short_name": "Kowloon",
          "types": [
            "administrative_area_level_1",
            "political"
          ]
        },
        {
          "long_name": "Hong Kong",
          "short_name": "HK",
          "types": [
            "country",
            "political"
          ]
        }
      ],
      "formatted_address": "30 Nanking St, Jordan, Hong Kong",
      "geometry": {
        "location": {
          "lat": 22.306311,
          "lng": 114.1724804
        },
        "location_type": "ROOFTOP",
        "viewport": {
          "northeast": {
            "lat": 22.3076599802915,
            "lng": 114.1738293802915
          },
          "southwest": {
            "lat": 22.3049620197085,
            "lng": 114.1711314197085
          }
        }
      },
      "partial_match": true,
      "place_id": "ChIJxaQsMeoABDQR6lqlZCK9LNc",
      "plus_code": {
        "compound_code": "854C+GX Hong Kong",
        "global_code": "7PJP854C+GX"
      },
      "types": [
        "establishment",
        "lodging",
        "point_of_interest"
      ]
    },
    {
      "address_components": [
        {
          "long_name": "PORTION) & 1/F (PORTION",
          "short_name": "PORTION) & 1/F (PORTION",
          "types": [
            "subpremise"
          ]
        },
        {
          "long_name": "Largos Hotel",
          "short_name": "Largos Hotel",
          "types": [
            "premise"
          ]
        },
        {
          "long_name": "30",
          "short_name": "30",
          "types": [
            "street_number"
          ]
        },
        {
          "long_name": "Nanking Street",
          "short_name": "Nanking St",
          "types": [
            "route"
          ]
        },
        {
          "long_name": "Yau Ma Tei",
          "short_name": "Yau Ma Tei",
          "types": [
            "neighborhood",
            "political"
          ]
        },
        {
          "long_name": "Kowloon",
          "short_name": "Kowloon",
          "types": [
            "administrative_area_level_1",
            "political"
          ]
        },
        {
          "long_name": "Hong Kong",
          "short_name": "HK",
          "types": [
            "country",
            "political"
          ]
        }
      ],
      "formatted_address": "PORTION) & 1/F (PORTION, Largos Hotel, 30 Nanking St, Yau Ma Tei, Hong Kong",
      "geometry": {
        "bounds": {
          "northeast": {
            "lat": 22.3063961,
            "lng": 114.172566
          },
          "southwest": {
            "lat": 22.3062419,
            "lng": 114.1723929
          }
        },
        "location": {
          "lat": 22.3063289,
          "lng": 114.1724765
        },
        "location_type": "ROOFTOP",
        "viewport": {
          "northeast": {
            "lat": 22.30766798029151,
            "lng": 114.1738284302915
          },
          "southwest": {
            "lat": 22.3049700197085,
            "lng": 114.1711304697085
          }
        }
      },
      "partial_match": true,
      "place_id": "EktQT1JUSU9OKSAmIDEvRiAoUE9SVElPTiwgTGFyZ29zIEhvdGVsLCAzMCBOYW5raW5nIFN0LCBZYXUgTWEgVGVpLCBIb25nIEtvbmciMxoxChYKFAoSCVebOzfqAAQ0Eb4frL2Sxy0QEhdQT1JUSU9OKSAmIDEvRiAoUE9SVElPTg",
      "types": [
        "subpremise"
      ]
    }
  ],
  "geocode_tc": [
    {
      "address_components": [
        {
          "long_name": "30",
          "short_name": "30",
          "types": [
            "street_number"
          ]
        },
        {
          "long_name": "\u5357\u4eac\u8857",
          "short_name": "\u5357\u4eac\u8857",
          "types": [
            "route"
          ]
        },
        {
          "long_name": "\u4f50\u6566",
          "short_name": "\u4f50\u6566",
          "types": [
            "neighborhood",
            "political"
          ]
        },
        {
          "long_name": "\u4e5d\u9f8d",
          "short_name": "\u4e5d\u9f8d",
          "types": [
            "administrative_area_level_1",
            "political"
          ]
        },
        {
          "long_name": "\u9999\u6e2f",
          "short_name": "HK",
          "types": [
            "country",
            "political"
          ]
        }
      ],
      "formatted_address": "\u9999\u6e2f\u4f50\u6566\u5357\u4eac\u885730\u865f",
      "geometry": {
        "location": {
          "lat": 22.306311,
          "lng": 114.1724804
        },
        "location_type": "ROOFTOP",
        "viewport": {
          "northeast": {
            "lat": 22.3076599802915,
            "lng": 114.1738293802915
          },
          "southwest": {
            "lat": 22.3049620197085,
            "lng": 114.1711314197085
          }
        }
      },
      "partial_match": true,
      "place_id": "ChIJxaQsMeoABDQR6lqlZCK9LNc",
      "plus_code": {
        "compound_code": "854C+GX \u9999\u6e2f",
        "global_code": "7PJP854C+GX"
      },
      "types": [
        "establishment",
        "lodging",
        "point_of_interest"
      ]
    },
    {
      "address_components": [
        {
          "long_name": "\u6a13\u90e8\u4efd \u5730",
          "short_name": "\u6a13\u90e8\u4efd \u5730",
          "types": [
            "subpremise"
          ]
        },
        {
          "long_name": "\u6717\u9038\u9152\u5e97",
          "short_name": "\u6717\u9038\u9152\u5e97",
          "types": [
            "premise"
          ]
        },
        {
          "long_name": "30",
          "short_name": "30",
          "types": [
            "street_number"
          ]
        },
        {
          "long_name": "\u5357\u4eac\u8857",
          "short_name": "\u5357\u4eac\u8857",
          "types": [
            "route"
          ]
        },
        {
          "long_name": "\u6cb9\u9ebb\u5730",
          "short_name": "\u6cb9\u9ebb\u5730",
          "types": [
            "neighborhood",
            "political"
          ]
        },
        {
          "long_name": "\u4e5d\u9f8d",
          "short_name": "\u4e5d\u9f8d",
          "types": [
            "administrative_area_level_1",
            "political"
          ]
        },
        {
          "long_name": "\u9999\u6e2f",
          "short_name": "HK",
          "types": [
            "country",
            "political"
          ]
        }
      ],
      "formatted_address": "\u9999\u6e2f\u6cb9\u9ebb\u5730\u5357\u4eac\u885730\u865f\u6717\u9038\u9152\u5e97\u6a13\u90e8\u4efd \u5730",
      "geometry": {
        "bounds": {
          "northeast": {
            "lat": 22.3063961,
            "lng": 114.172566
          },
          "southwest": {
            "lat": 22.3062419,
            "lng": 114.1723929
          }
        },
        "location": {
          "lat": 22.3063289,
          "lng": 114.1724765
        },
        "location_type": "ROOFTOP",
        "viewport": {
          "northeast": {
            "lat": 22.30766798029151,
            "lng": 114.1738284302915
          },
          "southwest": {
            "lat": 22.3049700197085,
            "lng": 114.1711304697085
          }
        }
      },
      "partial_match": true,
      "place_id": "EkHmqJPpg6jku70g5ZywLCBMYXJnb3MgSG90ZWwsIDMwIE5hbmtpbmcgU3QsIFlhdSBNYSBUZWksIEhvbmcgS29uZyIpGicKFgoUChIJV5s7N-oABDQRvh-svZLHLRASDeaok-mDqOS7vSDlnLA",
      "types": [
        "subpremise"
      ]
    },
    {
      "address_components": [
        {
          "long_name": "\u6717\u9038\u9152\u5e97",
          "short_name": "\u6717\u9038\u9152\u5e97",
          "types": [
            "premise"
          ]
        },
        {
          "long_name": "30",
          "short_name": "30",
          "types": [
            "street_number"
          ]
        },
        {
          "long_name": "\u5357\u4eac\u8857",
          "short_name": "\u5357\u4eac\u8857",
          "types": [
            "route"
          ]
        },
        {
          "long_name": "\u6cb9\u9ebb\u5730",
          "short_name": "\u6cb9\u9ebb\u5730",
          "types": [
            "neighborhood",
            "political"
          ]
        },
        {
          "long_name": "\u4e5d\u9f8d",
          "short_name": "\u4e5d\u9f8d",
          "types": [
            "administrative_area_level_1",
            "political"
          ]
        },
        {
          "long_name": "\u9999\u6e2f",
          "short_name": "HK",
          "types": [
            "country",
            "political"
          ]
        }
      ],
      "formatted_address": "\u9999\u6e2f\u6cb9\u9ebb\u5730\u5357\u4eac\u885730\u865f\u6717\u9038\u9152\u5e97",
      "geometry": {
        "bounds": {
          "northeast": {
            "lat": 22.3063961,
            "lng": 114.172566
          },
          "southwest": {
            "lat": 22.3062419,
            "lng": 114.1723929
          }
        },
        "location": {
          "lat": 22.3063289,
          "lng": 114.1724765
        },
        "location_type": "ROOFTOP",
        "viewport": {
          "northeast": {
            "lat": 22.30766798029151,
            "lng": 114.1738284302915
          },
          "southwest": {
            "lat": 22.3049700197085,
            "lng": 114.1711304697085
          }
        }
      },
      "partial_match": true,
      "place_id": "ChIJV5s7N-oABDQRvh-svZLHLRA",
      "types": [
        "premise"
      ]
    }
  ],
  "licno": "3161204623",
  "timestamp": 1564975666,
  "version": "1564966095"
}
