{
  "adr_en": "\u65b0\u862d\u82b3, DD 76, 1836B, LING TSUI VILLAGE, MA MEI HA, FANLING, NEW TERRITORIES",
  "adr_tc": "\u65b0\u754c\u7c89\u5dba \u99ac\u5c3e\u4e0b\u5dba\u5480\u6751\u7b2c76\u865f\u7d04 \u7b2c1836B\u865f\u5730\u6bb5 \u65b0\u862d\u82b3",
  "geocode_en": [
    {
      "address_components": [
        {
          "long_name": "2\u865f",
          "short_name": "2\u865f",
          "types": [
            "street_number"
          ]
        },
        {
          "long_name": "\u6c99\u982d\u89d2\u516c\u8def\u99ac\u5c3e\u4e0b\u6bb576\u6bb5",
          "short_name": "\u6c99\u982d\u89d2\u516c\u8def\u99ac\u5c3e\u4e0b\u6bb576\u6bb5",
          "types": [
            "route"
          ]
        },
        {
          "long_name": "\u7c89\u5dba",
          "short_name": "\u7c89\u5dba",
          "types": [
            "neighborhood",
            "political"
          ]
        },
        {
          "long_name": "\u65b0\u754c",
          "short_name": "\u65b0\u754c",
          "types": [
            "administrative_area_level_1",
            "political"
          ]
        },
        {
          "long_name": "Hong Kong",
          "short_name": "HK",
          "types": [
            "country",
            "political"
          ]
        }
      ],
      "formatted_address": "Hong Kong, \u7c89\u5dba\u6c99\u982d\u89d2\u516c\u8def\u99ac\u5c3e\u4e0b\u6bb576\u6bb52\u865f",
      "geometry": {
        "location": {
          "lat": 22.5173836,
          "lng": 114.1733182
        },
        "location_type": "ROOFTOP",
        "viewport": {
          "northeast": {
            "lat": 22.5187325802915,
            "lng": 114.1746671802915
          },
          "southwest": {
            "lat": 22.5160346197085,
            "lng": 114.1719692197085
          }
        }
      },
      "partial_match": true,
      "place_id": "ChIJFTDoxyMKBDQRSYaCITWaCz0",
      "plus_code": {
        "compound_code": "G58F+X8 Hong Kong",
        "global_code": "7PJPG58F+X8"
      },
      "types": [
        "establishment",
        "food",
        "point_of_interest",
        "restaurant"
      ]
    },
    {
      "address_components": [
        {
          "long_name": "Shan Tsui Village Road",
          "short_name": "Shan Tsui Village Rd",
          "types": [
            "route"
          ]
        },
        {
          "long_name": "Sha Tau Kok",
          "short_name": "Sha Tau Kok",
          "types": [
            "neighborhood",
            "political"
          ]
        },
        {
          "long_name": "New Territories",
          "short_name": "New Territories",
          "types": [
            "administrative_area_level_1",
            "political"
          ]
        },
        {
          "long_name": "Hong Kong",
          "short_name": "HK",
          "types": [
            "country",
            "political"
          ]
        }
      ],
      "formatted_address": "Shan Tsui Village Rd, Sha Tau Kok, Hong Kong",
      "geometry": {
        "bounds": {
          "northeast": {
            "lat": 22.550787,
            "lng": 114.2223552
          },
          "southwest": {
            "lat": 22.5453857,
            "lng": 114.2197313
          }
        },
        "location": {
          "lat": 22.5476881,
          "lng": 114.2206557
        },
        "location_type": "GEOMETRIC_CENTER",
        "viewport": {
          "northeast": {
            "lat": 22.550787,
            "lng": 114.2223922302915
          },
          "southwest": {
            "lat": 22.5453857,
            "lng": 114.2196942697085
          }
        }
      },
      "partial_match": true,
      "place_id": "ChIJvZNU33ULBDQRz60p8U0FYok",
      "types": [
        "route"
      ]
    },
    {
      "address_components": [
        {
          "long_name": "Ma Mei Ha",
          "short_name": "Ma Mei Ha",
          "types": [
            "establishment",
            "point_of_interest",
            "transit_station"
          ]
        },
        {
          "long_name": "Ping Che",
          "short_name": "Ping Che",
          "types": [
            "neighborhood",
            "political"
          ]
        },
        {
          "long_name": "New Territories",
          "short_name": "New Territories",
          "types": [
            "administrative_area_level_1",
            "political"
          ]
        },
        {
          "long_name": "Hong Kong",
          "short_name": "HK",
          "types": [
            "country",
            "political"
          ]
        }
      ],
      "formatted_address": "Ma Mei Ha, Ping Che, Hong Kong",
      "geometry": {
        "location": {
          "lat": 22.516962,
          "lng": 114.172522
        },
        "location_type": "GEOMETRIC_CENTER",
        "viewport": {
          "northeast": {
            "lat": 22.5183109802915,
            "lng": 114.1738709802915
          },
          "southwest": {
            "lat": 22.5156130197085,
            "lng": 114.1711730197085
          }
        }
      },
      "partial_match": true,
      "place_id": "ChIJb07qkCMKBDQR81oOHG5JhE4",
      "plus_code": {
        "compound_code": "G58F+Q2 Hong Kong",
        "global_code": "7PJPG58F+Q2"
      },
      "types": [
        "establishment",
        "point_of_interest",
        "transit_station"
      ]
    },
    {
      "address_components": [
        {
          "long_name": "Fanling",
          "short_name": "Fanling",
          "types": [
            "neighborhood",
            "political"
          ]
        },
        {
          "long_name": "New Territories",
          "short_name": "New Territories",
          "types": [
            "administrative_area_level_1",
            "political"
          ]
        },
        {
          "long_name": "Hong Kong",
          "short_name": "HK",
          "types": [
            "country",
            "political"
          ]
        }
      ],
      "formatted_address": "Fanling, Hong Kong",
      "geometry": {
        "location": {
          "lat": 22.4916829,
          "lng": 114.1414685
        },
        "location_type": "APPROXIMATE",
        "viewport": {
          "northeast": {
            "lat": 22.5019918,
            "lng": 114.1574759
          },
          "southwest": {
            "lat": 22.4813733,
            "lng": 114.1254611
          }
        }
      },
      "partial_match": true,
      "place_id": "ChIJ-YoyKSD2AzQRhyz7hWsV8Lc",
      "types": [
        "neighborhood",
        "political"
      ]
    }
  ],
  "geocode_tc": [
    {
      "address_components": [
        {
          "long_name": "2\u865f",
          "short_name": "2\u865f",
          "types": [
            "street_number"
          ]
        },
        {
          "long_name": "\u6c99\u982d\u89d2\u516c\u8def\u99ac\u5c3e\u4e0b\u6bb576\u6bb5",
          "short_name": "\u6c99\u982d\u89d2\u516c\u8def\u99ac\u5c3e\u4e0b\u6bb576\u6bb5",
          "types": [
            "route"
          ]
        },
        {
          "long_name": "\u7c89\u5dba",
          "short_name": "\u7c89\u5dba",
          "types": [
            "neighborhood",
            "political"
          ]
        },
        {
          "long_name": "\u65b0\u754c",
          "short_name": "\u65b0\u754c",
          "types": [
            "administrative_area_level_1",
            "political"
          ]
        },
        {
          "long_name": "\u9999\u6e2f",
          "short_name": "HK",
          "types": [
            "country",
            "political"
          ]
        }
      ],
      "formatted_address": "\u9999\u6e2f\u7c89\u5dba\u6c99\u982d\u89d2\u516c\u8def\u99ac\u5c3e\u4e0b\u6bb576\u6bb52\u865f",
      "geometry": {
        "location": {
          "lat": 22.5173836,
          "lng": 114.1733182
        },
        "location_type": "ROOFTOP",
        "viewport": {
          "northeast": {
            "lat": 22.5187325802915,
            "lng": 114.1746671802915
          },
          "southwest": {
            "lat": 22.5160346197085,
            "lng": 114.1719692197085
          }
        }
      },
      "place_id": "ChIJFTDoxyMKBDQRSYaCITWaCz0",
      "plus_code": {
        "compound_code": "G58F+X8 \u9999\u6e2f",
        "global_code": "7PJPG58F+X8"
      },
      "types": [
        "establishment",
        "food",
        "point_of_interest",
        "restaurant"
      ]
    }
  ],
  "licno": "2296002050",
  "timestamp": 1564975666,
  "version": "1564966095"
}
