{
  "adr_en": "\u540d\u5eda, SHOP NO. 3, LG/F, HUNG FAI HOUSE, HUNG HOM ESTATE, KOWLOON CITY, KOWLOON",
  "adr_tc": "\u4e5d\u9f8d\u7d05\u78e1\u90a8\u7d05\u6689\u6a13\u5730\u4e0b\u4f4e\u5c643\u865f\u8216 \u540d\u5eda",
  "geocode_en": [
    {
      "address_components": [
        {
          "long_name": "Hong Kong",
          "short_name": "HK",
          "types": [
            "country",
            "political"
          ]
        }
      ],
      "formatted_address": "Hong Kong, \u7d05\u78e1\u7063\u4e2d\u5fc313\u865f\u5730\u4e0b",
      "geometry": {
        "location": {
          "lat": 22.305617,
          "lng": 114.186055
        },
        "location_type": "GEOMETRIC_CENTER",
        "viewport": {
          "northeast": {
            "lat": 22.3069659802915,
            "lng": 114.1874039802915
          },
          "southwest": {
            "lat": 22.3042680197085,
            "lng": 114.1847060197085
          }
        }
      },
      "partial_match": true,
      "place_id": "ChIJkfaLtOAABDQRImK8K9Y67mU",
      "plus_code": {
        "compound_code": "854P+6C Hong Kong",
        "global_code": "7PJP854P+6C"
      },
      "types": [
        "establishment",
        "food",
        "point_of_interest",
        "restaurant"
      ]
    },
    {
      "address_components": [
        {
          "long_name": "Tai Wan Road",
          "short_name": "Tai Wan Rd",
          "types": [
            "route"
          ]
        },
        {
          "long_name": "Tai Wan",
          "short_name": "Tai Wan",
          "types": [
            "neighborhood",
            "political"
          ]
        },
        {
          "long_name": "Kowloon",
          "short_name": "Kowloon",
          "types": [
            "administrative_area_level_1",
            "political"
          ]
        },
        {
          "long_name": "Hong Kong",
          "short_name": "HK",
          "types": [
            "country",
            "political"
          ]
        }
      ],
      "formatted_address": "Tai Wan Rd, Tai Wan, Hong Kong",
      "geometry": {
        "location": {
          "lat": 22.307725,
          "lng": 114.188836
        },
        "location_type": "GEOMETRIC_CENTER",
        "viewport": {
          "northeast": {
            "lat": 22.3090739802915,
            "lng": 114.1901849802915
          },
          "southwest": {
            "lat": 22.30637601970849,
            "lng": 114.1874870197085
          }
        }
      },
      "partial_match": true,
      "place_id": "ChIJuQLxs98ABDQRlICLOt70CJk",
      "plus_code": {
        "compound_code": "855Q+3G Hong Kong",
        "global_code": "7PJP855Q+3G"
      },
      "types": [
        "establishment",
        "point_of_interest"
      ]
    }
  ],
  "geocode_tc": [
    {
      "address_components": [
        {
          "long_name": "\u5927\u74b0\u9053",
          "short_name": "\u5927\u74b0\u9053",
          "types": [
            "route"
          ]
        },
        {
          "long_name": "\u5927\u74b0",
          "short_name": "\u5927\u74b0",
          "types": [
            "neighborhood",
            "political"
          ]
        },
        {
          "long_name": "\u4e5d\u9f8d",
          "short_name": "\u4e5d\u9f8d",
          "types": [
            "administrative_area_level_1",
            "political"
          ]
        },
        {
          "long_name": "\u9999\u6e2f",
          "short_name": "HK",
          "types": [
            "country",
            "political"
          ]
        }
      ],
      "formatted_address": "\u9999\u6e2f\u5927\u74b0\u5927\u74b0\u9053",
      "geometry": {
        "location": {
          "lat": 22.307725,
          "lng": 114.188836
        },
        "location_type": "GEOMETRIC_CENTER",
        "viewport": {
          "northeast": {
            "lat": 22.3090739802915,
            "lng": 114.1901849802915
          },
          "southwest": {
            "lat": 22.30637601970849,
            "lng": 114.1874870197085
          }
        }
      },
      "partial_match": true,
      "place_id": "ChIJuQLxs98ABDQRlICLOt70CJk",
      "plus_code": {
        "compound_code": "855Q+3G \u9999\u6e2f",
        "global_code": "7PJP855Q+3G"
      },
      "types": [
        "establishment",
        "point_of_interest"
      ]
    },
    {
      "address_components": [
        {
          "long_name": "\u5927\u74b0\u9053",
          "short_name": "\u5927\u74b0\u9053",
          "types": [
            "route"
          ]
        },
        {
          "long_name": "\u7d05\u78e1",
          "short_name": "\u7d05\u78e1",
          "types": [
            "neighborhood",
            "political"
          ]
        },
        {
          "long_name": "\u4e5d\u9f8d",
          "short_name": "\u4e5d\u9f8d",
          "types": [
            "administrative_area_level_1",
            "political"
          ]
        },
        {
          "long_name": "\u9999\u6e2f",
          "short_name": "HK",
          "types": [
            "country",
            "political"
          ]
        }
      ],
      "formatted_address": "\u9999\u6e2f\u7d05\u78e1\u5927\u74b0\u9053",
      "geometry": {
        "location": {
          "lat": 22.3086271,
          "lng": 114.189725
        },
        "location_type": "GEOMETRIC_CENTER",
        "viewport": {
          "northeast": {
            "lat": 22.3099760802915,
            "lng": 114.1910739802915
          },
          "southwest": {
            "lat": 22.3072781197085,
            "lng": 114.1883760197085
          }
        }
      },
      "partial_match": true,
      "place_id": "ChIJ4eEWuN8ABDQRC8-08Nyy5WU",
      "plus_code": {
        "compound_code": "855Q+FV \u9999\u6e2f",
        "global_code": "7PJP855Q+FV"
      },
      "types": [
        "establishment",
        "point_of_interest"
      ]
    }
  ],
  "licno": "2252240694",
  "timestamp": 1564968756,
  "version": "1564966095"
}
