{
  "adr_en": "\u6cf0\u5beb\u610f, SHOP NO.  28, 2/F, SHOPPING CENTRE, KWAI SHING WEST ESTATE, KWAI CHUNG, NEW TERRITORIES",
  "adr_tc": "\u65b0\u754c\u8475\u6d8c\u8475\u76db\u897f\u90a8\u5546\u5834\u4e09\u6a13\u7b2c28\u865f\u8216 \u6cf0\u5beb\u610f",
  "geocode_en": [
    {
      "address_components": [
        {
          "long_name": "100",
          "short_name": "100",
          "types": [
            "street_number"
          ]
        },
        {
          "long_name": "Kwai Luen Road",
          "short_name": "Kwai Luen Rd",
          "types": [
            "route"
          ]
        },
        {
          "long_name": "Hong Kong",
          "short_name": "HK",
          "types": [
            "country",
            "political"
          ]
        }
      ],
      "formatted_address": "\u865f, 100 Kwai Luen Rd, Hong Kong",
      "geometry": {
        "location": {
          "lat": 22.3607139,
          "lng": 114.1225933
        },
        "location_type": "ROOFTOP",
        "viewport": {
          "northeast": {
            "lat": 22.3620628802915,
            "lng": 114.1239422802915
          },
          "southwest": {
            "lat": 22.3593649197085,
            "lng": 114.1212443197085
          }
        }
      },
      "partial_match": true,
      "place_id": "ChIJgdbrf5X4AzQRPh0fZgCgR1Q",
      "plus_code": {
        "compound_code": "946F+72 Hong Kong",
        "global_code": "7PJP946F+72"
      },
      "types": [
        "establishment",
        "food",
        "point_of_interest",
        "restaurant"
      ]
    },
    {
      "address_components": [
        {
          "long_name": "Kwai Shing Circuit",
          "short_name": "Kwai Shing Circuit",
          "types": [
            "route"
          ]
        },
        {
          "long_name": "Kwai Chung",
          "short_name": "Kwai Chung",
          "types": [
            "neighborhood",
            "political"
          ]
        },
        {
          "long_name": "New Territories",
          "short_name": "New Territories",
          "types": [
            "administrative_area_level_1",
            "political"
          ]
        },
        {
          "long_name": "Hong Kong",
          "short_name": "HK",
          "types": [
            "country",
            "political"
          ]
        }
      ],
      "formatted_address": "Kwai Shing Circuit, Kwai Chung, Hong Kong",
      "geometry": {
        "location": {
          "lat": 22.362803,
          "lng": 114.123682
        },
        "location_type": "GEOMETRIC_CENTER",
        "viewport": {
          "northeast": {
            "lat": 22.3641519802915,
            "lng": 114.1250309802915
          },
          "southwest": {
            "lat": 22.3614540197085,
            "lng": 114.1223330197085
          }
        }
      },
      "partial_match": true,
      "place_id": "ChIJoXCqpZX4AzQR2XYmB6eRBvc",
      "plus_code": {
        "compound_code": "947F+4F Hong Kong",
        "global_code": "7PJP947F+4F"
      },
      "types": [
        "establishment",
        "point_of_interest"
      ]
    }
  ],
  "geocode_tc": [
    {
      "address_components": [
        {
          "long_name": "100",
          "short_name": "100",
          "types": [
            "street_number"
          ]
        },
        {
          "long_name": "Kwai Luen Road",
          "short_name": "Kwai Luen Rd",
          "types": [
            "route"
          ]
        },
        {
          "long_name": "\u9999\u6e2f",
          "short_name": "HK",
          "types": [
            "country",
            "political"
          ]
        }
      ],
      "formatted_address": "\u865f, 100 Kwai Luen Rd, \u9999\u6e2f",
      "geometry": {
        "location": {
          "lat": 22.3607139,
          "lng": 114.1225933
        },
        "location_type": "ROOFTOP",
        "viewport": {
          "northeast": {
            "lat": 22.3620628802915,
            "lng": 114.1239422802915
          },
          "southwest": {
            "lat": 22.3593649197085,
            "lng": 114.1212443197085
          }
        }
      },
      "place_id": "ChIJgdbrf5X4AzQRPh0fZgCgR1Q",
      "plus_code": {
        "compound_code": "946F+72 \u9999\u6e2f",
        "global_code": "7PJP946F+72"
      },
      "types": [
        "establishment",
        "food",
        "point_of_interest",
        "restaurant"
      ]
    }
  ],
  "licno": "2291801887",
  "timestamp": 1564968756,
  "version": "1564966095"
}
