{
  "adr_en": "Happy Kitchen, G/F, MO KWAN HOUSE, 438 PORTLAND STREET, MONG KOK, KOWLOON",
  "adr_tc": "\u4e5d\u9f8d\u65fa\u89d2\u7835\u862d\u8857438\u865f\u6155\u7fa4\u6a13\u5730\u4e0b \u958b\u5fc3\u5c0f\u5eda",
  "geocode_en": [
    {
      "address_components": [
        {
          "long_name": "Mo Kwan House",
          "short_name": "Mo Kwan House",
          "types": [
            "premise"
          ]
        },
        {
          "long_name": "438-440",
          "short_name": "438-440",
          "types": [
            "street_number"
          ]
        },
        {
          "long_name": "Portland Street",
          "short_name": "Portland St",
          "types": [
            "route"
          ]
        },
        {
          "long_name": "Prince Edward",
          "short_name": "Prince Edward",
          "types": [
            "neighborhood",
            "political"
          ]
        },
        {
          "long_name": "Kowloon",
          "short_name": "Kowloon",
          "types": [
            "administrative_area_level_1",
            "political"
          ]
        },
        {
          "long_name": "Hong Kong",
          "short_name": "HK",
          "types": [
            "country",
            "political"
          ]
        }
      ],
      "formatted_address": "Mo Kwan House, 438-440 Portland St, Prince Edward, Hong Kong",
      "geometry": {
        "bounds": {
          "northeast": {
            "lat": 22.3260181,
            "lng": 114.1676311
          },
          "southwest": {
            "lat": 22.325894,
            "lng": 114.1674469
          }
        },
        "location": {
          "lat": 22.3259469,
          "lng": 114.1675069
        },
        "location_type": "ROOFTOP",
        "viewport": {
          "northeast": {
            "lat": 22.3273050302915,
            "lng": 114.1688879802915
          },
          "southwest": {
            "lat": 22.3246070697085,
            "lng": 114.1661900197085
          }
        }
      },
      "partial_match": true,
      "place_id": "ChIJcbBfALYABDQRYmFz7eaPA1Q",
      "types": [
        "premise"
      ]
    }
  ],
  "geocode_tc": [
    {
      "address_components": [
        {
          "long_name": "438",
          "short_name": "438",
          "types": [
            "street_number"
          ]
        },
        {
          "long_name": "\u7835\u862d\u8857",
          "short_name": "\u7835\u862d\u8857",
          "types": [
            "route"
          ]
        },
        {
          "long_name": "\u592a\u5b50",
          "short_name": "\u592a\u5b50",
          "types": [
            "neighborhood",
            "political"
          ]
        },
        {
          "long_name": "\u4e5d\u9f8d",
          "short_name": "\u4e5d\u9f8d",
          "types": [
            "administrative_area_level_1",
            "political"
          ]
        },
        {
          "long_name": "\u9999\u6e2f",
          "short_name": "HK",
          "types": [
            "country",
            "political"
          ]
        }
      ],
      "formatted_address": "\u9999\u6e2f\u592a\u5b50\u7835\u862d\u8857438\u865f",
      "geometry": {
        "location": {
          "lat": 22.325961,
          "lng": 114.167537
        },
        "location_type": "ROOFTOP",
        "viewport": {
          "northeast": {
            "lat": 22.3273099802915,
            "lng": 114.1688859802915
          },
          "southwest": {
            "lat": 22.3246120197085,
            "lng": 114.1661880197085
          }
        }
      },
      "place_id": "ChIJLbydqw8BBDQRlID4S0HHMRk",
      "plus_code": {
        "compound_code": "85G9+92 \u9999\u6e2f",
        "global_code": "7PJP85G9+92"
      },
      "types": [
        "establishment",
        "food",
        "point_of_interest",
        "restaurant"
      ]
    }
  ],
  "licno": "2262808585",
  "timestamp": 1564968756,
  "version": "1564966095"
}
