{
  "adr_en": "Amuse, G/F, 417 CASTLE PEAK ROAD, TSUEN WAN, NEW TERRITORIES",
  "adr_tc": "\u65b0\u754c\u8343\u7063\u9752\u5c71\u9053417\u865f\u5730\u4e0b Amuse",
  "geocode_en": [
    {
      "address_components": [
        {
          "long_name": "Hong Kong",
          "short_name": "HK",
          "types": [
            "country",
            "political"
          ]
        }
      ],
      "formatted_address": "Hong Kong, \u8343\u7063 \u9752\u5c71\u516c\u8def 417 \u865f\u5730\u4e0b",
      "geometry": {
        "location": {
          "lat": 22.3748588,
          "lng": 114.1123733
        },
        "location_type": "GEOMETRIC_CENTER",
        "viewport": {
          "northeast": {
            "lat": 22.3762077802915,
            "lng": 114.1137222802915
          },
          "southwest": {
            "lat": 22.3735098197085,
            "lng": 114.1110243197085
          }
        }
      },
      "partial_match": true,
      "place_id": "ChIJad9EwfH4AzQR0Vf4V7kSk88",
      "plus_code": {
        "compound_code": "94F6+WW Hong Kong",
        "global_code": "7PJP94F6+WW"
      },
      "types": [
        "bar",
        "establishment",
        "point_of_interest"
      ]
    },
    {
      "address_components": [
        {
          "long_name": "G",
          "short_name": "G",
          "types": [
            "subpremise"
          ]
        },
        {
          "long_name": "417",
          "short_name": "417",
          "types": [
            "street_number"
          ]
        },
        {
          "long_name": "Castle Peak Road (Tsuen Wan)",
          "short_name": "Castle Peak Rd (Tsuen Wan)",
          "types": [
            "route"
          ]
        },
        {
          "long_name": "Tsuen Wan",
          "short_name": "Tsuen Wan",
          "types": [
            "neighborhood",
            "political"
          ]
        },
        {
          "long_name": "New Territories",
          "short_name": "New Territories",
          "types": [
            "administrative_area_level_1",
            "political"
          ]
        },
        {
          "long_name": "Hong Kong",
          "short_name": "HK",
          "types": [
            "country",
            "political"
          ]
        }
      ],
      "formatted_address": "G, 417 Castle Peak Rd (Tsuen Wan), Tsuen Wan, Hong Kong",
      "geometry": {
        "location": {
          "lat": 22.3747959,
          "lng": 114.1124127
        },
        "location_type": "RANGE_INTERPOLATED",
        "viewport": {
          "northeast": {
            "lat": 22.3761448802915,
            "lng": 114.1137616802915
          },
          "southwest": {
            "lat": 22.3734469197085,
            "lng": 114.1110637197085
          }
        }
      },
      "partial_match": true,
      "place_id": "EjdHLCA0MTcgQ2FzdGxlIFBlYWsgUmQgKFRzdWVuIFdhbiksIFRzdWVuIFdhbiwgSG9uZyBLb25nIiIaIAobEhkKFAoSCYHLK8Lx-AM0EbFVv_SWd6esEKEDEgFH",
      "types": [
        "subpremise"
      ]
    },
    {
      "address_components": [
        {
          "long_name": "F",
          "short_name": "F",
          "types": [
            "subpremise"
          ]
        },
        {
          "long_name": "417",
          "short_name": "417",
          "types": [
            "street_number"
          ]
        },
        {
          "long_name": "Castle Peak Road (Tsuen Wan)",
          "short_name": "Castle Peak Rd (Tsuen Wan)",
          "types": [
            "route"
          ]
        },
        {
          "long_name": "Tsuen Wan",
          "short_name": "Tsuen Wan",
          "types": [
            "neighborhood",
            "political"
          ]
        },
        {
          "long_name": "New Territories",
          "short_name": "New Territories",
          "types": [
            "administrative_area_level_1",
            "political"
          ]
        },
        {
          "long_name": "Hong Kong",
          "short_name": "HK",
          "types": [
            "country",
            "political"
          ]
        }
      ],
      "formatted_address": "F, 417 Castle Peak Rd (Tsuen Wan), Tsuen Wan, Hong Kong",
      "geometry": {
        "location": {
          "lat": 22.3747959,
          "lng": 114.1124127
        },
        "location_type": "RANGE_INTERPOLATED",
        "viewport": {
          "northeast": {
            "lat": 22.3761448802915,
            "lng": 114.1137616802915
          },
          "southwest": {
            "lat": 22.3734469197085,
            "lng": 114.1110637197085
          }
        }
      },
      "partial_match": true,
      "place_id": "EjdGLCA0MTcgQ2FzdGxlIFBlYWsgUmQgKFRzdWVuIFdhbiksIFRzdWVuIFdhbiwgSG9uZyBLb25nIiIaIAobEhkKFAoSCYHLK8Lx-AM0EbFVv_SWd6esEKEDEgFG",
      "types": [
        "subpremise"
      ]
    }
  ],
  "geocode_tc": [
    {
      "address_components": [
        {
          "long_name": "\u9999\u6e2f",
          "short_name": "HK",
          "types": [
            "country",
            "political"
          ]
        }
      ],
      "formatted_address": "\u9999\u6e2f\u8343\u7063 \u9752\u5c71\u516c\u8def 417 \u865f\u5730\u4e0b",
      "geometry": {
        "location": {
          "lat": 22.3748588,
          "lng": 114.1123733
        },
        "location_type": "GEOMETRIC_CENTER",
        "viewport": {
          "northeast": {
            "lat": 22.3762077802915,
            "lng": 114.1137222802915
          },
          "southwest": {
            "lat": 22.3735098197085,
            "lng": 114.1110243197085
          }
        }
      },
      "place_id": "ChIJad9EwfH4AzQR0Vf4V7kSk88",
      "plus_code": {
        "compound_code": "94F6+WW \u9999\u6e2f",
        "global_code": "7PJP94F6+WW"
      },
      "types": [
        "bar",
        "establishment",
        "point_of_interest"
      ]
    }
  ],
  "licno": "3192800728",
  "timestamp": 1564975666,
  "version": "1564966095"
}
