{
  "adr_en": "ARIMA RESTAURANT, SHOP NO. 401, 4/F., CITIC TOWER, 1 TIM MEI AVENUE, CENTRAL, HONG KONG",
  "adr_tc": "\u9999\u6e2f\u4e2d\u74b0\u6dfb\u7f8e\u90531\u865f\u4e2d\u4fe1\u5927\u5ec84\u6a13401\u865f\u8216 \u6709\u99ac\u65e5\u672c\u6599\u7406",
  "geocode_en": [
    {
      "address_components": [
        {
          "long_name": "4/F",
          "short_name": "4/F",
          "types": [
            "subpremise"
          ]
        },
        {
          "long_name": "Citic Tower",
          "short_name": "Citic Tower",
          "types": [
            "premise"
          ]
        },
        {
          "long_name": "1",
          "short_name": "1",
          "types": [
            "street_number"
          ]
        },
        {
          "long_name": "Tim Mei Avenue",
          "short_name": "Tim Mei Ave",
          "types": [
            "route"
          ]
        },
        {
          "long_name": "Admiralty",
          "short_name": "Admiralty",
          "types": [
            "neighborhood",
            "political"
          ]
        },
        {
          "long_name": "Island",
          "short_name": "Island",
          "types": [
            "administrative_area_level_1",
            "political"
          ]
        },
        {
          "long_name": "Hong Kong",
          "short_name": "HK",
          "types": [
            "country",
            "political"
          ]
        }
      ],
      "formatted_address": "4/F, Citic Tower, 1 Tim Mei Ave, Admiralty, Hong Kong",
      "geometry": {
        "location": {
          "lat": 22.280546,
          "lng": 114.1672
        },
        "location_type": "ROOFTOP",
        "viewport": {
          "northeast": {
            "lat": 22.2818949802915,
            "lng": 114.1685489802915
          },
          "southwest": {
            "lat": 22.27919701970849,
            "lng": 114.1658510197085
          }
        }
      },
      "place_id": "ChIJdeC_gmYABDQRKA_U-xaGicA",
      "plus_code": {
        "compound_code": "75J8+6V Admiralty, Hong Kong",
        "global_code": "7PJP75J8+6V"
      },
      "types": [
        "bar",
        "establishment",
        "food",
        "point_of_interest",
        "restaurant"
      ]
    },
    {
      "address_components": [
        {
          "long_name": "Hong Kong",
          "short_name": "HK",
          "types": [
            "country",
            "political"
          ]
        }
      ],
      "formatted_address": "Hong Kong, Admiralty \u6dfb\u7f8e\u90531\u865f\u4e2d\u4fe1\u5927\u5ec84\u6a13401\u865f\u8216",
      "geometry": {
        "location": {
          "lat": 22.280621,
          "lng": 114.167192
        },
        "location_type": "GEOMETRIC_CENTER",
        "viewport": {
          "northeast": {
            "lat": 22.2819699802915,
            "lng": 114.1685409802915
          },
          "southwest": {
            "lat": 22.2792720197085,
            "lng": 114.1658430197085
          }
        }
      },
      "place_id": "ChIJp4H2WmcABDQR-mvBMBoObB0",
      "plus_code": {
        "compound_code": "75J8+6V Hong Kong",
        "global_code": "7PJP75J8+6V"
      },
      "types": [
        "establishment",
        "food",
        "point_of_interest",
        "restaurant"
      ]
    }
  ],
  "geocode_tc": [
    {
      "address_components": [
        {
          "long_name": "\u9999\u6e2f",
          "short_name": "HK",
          "types": [
            "country",
            "political"
          ]
        }
      ],
      "formatted_address": "\u9999\u6e2f\u91d1\u9418 \u6dfb\u7f8e\u90531\u865f\u4e2d\u4fe1\u5927\u5ec84\u6a13401\u865f\u8216",
      "geometry": {
        "location": {
          "lat": 22.2806951,
          "lng": 114.1670657
        },
        "location_type": "GEOMETRIC_CENTER",
        "viewport": {
          "northeast": {
            "lat": 22.2820440802915,
            "lng": 114.1684146802915
          },
          "southwest": {
            "lat": 22.2793461197085,
            "lng": 114.1657167197085
          }
        }
      },
      "place_id": "ChIJp4H2WmcABDQRkDoGjC9F-Bg",
      "plus_code": {
        "compound_code": "75J8+7R \u9999\u6e2f",
        "global_code": "7PJP75J8+7R"
      },
      "types": [
        "establishment",
        "food",
        "point_of_interest",
        "restaurant"
      ]
    }
  ],
  "licno": "2218806638",
  "timestamp": 1564968756,
  "version": "1564966095"
}
