{
  "adr_en": "Cheers Bakery, SHOP E, G/F LOBBY, MAIN BLOCK, TUEN MUN HOSPITAL, TSING CHUNG KOON ROAD, TUEN MUN, NEW TERRITORIES",
  "adr_tc": "\u65b0\u754c\u5c6f\u9580\u9752\u677e\u89c0\u8def\u5c6f\u9580\u91ab\u9662\u4e3b\u5ea7\u5730\u4e0b\u5927\u5802E\u92ea \u559c\u9ede",
  "geocode_en": [
    {
      "address_components": [
        {
          "long_name": "Hong Kong",
          "short_name": "HK",
          "types": [
            "country",
            "political"
          ]
        }
      ],
      "formatted_address": "Shop 6, G/F Lobby, Tuen Mun Hospital, Tsing Chung Koon Road, Tuen Mun, N.T., Hong Kong",
      "geometry": {
        "location": {
          "lat": 22.407312,
          "lng": 113.976094
        },
        "location_type": "GEOMETRIC_CENTER",
        "viewport": {
          "northeast": {
            "lat": 22.4086609802915,
            "lng": 113.9774429802915
          },
          "southwest": {
            "lat": 22.40596301970849,
            "lng": 113.9747450197085
          }
        }
      },
      "place_id": "ChIJHbz67N_6AzQRsvVW5qZT-GI",
      "plus_code": {
        "compound_code": "CX4G+WC Hong Kong",
        "global_code": "7PJMCX4G+WC"
      },
      "types": [
        "establishment",
        "point_of_interest"
      ]
    }
  ],
  "geocode_tc": [
    {
      "address_components": [
        {
          "long_name": "\u9999\u6e2f",
          "short_name": "HK",
          "types": [
            "country",
            "political"
          ]
        }
      ],
      "formatted_address": "\u9999\u6e2f\u5c6f\u9580\u5c6f\u9580\u91ab\u9662\u5730\u4e0b",
      "geometry": {
        "location": {
          "lat": 22.4080556,
          "lng": 113.9761111
        },
        "location_type": "GEOMETRIC_CENTER",
        "viewport": {
          "northeast": {
            "lat": 22.4094045802915,
            "lng": 113.9774600802915
          },
          "southwest": {
            "lat": 22.4067066197085,
            "lng": 113.9747621197085
          }
        }
      },
      "partial_match": true,
      "place_id": "ChIJ7aU3wd_6AzQRJvbzWj5-qxY",
      "plus_code": {
        "compound_code": "CX5G+6C \u9999\u6e2f",
        "global_code": "7PJMCX5G+6C"
      },
      "types": [
        "bakery",
        "establishment",
        "food",
        "point_of_interest",
        "store"
      ]
    }
  ],
  "licno": "3193800682",
  "timestamp": 1564975666,
  "version": "1564966095"
}
