{
  "adr_en": "\u4e82\u7092\u4e00\u901a, SHOP B, B1, G/F, 503-511 CASTLE PEAK ROAD, KWAI CHUNG, NEW TERRITORIES",
  "adr_tc": "\u65b0\u754c\u8475\u6d8c\u9752\u5c71\u516c\u8def503-511\u865f \u5730\u4e0bB1,B\u865f\u92ea \u4e82\u7092\u4e00\u901a",
  "geocode_en": [
    {
      "address_components": [
        {
          "long_name": "Hong Kong",
          "short_name": "HK",
          "types": [
            "country",
            "political"
          ]
        }
      ],
      "formatted_address": "Hong Kong, \u8475\u6d8c\u9752\u5c71\u516c\u8def499\u865f\u5730\u4e0b",
      "geometry": {
        "location": {
          "lat": 22.3686868,
          "lng": 114.1334247
        },
        "location_type": "GEOMETRIC_CENTER",
        "viewport": {
          "northeast": {
            "lat": 22.3700357802915,
            "lng": 114.1347736802915
          },
          "southwest": {
            "lat": 22.3673378197085,
            "lng": 114.1320757197085
          }
        }
      },
      "partial_match": true,
      "place_id": "ChIJ7TtRYpr4AzQRGSIZhTgpThY",
      "plus_code": {
        "compound_code": "949M+F9 Hong Kong",
        "global_code": "7PJP949M+F9"
      },
      "types": [
        "establishment",
        "food",
        "point_of_interest",
        "restaurant"
      ]
    },
    {
      "address_components": [
        {
          "long_name": "G",
          "short_name": "G",
          "types": [
            "subpremise"
          ]
        },
        {
          "long_name": "503",
          "short_name": "503",
          "types": [
            "street_number"
          ]
        },
        {
          "long_name": "Castle Peak Road",
          "short_name": "Castle Peak Rd",
          "types": [
            "route"
          ]
        },
        {
          "long_name": "Kwai Chung",
          "short_name": "Kwai Chung",
          "types": [
            "neighborhood",
            "political"
          ]
        },
        {
          "long_name": "New Territories",
          "short_name": "New Territories",
          "types": [
            "administrative_area_level_1",
            "political"
          ]
        },
        {
          "long_name": "Hong Kong",
          "short_name": "HK",
          "types": [
            "country",
            "political"
          ]
        }
      ],
      "formatted_address": "G, 503 Castle Peak Rd, Kwai Chung, Hong Kong",
      "geometry": {
        "location": {
          "lat": 22.368679,
          "lng": 114.133572
        },
        "location_type": "ROOFTOP",
        "viewport": {
          "northeast": {
            "lat": 22.3700279802915,
            "lng": 114.1349209802915
          },
          "southwest": {
            "lat": 22.3673300197085,
            "lng": 114.1322230197085
          }
        }
      },
      "partial_match": true,
      "place_id": "EixHLCA1MDMgQ2FzdGxlIFBlYWsgUmQsIEt3YWkgQ2h1bmcsIEhvbmcgS29uZyIdGhsKFgoUChIJwWew7Jr4AzQRNw10CjOKQv8SAUc",
      "types": [
        "subpremise"
      ]
    },
    {
      "address_components": [
        {
          "long_name": "F",
          "short_name": "F",
          "types": [
            "subpremise"
          ]
        },
        {
          "long_name": "503",
          "short_name": "503",
          "types": [
            "street_number"
          ]
        },
        {
          "long_name": "Castle Peak Road",
          "short_name": "Castle Peak Rd",
          "types": [
            "route"
          ]
        },
        {
          "long_name": "Kwai Chung",
          "short_name": "Kwai Chung",
          "types": [
            "neighborhood",
            "political"
          ]
        },
        {
          "long_name": "New Territories",
          "short_name": "New Territories",
          "types": [
            "administrative_area_level_1",
            "political"
          ]
        },
        {
          "long_name": "Hong Kong",
          "short_name": "HK",
          "types": [
            "country",
            "political"
          ]
        }
      ],
      "formatted_address": "F, 503 Castle Peak Rd, Kwai Chung, Hong Kong",
      "geometry": {
        "location": {
          "lat": 22.368679,
          "lng": 114.133572
        },
        "location_type": "ROOFTOP",
        "viewport": {
          "northeast": {
            "lat": 22.3700279802915,
            "lng": 114.1349209802915
          },
          "southwest": {
            "lat": 22.3673300197085,
            "lng": 114.1322230197085
          }
        }
      },
      "partial_match": true,
      "place_id": "EixGLCA1MDMgQ2FzdGxlIFBlYWsgUmQsIEt3YWkgQ2h1bmcsIEhvbmcgS29uZyIdGhsKFgoUChIJwWew7Jr4AzQRNw10CjOKQv8SAUY",
      "types": [
        "subpremise"
      ]
    }
  ],
  "geocode_tc": [
    {
      "address_components": [
        {
          "long_name": "\u9999\u6e2f",
          "short_name": "HK",
          "types": [
            "country",
            "political"
          ]
        }
      ],
      "formatted_address": "\u9999\u6e2f\u8475\u6d8c\u9752\u5c71\u516c\u8def499\u865f\u5730\u4e0b",
      "geometry": {
        "location": {
          "lat": 22.3686868,
          "lng": 114.1334247
        },
        "location_type": "GEOMETRIC_CENTER",
        "viewport": {
          "northeast": {
            "lat": 22.3700357802915,
            "lng": 114.1347736802915
          },
          "southwest": {
            "lat": 22.3673378197085,
            "lng": 114.1320757197085
          }
        }
      },
      "place_id": "ChIJ7TtRYpr4AzQRGSIZhTgpThY",
      "plus_code": {
        "compound_code": "949M+F9 \u9999\u6e2f",
        "global_code": "7PJP949M+F9"
      },
      "types": [
        "establishment",
        "food",
        "point_of_interest",
        "restaurant"
      ]
    }
  ],
  "licno": "2291800671",
  "timestamp": 1564968756,
  "version": "1564966095"
}
