{
  "adr_en": "\u65b0\u62f1\u7167\u8eca\u4ed4\u9eb5, SHOP E ON GROUND FLOOR, THOMPSON BUILDING, NOS. 93-103 THOMSON ROAD, HONG KONG",
  "adr_tc": "\u9999\u6e2f\u8b5a\u81e3\u905393-103\u865f \u8b5a\u81e3\u5927\u5ec8\u5730\u4e0bE\u8216 \u65b0\u62f1\u7167\u8eca\u4ed4\u9eb5",
  "geocode_en": [
    {
      "address_components": [
        {
          "long_name": "Thompson Building",
          "short_name": "Thompson Building",
          "types": [
            "premise"
          ]
        },
        {
          "long_name": "93-103",
          "short_name": "93-103",
          "types": [
            "street_number"
          ]
        },
        {
          "long_name": "Thomson Road",
          "short_name": "Thomson Rd",
          "types": [
            "route"
          ]
        },
        {
          "long_name": "Wan Chai",
          "short_name": "Wan Chai",
          "types": [
            "neighborhood",
            "political"
          ]
        },
        {
          "long_name": "Hong Kong Island",
          "short_name": "Hong Kong Island",
          "types": [
            "administrative_area_level_1",
            "political"
          ]
        },
        {
          "long_name": "Hong Kong",
          "short_name": "HK",
          "types": [
            "country",
            "political"
          ]
        }
      ],
      "formatted_address": "Thompson Building, 93-103 Thomson Rd, Wan Chai, Hong Kong",
      "geometry": {
        "bounds": {
          "northeast": {
            "lat": 22.277353,
            "lng": 114.173844
          },
          "southwest": {
            "lat": 22.277185,
            "lng": 114.1735649
          }
        },
        "location": {
          "lat": 22.2772769,
          "lng": 114.1736841
        },
        "location_type": "ROOFTOP",
        "viewport": {
          "northeast": {
            "lat": 22.2786179802915,
            "lng": 114.1750534302915
          },
          "southwest": {
            "lat": 22.27592001970849,
            "lng": 114.1723554697085
          }
        }
      },
      "partial_match": true,
      "place_id": "ChIJh0j7fVsABDQREhKQr_evLP8",
      "types": [
        "premise"
      ]
    }
  ],
  "geocode_tc": [
    {
      "address_components": [
        {
          "long_name": "\u8b5a\u81e3\u5927\u5ec8",
          "short_name": "\u8b5a\u81e3\u5927\u5ec8",
          "types": [
            "premise"
          ]
        },
        {
          "long_name": "93-103",
          "short_name": "93-103",
          "types": [
            "street_number"
          ]
        },
        {
          "long_name": "\u8b5a\u81e3\u9053",
          "short_name": "\u8b5a\u81e3\u9053",
          "types": [
            "route"
          ]
        },
        {
          "long_name": "\u7063\u4ed4",
          "short_name": "\u7063\u4ed4",
          "types": [
            "neighborhood",
            "political"
          ]
        },
        {
          "long_name": "\u9999\u6e2f\u5cf6",
          "short_name": "\u9999\u6e2f\u5cf6",
          "types": [
            "administrative_area_level_1",
            "political"
          ]
        },
        {
          "long_name": "\u9999\u6e2f",
          "short_name": "HK",
          "types": [
            "country",
            "political"
          ]
        }
      ],
      "formatted_address": "\u9999\u6e2f\u7063\u4ed4\u8b5a\u81e3\u905393-103\u865f\u8b5a\u81e3\u5927\u5ec8",
      "geometry": {
        "bounds": {
          "northeast": {
            "lat": 22.277353,
            "lng": 114.173844
          },
          "southwest": {
            "lat": 22.277185,
            "lng": 114.1735649
          }
        },
        "location": {
          "lat": 22.2772769,
          "lng": 114.1736841
        },
        "location_type": "ROOFTOP",
        "viewport": {
          "northeast": {
            "lat": 22.2786179802915,
            "lng": 114.1750534302915
          },
          "southwest": {
            "lat": 22.27592001970849,
            "lng": 114.1723554697085
          }
        }
      },
      "partial_match": true,
      "place_id": "ChIJh0j7fVsABDQREhKQr_evLP8",
      "types": [
        "premise"
      ]
    },
    {
      "address_components": [
        {
          "long_name": "\u9999\u6e2f",
          "short_name": "HK",
          "types": [
            "country",
            "political"
          ]
        }
      ],
      "formatted_address": "\u9999\u6e2f\u7063\u4ed4\u8b5a\u81e3\u9053101\u865f",
      "geometry": {
        "location": {
          "lat": 22.277159,
          "lng": 114.173871
        },
        "location_type": "GEOMETRIC_CENTER",
        "viewport": {
          "northeast": {
            "lat": 22.2785079802915,
            "lng": 114.1752199802915
          },
          "southwest": {
            "lat": 22.27581001970849,
            "lng": 114.1725220197085
          }
        }
      },
      "partial_match": true,
      "place_id": "ChIJ4atOfFsABDQRqxxVmgp3cac",
      "plus_code": {
        "compound_code": "75GF+VG \u9999\u6e2f",
        "global_code": "7PJP75GF+VG"
      },
      "types": [
        "establishment",
        "food",
        "point_of_interest",
        "restaurant"
      ]
    }
  ],
  "licno": "3112235603",
  "timestamp": 1564975666,
  "version": "1564966095"
}
