{
  "adr_en": "\u9999\u6e2f\u4ed4\u5357\u8a18\u7c89\u9eb5, SHOP G04, G/F,  METRO HARBOUR PLAZA, 8 FUK LEE STREET, TAI KOK TSUI, KOWLOON",
  "adr_tc": "\u4e5d\u9f8d\u5927\u89d2\u5480\u798f\u5229\u88578\u865f\u6e2f\u7063\u8c6a\u5ead\u5ee3\u5834\u5730\u4e0bG04\u8216 \u9999\u6e2f\u4ed4\u5357\u8a18\u7c89\u9eb5",
  "geocode_en": [
    {
      "address_components": [
        {
          "long_name": "8",
          "short_name": "8",
          "types": [
            "street_number"
          ]
        },
        {
          "long_name": "Fuk Lee Street",
          "short_name": "Fuk Lee St",
          "types": [
            "route"
          ]
        },
        {
          "long_name": "Tai Kok Tsui",
          "short_name": "Tai Kok Tsui",
          "types": [
            "neighborhood",
            "political"
          ]
        },
        {
          "long_name": "Kowloon",
          "short_name": "Kowloon",
          "types": [
            "administrative_area_level_1",
            "political"
          ]
        },
        {
          "long_name": "Hong Kong",
          "short_name": "HK",
          "types": [
            "country",
            "political"
          ]
        }
      ],
      "formatted_address": "8 Fuk Lee St, Tai Kok Tsui, Hong Kong",
      "geometry": {
        "location": {
          "lat": 22.3245915,
          "lng": 114.1609493
        },
        "location_type": "ROOFTOP",
        "viewport": {
          "northeast": {
            "lat": 22.3259404802915,
            "lng": 114.1622982802915
          },
          "southwest": {
            "lat": 22.3232425197085,
            "lng": 114.1596003197085
          }
        }
      },
      "partial_match": true,
      "place_id": "ChIJB1AdJrEABDQRUIJSzmRHI9E",
      "plus_code": {
        "compound_code": "85F6+R9 Hong Kong",
        "global_code": "7PJP85F6+R9"
      },
      "types": [
        "establishment",
        "point_of_interest",
        "shopping_mall"
      ]
    },
    {
      "address_components": [
        {
          "long_name": "Shop G04",
          "short_name": "Shop G04",
          "types": [
            "subpremise"
          ]
        },
        {
          "long_name": "8",
          "short_name": "8",
          "types": [
            "street_number"
          ]
        },
        {
          "long_name": "Fuk Lee Street",
          "short_name": "Fuk Lee St",
          "types": [
            "route"
          ]
        },
        {
          "long_name": "Tai Kok Tsui",
          "short_name": "Tai Kok Tsui",
          "types": [
            "neighborhood",
            "political"
          ]
        },
        {
          "long_name": "Kowloon",
          "short_name": "Kowloon",
          "types": [
            "administrative_area_level_1",
            "political"
          ]
        },
        {
          "long_name": "Hong Kong",
          "short_name": "HK",
          "types": [
            "country",
            "political"
          ]
        }
      ],
      "formatted_address": "Shop G04, 8 Fuk Lee St, Tai Kok Tsui, Hong Kong",
      "geometry": {
        "bounds": {
          "northeast": {
            "lat": 22.3243655,
            "lng": 114.1614562
          },
          "southwest": {
            "lat": 22.3241971,
            "lng": 114.1613265
          }
        },
        "location": {
          "lat": 22.3242539,
          "lng": 114.1613761
        },
        "location_type": "ROOFTOP",
        "viewport": {
          "northeast": {
            "lat": 22.3256302802915,
            "lng": 114.1627403302915
          },
          "southwest": {
            "lat": 22.3229323197085,
            "lng": 114.1600423697085
          }
        }
      },
      "partial_match": true,
      "place_id": "ChIJr-WKKbEABDQRcmLzGCFEa9o",
      "types": [
        "subpremise"
      ]
    },
    {
      "address_components": [
        {
          "long_name": "Aberdeen",
          "short_name": "Aberdeen",
          "types": [
            "neighborhood",
            "political"
          ]
        },
        {
          "long_name": "Hong Kong Island",
          "short_name": "Hong Kong Island",
          "types": [
            "administrative_area_level_1",
            "political"
          ]
        },
        {
          "long_name": "Hong Kong",
          "short_name": "HK",
          "types": [
            "country",
            "political"
          ]
        }
      ],
      "formatted_address": "Aberdeen, Hong Kong",
      "geometry": {
        "bounds": {
          "northeast": {
            "lat": 22.2559258,
            "lng": 114.1636027
          },
          "southwest": {
            "lat": 22.2463701,
            "lng": 114.1481103
          }
        },
        "location": {
          "lat": 22.2483068,
          "lng": 114.1524398
        },
        "location_type": "APPROXIMATE",
        "viewport": {
          "northeast": {
            "lat": 22.2559258,
            "lng": 114.1636027
          },
          "southwest": {
            "lat": 22.2463701,
            "lng": 114.1481103
          }
        }
      },
      "partial_match": true,
      "place_id": "ChIJCQeMtAMABDQRtnosFGW9dB4",
      "types": [
        "neighborhood",
        "political"
      ]
    }
  ],
  "geocode_tc": [
    {
      "address_components": [
        {
          "long_name": "Shop G04",
          "short_name": "Shop G04",
          "types": [
            "subpremise"
          ]
        },
        {
          "long_name": "8",
          "short_name": "8",
          "types": [
            "street_number"
          ]
        },
        {
          "long_name": "Fuk Lee Street",
          "short_name": "Fuk Lee St",
          "types": [
            "route"
          ]
        },
        {
          "long_name": "Tai Kok Tsui",
          "short_name": "Tai Kok Tsui",
          "types": [
            "neighborhood",
            "political"
          ]
        },
        {
          "long_name": "Kowloon",
          "short_name": "Kowloon",
          "types": [
            "administrative_area_level_1",
            "political"
          ]
        },
        {
          "long_name": "\u9999\u6e2f",
          "short_name": "HK",
          "types": [
            "country",
            "political"
          ]
        }
      ],
      "formatted_address": "Shop G04, 8 Fuk Lee St, Tai Kok Tsui, \u9999\u6e2f",
      "geometry": {
        "location": {
          "lat": 22.3242661,
          "lng": 114.1614018
        },
        "location_type": "ROOFTOP",
        "viewport": {
          "northeast": {
            "lat": 22.3256150802915,
            "lng": 114.1627507802915
          },
          "southwest": {
            "lat": 22.3229171197085,
            "lng": 114.1600528197085
          }
        }
      },
      "place_id": "ChIJfRUI1rAABDQRA5wyMsjiS9g",
      "plus_code": {
        "compound_code": "85F6+PH \u9999\u6e2f\u5927\u89d2\u5480",
        "global_code": "7PJP85F6+PH"
      },
      "types": [
        "establishment",
        "food",
        "point_of_interest",
        "restaurant"
      ]
    }
  ],
  "licno": "2262812296",
  "timestamp": 1564968756,
  "version": "1564966095"
}
