{
  "adr_en": "\u6e05\u6e6f\u8169\u738b, SHOP C, G/F, WING SING BUILDING, 36-40 TEMPLE STREET, YAU MA TEI, KOWLOON",
  "adr_tc": "\u4e5d\u9f8d\u6cb9\u9ebb\u5730\u5edf\u885736-40\u865f \u6c38\u661f\u5927\u5ec8\u5730\u4e0bC\u8216 \u6e05\u6e6f\u8169\u738b",
  "geocode_en": [
    {
      "address_components": [
        {
          "long_name": "Wing Sing Lane",
          "short_name": "Wing Sing Ln",
          "types": [
            "route"
          ]
        },
        {
          "long_name": "Yau Ma Tei",
          "short_name": "Yau Ma Tei",
          "types": [
            "neighborhood",
            "political"
          ]
        },
        {
          "long_name": "Kowloon",
          "short_name": "Kowloon",
          "types": [
            "administrative_area_level_1",
            "political"
          ]
        },
        {
          "long_name": "Hong Kong",
          "short_name": "HK",
          "types": [
            "country",
            "political"
          ]
        }
      ],
      "formatted_address": "Wing Sing Ln, Yau Ma Tei, Hong Kong",
      "geometry": {
        "location": {
          "lat": 22.31074,
          "lng": 114.170419
        },
        "location_type": "GEOMETRIC_CENTER",
        "viewport": {
          "northeast": {
            "lat": 22.3120889802915,
            "lng": 114.1717679802915
          },
          "southwest": {
            "lat": 22.3093910197085,
            "lng": 114.1690700197085
          }
        }
      },
      "partial_match": true,
      "place_id": "ChIJ-1JITMAABDQRWR3V-V3B_LE",
      "plus_code": {
        "compound_code": "856C+75 Hong Kong",
        "global_code": "7PJP856C+75"
      },
      "types": [
        "establishment",
        "food",
        "point_of_interest",
        "restaurant"
      ]
    },
    {
      "address_components": [
        {
          "long_name": "Yau Ma Tei",
          "short_name": "Yau Ma Tei",
          "types": [
            "neighborhood",
            "political"
          ]
        },
        {
          "long_name": "Hong Kong",
          "short_name": "HK",
          "types": [
            "country",
            "political"
          ]
        }
      ],
      "formatted_address": "Hong Kong, Yau Ma Tei, \u9999\u6e2f\u6cb9\u9ebb\u5730\u5edf\u8857\u6c38\u661f\u91cc",
      "geometry": {
        "location": {
          "lat": 22.3107834,
          "lng": 114.1701086
        },
        "location_type": "GEOMETRIC_CENTER",
        "viewport": {
          "northeast": {
            "lat": 22.3121323802915,
            "lng": 114.1714575802915
          },
          "southwest": {
            "lat": 22.3094344197085,
            "lng": 114.1687596197085
          }
        }
      },
      "partial_match": true,
      "place_id": "ChIJVV4DT8AABDQRlp2E8z_Bbk0",
      "plus_code": {
        "compound_code": "856C+82 Hong Kong",
        "global_code": "7PJP856C+82"
      },
      "types": [
        "establishment",
        "lodging",
        "point_of_interest"
      ]
    },
    {
      "address_components": [
        {
          "long_name": "\u6c38\u661f\u5927\u5ec8",
          "short_name": "\u6c38\u661f\u5927\u5ec8",
          "types": [
            "premise"
          ]
        },
        {
          "long_name": "36-40",
          "short_name": "36-40",
          "types": [
            "street_number"
          ]
        },
        {
          "long_name": "Temple Street",
          "short_name": "Temple St",
          "types": [
            "route"
          ]
        },
        {
          "long_name": "Yau Ma Tei",
          "short_name": "Yau Ma Tei",
          "types": [
            "neighborhood",
            "political"
          ]
        },
        {
          "long_name": "Kowloon",
          "short_name": "Kowloon",
          "types": [
            "administrative_area_level_1",
            "political"
          ]
        },
        {
          "long_name": "Hong Kong",
          "short_name": "HK",
          "types": [
            "country",
            "political"
          ]
        }
      ],
      "formatted_address": "Hong Kong, Yau Ma Tei, Temple St, 36-40\u865f\u6c38\u661f\u5927\u5ec8",
      "geometry": {
        "bounds": {
          "northeast": {
            "lat": 22.3107591,
            "lng": 114.17055
          },
          "southwest": {
            "lat": 22.310612,
            "lng": 114.1703909
          }
        },
        "location": {
          "lat": 22.3106983,
          "lng": 114.1704794
        },
        "location_type": "ROOFTOP",
        "viewport": {
          "northeast": {
            "lat": 22.3120345302915,
            "lng": 114.1718194302915
          },
          "southwest": {
            "lat": 22.3093365697085,
            "lng": 114.1691214697085
          }
        }
      },
      "partial_match": true,
      "place_id": "ChIJKaVdTMAABDQRmMlUb_CQTMY",
      "types": [
        "premise"
      ]
    }
  ],
  "geocode_tc": [
    {
      "address_components": [
        {
          "long_name": "\u9999\u6e2f",
          "short_name": "HK",
          "types": [
            "country",
            "political"
          ]
        }
      ],
      "formatted_address": "\u9999\u6e2f\u6cb9\u9ebb\u5730\u5edf\u885736-40\u865f\u6c38\u661f\u5927\u5ec8C\u8216",
      "geometry": {
        "location": {
          "lat": 22.3106358,
          "lng": 114.1699722
        },
        "location_type": "GEOMETRIC_CENTER",
        "viewport": {
          "northeast": {
            "lat": 22.3119847802915,
            "lng": 114.1713211802915
          },
          "southwest": {
            "lat": 22.3092868197085,
            "lng": 114.1686232197085
          }
        }
      },
      "place_id": "ChIJsf9ATMAABDQRauj4FDg77Ac",
      "plus_code": {
        "compound_code": "8569+7X \u9999\u6e2f",
        "global_code": "7PJP8569+7X"
      },
      "types": [
        "establishment",
        "food",
        "point_of_interest",
        "restaurant"
      ]
    }
  ],
  "licno": "3161801664",
  "timestamp": 1564975666,
  "version": "1564966095"
}
