{
  "adr_en": "Superstar, 5/F, MULTIFIELD PLAZA, 3 PRAT AVENUE, TSIM SHA TSUI, KOWLOON",
  "adr_tc": "\u4e5d\u9f8d\u5c16\u6c99\u5480\u5bf6\u52d2\u5df73\u865f \u842c\u4e8b\u660c\u5ee3\u58345\u6a13 \u5de8\u661f",
  "geocode_en": [
    {
      "address_components": [
        {
          "long_name": "Multifield Plaza",
          "short_name": "Multifield Plaza",
          "types": [
            "premise"
          ]
        },
        {
          "long_name": "3",
          "short_name": "3",
          "types": [
            "street_number"
          ]
        },
        {
          "long_name": "Prat Avenue",
          "short_name": "Prat Ave",
          "types": [
            "route"
          ]
        },
        {
          "long_name": "Tsim Sha Tsui",
          "short_name": "Tsim Sha Tsui",
          "types": [
            "neighborhood",
            "political"
          ]
        },
        {
          "long_name": "Kowloon",
          "short_name": "Kowloon",
          "types": [
            "administrative_area_level_1",
            "political"
          ]
        },
        {
          "long_name": "Hong Kong",
          "short_name": "HK",
          "types": [
            "country",
            "political"
          ]
        }
      ],
      "formatted_address": "Multifield Plaza, 3 Prat Ave, Tsim Sha Tsui, Hong Kong",
      "geometry": {
        "bounds": {
          "northeast": {
            "lat": 22.298501,
            "lng": 114.174604
          },
          "southwest": {
            "lat": 22.298204,
            "lng": 114.1741711
          }
        },
        "location": {
          "lat": 22.2983375,
          "lng": 114.1743575
        },
        "location_type": "ROOFTOP",
        "viewport": {
          "northeast": {
            "lat": 22.2997014802915,
            "lng": 114.1757365302915
          },
          "southwest": {
            "lat": 22.2970035197085,
            "lng": 114.1730385697085
          }
        }
      },
      "partial_match": true,
      "place_id": "ChIJ99xjDe4ABDQRLl7nUpFRu_U",
      "types": [
        "premise"
      ]
    }
  ],
  "geocode_tc": [
    {
      "address_components": [
        {
          "long_name": "3- \u865f",
          "short_name": "3- \u865f",
          "types": [
            "street_number"
          ]
        },
        {
          "long_name": "\u5bf6\u52d2\u5df7",
          "short_name": "\u5bf6\u52d2\u5df7",
          "types": [
            "route"
          ]
        },
        {
          "long_name": "\u5c16\u6c99\u5480",
          "short_name": "\u5c16\u6c99\u5480",
          "types": [
            "neighborhood",
            "political"
          ]
        },
        {
          "long_name": "\u4e5d\u9f8d",
          "short_name": "\u4e5d\u9f8d",
          "types": [
            "administrative_area_level_1",
            "political"
          ]
        },
        {
          "long_name": "\u9999\u6e2f",
          "short_name": "HK",
          "types": [
            "country",
            "political"
          ]
        }
      ],
      "formatted_address": "\u9999\u6e2f\u5c16\u6c99\u5480\u5bf6\u52d2\u5df73- \u865f",
      "geometry": {
        "location": {
          "lat": 22.298437,
          "lng": 114.174346
        },
        "location_type": "ROOFTOP",
        "viewport": {
          "northeast": {
            "lat": 22.2997859802915,
            "lng": 114.1756949802915
          },
          "southwest": {
            "lat": 22.2970880197085,
            "lng": 114.1729970197085
          }
        }
      },
      "place_id": "ChIJmapPDe4ABDQRp-NQSPMXizs",
      "plus_code": {
        "compound_code": "75XF+9P \u9999\u6e2f",
        "global_code": "7PJP75XF+9P"
      },
      "types": [
        "establishment",
        "point_of_interest",
        "premise"
      ]
    }
  ],
  "licno": "3161800236",
  "timestamp": 1564975666,
  "version": "1564966095"
}
