{
  "adr_en": "KANIZEN, SHOP F & G, G/F. & M/F., CHEUNG HONG MANSION, 25-33 JOHNSTON ROAD, WAN CHAI, HONG KONG",
  "adr_tc": "\u9999\u6e2f\u7063\u4ed4\u838a\u58eb\u6566\u905325-33\u865f\u9577\u5eb7\u5927\u5ec8\u5730\u4e0b\u53ca\u95a3\u6a13F\u53caG\u8216 \u87f9\u81b3",
  "geocode_en": [
    {
      "address_components": [
        {
          "long_name": "3",
          "short_name": "3",
          "types": [
            "street_number"
          ]
        },
        {
          "long_name": "Thomson Road",
          "short_name": "Thomson Rd",
          "types": [
            "route"
          ]
        },
        {
          "long_name": "Wan Chai",
          "short_name": "Wan Chai",
          "types": [
            "neighborhood",
            "political"
          ]
        },
        {
          "long_name": "Hong Kong Island",
          "short_name": "Hong Kong Island",
          "types": [
            "administrative_area_level_1",
            "political"
          ]
        },
        {
          "long_name": "Hong Kong",
          "short_name": "HK",
          "types": [
            "country",
            "political"
          ]
        }
      ],
      "formatted_address": "3 Thomson Rd, Wan Chai, Hong Kong",
      "geometry": {
        "location": {
          "lat": 22.277175,
          "lng": 114.17064
        },
        "location_type": "ROOFTOP",
        "viewport": {
          "northeast": {
            "lat": 22.2785239802915,
            "lng": 114.1719889802915
          },
          "southwest": {
            "lat": 22.2758260197085,
            "lng": 114.1692910197085
          }
        }
      },
      "partial_match": true,
      "place_id": "ChIJnQXBHV0ABDQRnnv5EUBv_wU",
      "plus_code": {
        "compound_code": "75GC+V7 Hong Kong",
        "global_code": "7PJP75GC+V7"
      },
      "types": [
        "establishment",
        "food",
        "point_of_interest",
        "restaurant"
      ]
    },
    {
      "address_components": [
        {
          "long_name": "Cheung Hong Mansion",
          "short_name": "Cheung Hong Mansion",
          "types": [
            "premise"
          ]
        },
        {
          "long_name": "25-33",
          "short_name": "25-33",
          "types": [
            "street_number"
          ]
        },
        {
          "long_name": "Johnston Road",
          "short_name": "Johnston Rd",
          "types": [
            "route"
          ]
        },
        {
          "long_name": "Wan Chai",
          "short_name": "Wan Chai",
          "types": [
            "neighborhood",
            "political"
          ]
        },
        {
          "long_name": "Hong Kong Island",
          "short_name": "Hong Kong Island",
          "types": [
            "administrative_area_level_1",
            "political"
          ]
        },
        {
          "long_name": "Hong Kong",
          "short_name": "HK",
          "types": [
            "country",
            "political"
          ]
        }
      ],
      "formatted_address": "Cheung Hong Mansion, 25-33 Johnston Rd, Wan Chai, Hong Kong",
      "geometry": {
        "bounds": {
          "northeast": {
            "lat": 22.2772949,
            "lng": 114.17065
          },
          "southwest": {
            "lat": 22.277087,
            "lng": 114.170406
          }
        },
        "location": {
          "lat": 22.2772256,
          "lng": 114.170549
        },
        "location_type": "ROOFTOP",
        "viewport": {
          "northeast": {
            "lat": 22.2785399302915,
            "lng": 114.1718769802915
          },
          "southwest": {
            "lat": 22.27584196970849,
            "lng": 114.1691790197085
          }
        }
      },
      "partial_match": true,
      "place_id": "ChIJ33K2HV0ABDQRZtLtYZGvSJw",
      "types": [
        "premise"
      ]
    }
  ],
  "geocode_tc": [
    {
      "address_components": [
        {
          "long_name": "\u9577\u5eb7\u5927\u5ec8",
          "short_name": "\u9577\u5eb7\u5927\u5ec8",
          "types": [
            "premise"
          ]
        },
        {
          "long_name": "25-33",
          "short_name": "25-33",
          "types": [
            "street_number"
          ]
        },
        {
          "long_name": "\u838a\u58eb\u6566\u9053",
          "short_name": "\u838a\u58eb\u6566\u9053",
          "types": [
            "route"
          ]
        },
        {
          "long_name": "\u7063\u4ed4",
          "short_name": "\u7063\u4ed4",
          "types": [
            "neighborhood",
            "political"
          ]
        },
        {
          "long_name": "\u9999\u6e2f\u5cf6",
          "short_name": "\u9999\u6e2f\u5cf6",
          "types": [
            "administrative_area_level_1",
            "political"
          ]
        },
        {
          "long_name": "\u9999\u6e2f",
          "short_name": "HK",
          "types": [
            "country",
            "political"
          ]
        }
      ],
      "formatted_address": "\u9999\u6e2f\u7063\u4ed4\u838a\u58eb\u6566\u905325-33\u865f\u9577\u5eb7\u5927\u5ec8",
      "geometry": {
        "bounds": {
          "northeast": {
            "lat": 22.2772949,
            "lng": 114.17065
          },
          "southwest": {
            "lat": 22.277087,
            "lng": 114.170406
          }
        },
        "location": {
          "lat": 22.2772256,
          "lng": 114.170549
        },
        "location_type": "ROOFTOP",
        "viewport": {
          "northeast": {
            "lat": 22.2785399302915,
            "lng": 114.1718769802915
          },
          "southwest": {
            "lat": 22.27584196970849,
            "lng": 114.1691790197085
          }
        }
      },
      "partial_match": true,
      "place_id": "ChIJ33K2HV0ABDQRZtLtYZGvSJw",
      "types": [
        "premise"
      ]
    },
    {
      "address_components": [
        {
          "long_name": "3",
          "short_name": "3",
          "types": [
            "street_number"
          ]
        },
        {
          "long_name": "\u8b5a\u81e3\u9053",
          "short_name": "\u8b5a\u81e3\u9053",
          "types": [
            "route"
          ]
        },
        {
          "long_name": "\u7063\u4ed4",
          "short_name": "\u7063\u4ed4",
          "types": [
            "neighborhood",
            "political"
          ]
        },
        {
          "long_name": "\u9999\u6e2f\u5cf6",
          "short_name": "\u9999\u6e2f\u5cf6",
          "types": [
            "administrative_area_level_1",
            "political"
          ]
        },
        {
          "long_name": "\u9999\u6e2f",
          "short_name": "HK",
          "types": [
            "country",
            "political"
          ]
        }
      ],
      "formatted_address": "\u9999\u6e2f\u7063\u4ed4\u8b5a\u81e3\u90533\u865f",
      "geometry": {
        "location": {
          "lat": 22.277175,
          "lng": 114.17064
        },
        "location_type": "ROOFTOP",
        "viewport": {
          "northeast": {
            "lat": 22.2785239802915,
            "lng": 114.1719889802915
          },
          "southwest": {
            "lat": 22.2758260197085,
            "lng": 114.1692910197085
          }
        }
      },
      "partial_match": true,
      "place_id": "ChIJnQXBHV0ABDQRnnv5EUBv_wU",
      "plus_code": {
        "compound_code": "75GC+V7 \u9999\u6e2f",
        "global_code": "7PJP75GC+V7"
      },
      "types": [
        "establishment",
        "food",
        "point_of_interest",
        "restaurant"
      ]
    }
  ],
  "licno": "2212806733",
  "timestamp": 1564966180,
  "version": "1564966095"
}
