{
  "adr_en": "\u9999\u6e2f\u4ed4\u6fa4\u8a18\u9b5a\u86cb\u7c89, SHOP E, G/F, CHEUNG FAT MANSION, 10, 10A & 10B CHEUNG FAT STREET, 366-372 UN CHAU STREET, KOWLOON",
  "adr_tc": "\u4e5d\u9f8d\u5143\u5dde\u8857366-372\u865f, \u9577\u767c\u885710,10A  \u53ca10B\u865f\u9577\u767c\u5927\u5ec8\u5730\u4e0bE\u8216 \u9999\u6e2f\u4ed4\u6fa4\u8a18\u9b5a\u86cb\u7c89",
  "geocode_en": [
    {
      "address_components": [
        {
          "long_name": "Hong Kong",
          "short_name": "HK",
          "types": [
            "country",
            "political"
          ]
        }
      ],
      "formatted_address": "Shop E, G/F, Cheung Fat Mansion, 10, 10A & 10B Cheung Fat Street, 366-372 Un Chau Street, Kowloon, Hong Kong",
      "geometry": {
        "location": {
          "lat": 22.319454,
          "lng": 114.166726
        },
        "location_type": "GEOMETRIC_CENTER",
        "viewport": {
          "northeast": {
            "lat": 22.32080298029151,
            "lng": 114.1680749802915
          },
          "southwest": {
            "lat": 22.3181050197085,
            "lng": 114.1653770197085
          }
        }
      },
      "place_id": "ChIJreK4E7gABDQRChKYVrokN2Y",
      "plus_code": {
        "compound_code": "8598+QM Hong Kong",
        "global_code": "7PJP8598+QM"
      },
      "types": [
        "establishment",
        "point_of_interest"
      ]
    }
  ],
  "geocode_tc": [
    {
      "address_components": [
        {
          "long_name": "\u9577\u767c\u5927\u5ec8",
          "short_name": "\u9577\u767c\u5927\u5ec8",
          "types": [
            "premise"
          ]
        },
        {
          "long_name": "10-10B",
          "short_name": "10-10B",
          "types": [
            "street_number"
          ]
        },
        {
          "long_name": "\u9577\u767c\u8857",
          "short_name": "\u9577\u767c\u8857",
          "types": [
            "route"
          ]
        },
        {
          "long_name": "\u9577\u6c99\u7063",
          "short_name": "\u9577\u6c99\u7063",
          "types": [
            "neighborhood",
            "political"
          ]
        },
        {
          "long_name": "\u4e5d\u9f8d",
          "short_name": "\u4e5d\u9f8d",
          "types": [
            "administrative_area_level_1",
            "political"
          ]
        },
        {
          "long_name": "\u9999\u6e2f",
          "short_name": "HK",
          "types": [
            "country",
            "political"
          ]
        }
      ],
      "formatted_address": "\u9999\u6e2f\u9577\u6c99\u7063\u9577\u767c\u885710-10B\u865f\u9577\u767c\u5927\u5ec8",
      "geometry": {
        "bounds": {
          "northeast": {
            "lat": 22.3382369,
            "lng": 114.156212
          },
          "southwest": {
            "lat": 22.3380591,
            "lng": 114.156003
          }
        },
        "location": {
          "lat": 22.3381617,
          "lng": 114.1561277
        },
        "location_type": "ROOFTOP",
        "viewport": {
          "northeast": {
            "lat": 22.3394969802915,
            "lng": 114.1574564802915
          },
          "southwest": {
            "lat": 22.3367990197085,
            "lng": 114.1547585197085
          }
        }
      },
      "partial_match": true,
      "place_id": "ChIJhRcg900HBDQRAkesxp1biqg",
      "types": [
        "premise"
      ]
    },
    {
      "address_components": [
        {
          "long_name": "\u9577\u767c\u5927\u5ec8",
          "short_name": "\u9577\u767c\u5927\u5ec8",
          "types": [
            "premise"
          ]
        },
        {
          "long_name": "10-10B",
          "short_name": "10-10B",
          "types": [
            "street_number"
          ]
        },
        {
          "long_name": "\u9577\u767c\u8857",
          "short_name": "\u9577\u767c\u8857",
          "types": [
            "route"
          ]
        },
        {
          "long_name": "\u9577\u6c99\u7063",
          "short_name": "\u9577\u6c99\u7063",
          "types": [
            "neighborhood",
            "political"
          ]
        },
        {
          "long_name": "\u4e5d\u9f8d",
          "short_name": "\u4e5d\u9f8d",
          "types": [
            "administrative_area_level_1",
            "political"
          ]
        },
        {
          "long_name": "\u9999\u6e2f",
          "short_name": "HK",
          "types": [
            "country",
            "political"
          ]
        }
      ],
      "formatted_address": "\u9999\u6e2f\u9577\u6c99\u7063\u9577\u767c\u885710-10B\u865f\u9577\u767c\u5927\u5ec8",
      "geometry": {
        "bounds": {
          "northeast": {
            "lat": 22.3382369,
            "lng": 114.156212
          },
          "southwest": {
            "lat": 22.3380591,
            "lng": 114.156003
          }
        },
        "location": {
          "lat": 22.3381617,
          "lng": 114.1561277
        },
        "location_type": "ROOFTOP",
        "viewport": {
          "northeast": {
            "lat": 22.3394969802915,
            "lng": 114.1574564802915
          },
          "southwest": {
            "lat": 22.3367990197085,
            "lng": 114.1547585197085
          }
        }
      },
      "partial_match": true,
      "place_id": "ChIJhRcg900HBDQRAkesxp1biqg",
      "types": [
        "premise"
      ]
    },
    {
      "address_components": [
        {
          "long_name": "\u9999\u6e2f",
          "short_name": "HK",
          "types": [
            "country",
            "political"
          ]
        }
      ],
      "formatted_address": "\u9999\u6e2f\u9577\u6c99\u7063\u9577\u767c\u885710\u865f\u9577\u767c\u5927\u5ec8\u5730\u4e0b",
      "geometry": {
        "location": {
          "lat": 22.3381862,
          "lng": 114.1560514
        },
        "location_type": "GEOMETRIC_CENTER",
        "viewport": {
          "northeast": {
            "lat": 22.3395351802915,
            "lng": 114.1574003802915
          },
          "southwest": {
            "lat": 22.3368372197085,
            "lng": 114.1547024197085
          }
        }
      },
      "partial_match": true,
      "place_id": "ChIJG83R9k0HBDQR_Pb15Hd0B0g",
      "plus_code": {
        "compound_code": "85Q4+7C \u9999\u6e2f",
        "global_code": "7PJP85Q4+7C"
      },
      "types": [
        "establishment",
        "food",
        "point_of_interest",
        "restaurant"
      ]
    }
  ],
  "licno": "3163800823",
  "timestamp": 1564975666,
  "version": "1564966095"
}
