{
  "adr_en": "\u83ef\u660c\u7ca5\u9eb5, 26 TAIKOO SHING ROAD,G/F,T-24 HAN KUNG MANSION AND SHOP G411, CHAI KUNG MANSION, STAGE IV, TAIKOO SHING, HONG KONG",
  "adr_tc": "\u9999\u6e2f\u592a\u53e4\u57ce \u9f4a\u5bae\u95a3\u5730\u4e0bG411\u865f\u92ea \u53ca\u592a\u53e4\u57ce\u905326\u865f \u6f22\u5bae\u95a3T-24\u5730\u4e0b \u83ef\u660c\u7ca5\u9eb5",
  "geocode_en": [
    {
      "address_components": [
        {
          "long_name": "26\u865f",
          "short_name": "26\u865f",
          "types": [
            "street_number"
          ]
        },
        {
          "long_name": "Tai Koo Shing Road",
          "short_name": "Tai Koo Shing Rd",
          "types": [
            "route"
          ]
        },
        {
          "long_name": "Hong Kong Island",
          "short_name": "Hong Kong Island",
          "types": [
            "administrative_area_level_1",
            "political"
          ]
        },
        {
          "long_name": "Hong Kong",
          "short_name": "HK",
          "types": [
            "country",
            "political"
          ]
        }
      ],
      "formatted_address": "Hong Kong, Tai Koo Shing Rd, 26\u865f\u6f22\u5bae\u95a3 410-411\u865f\u8216",
      "geometry": {
        "location": {
          "lat": 22.2865542,
          "lng": 114.2151363
        },
        "location_type": "ROOFTOP",
        "viewport": {
          "northeast": {
            "lat": 22.2879031802915,
            "lng": 114.2164852802915
          },
          "southwest": {
            "lat": 22.2852052197085,
            "lng": 114.2137873197085
          }
        }
      },
      "partial_match": true,
      "place_id": "ChIJX_hMtQwBBDQRTwID2iYrekE",
      "plus_code": {
        "compound_code": "76P8+J3 Hong Kong",
        "global_code": "7PJP76P8+J3"
      },
      "types": [
        "establishment",
        "food",
        "point_of_interest",
        "restaurant"
      ]
    },
    {
      "address_components": [
        {
          "long_name": "Taikoo Shing, Kam Din Terrace Han Kung Mansion",
          "short_name": "Taikoo Shing, Kam Din Terrace Han Kung Mansion",
          "types": [
            "premise"
          ]
        },
        {
          "long_name": "26",
          "short_name": "26",
          "types": [
            "street_number"
          ]
        },
        {
          "long_name": "Tai Koo Shing Road",
          "short_name": "Tai Koo Shing Rd",
          "types": [
            "route"
          ]
        },
        {
          "long_name": "Taikoo Shing",
          "short_name": "Taikoo Shing",
          "types": [
            "neighborhood",
            "political"
          ]
        },
        {
          "long_name": "Hong Kong Island",
          "short_name": "Hong Kong Island",
          "types": [
            "administrative_area_level_1",
            "political"
          ]
        },
        {
          "long_name": "Hong Kong",
          "short_name": "HK",
          "types": [
            "country",
            "political"
          ]
        }
      ],
      "formatted_address": "Taikoo Shing, Kam Din Terrace Han Kung Mansion, 26 Tai Koo Shing Rd, Taikoo Shing, Hong Kong",
      "geometry": {
        "bounds": {
          "northeast": {
            "lat": 22.286614,
            "lng": 114.2154011
          },
          "southwest": {
            "lat": 22.286351,
            "lng": 114.215107
          }
        },
        "location": {
          "lat": 22.286487,
          "lng": 114.2152267
        },
        "location_type": "ROOFTOP",
        "viewport": {
          "northeast": {
            "lat": 22.2878314802915,
            "lng": 114.2166030302915
          },
          "southwest": {
            "lat": 22.2851335197085,
            "lng": 114.2139050697085
          }
        }
      },
      "partial_match": true,
      "place_id": "ChIJG_atygwBBDQRQorHZ8jTTAo",
      "types": [
        "premise"
      ]
    },
    {
      "address_components": [
        {
          "long_name": "Hong Kong",
          "short_name": "HK",
          "types": [
            "country",
            "political"
          ]
        }
      ],
      "formatted_address": "Hong Kong, \u592a\u88d5\u8def2",
      "geometry": {
        "location": {
          "lat": 22.286821,
          "lng": 114.215216
        },
        "location_type": "GEOMETRIC_CENTER",
        "viewport": {
          "northeast": {
            "lat": 22.2881699802915,
            "lng": 114.2165649802915
          },
          "southwest": {
            "lat": 22.2854720197085,
            "lng": 114.2138670197085
          }
        }
      },
      "partial_match": true,
      "place_id": "ChIJd8qlzAwBBDQRET5Ri5cQYQ4",
      "plus_code": {
        "compound_code": "76P8+P3 Hong Kong",
        "global_code": "7PJP76P8+P3"
      },
      "types": [
        "establishment",
        "point_of_interest"
      ]
    }
  ],
  "geocode_tc": [
    {
      "address_components": [
        {
          "long_name": "26\u865f",
          "short_name": "26\u865f",
          "types": [
            "street_number"
          ]
        },
        {
          "long_name": "\u592a\u53e4\u57ce\u9053",
          "short_name": "\u592a\u53e4\u57ce\u9053",
          "types": [
            "route"
          ]
        },
        {
          "long_name": "\u9999\u6e2f\u5cf6",
          "short_name": "\u9999\u6e2f\u5cf6",
          "types": [
            "administrative_area_level_1",
            "political"
          ]
        },
        {
          "long_name": "\u9999\u6e2f",
          "short_name": "HK",
          "types": [
            "country",
            "political"
          ]
        }
      ],
      "formatted_address": "\u9999\u6e2f\u592a\u53e4\u57ce\u905326\u865f\u6f22\u5bae\u95a3 410-411\u865f\u8216",
      "geometry": {
        "location": {
          "lat": 22.2865542,
          "lng": 114.2151363
        },
        "location_type": "ROOFTOP",
        "viewport": {
          "northeast": {
            "lat": 22.2879031802915,
            "lng": 114.2164852802915
          },
          "southwest": {
            "lat": 22.2852052197085,
            "lng": 114.2137873197085
          }
        }
      },
      "partial_match": true,
      "place_id": "ChIJX_hMtQwBBDQRTwID2iYrekE",
      "plus_code": {
        "compound_code": "76P8+J3 \u9999\u6e2f",
        "global_code": "7PJP76P8+J3"
      },
      "types": [
        "establishment",
        "food",
        "point_of_interest",
        "restaurant"
      ]
    }
  ],
  "licno": "2211036320",
  "timestamp": 1564966180,
  "version": "1564966095"
}
