{
  "adr_en": "616 \u9ea5\u5b50, 1/F, ENTERPRISE CENTRE, 4 HART AVENUE, TSIM SHA TSUI, KOWLOON",
  "adr_tc": "\u4e5d\u9f8d\u5c16\u6c99\u5480\u8d6b\u5fb7\u90534\u865f\u79ae\u6642\u5927\u5ec8\u4e00\u6a13 616 \u9ea5\u5b50",
  "geocode_en": [
    {
      "address_components": [
        {
          "long_name": "The Hart",
          "short_name": "The Hart",
          "types": [
            "premise"
          ]
        },
        {
          "long_name": "4",
          "short_name": "4",
          "types": [
            "street_number"
          ]
        },
        {
          "long_name": "Hart Avenue",
          "short_name": "Hart Ave",
          "types": [
            "route"
          ]
        },
        {
          "long_name": "Tsim Sha Tsui",
          "short_name": "Tsim Sha Tsui",
          "types": [
            "neighborhood",
            "political"
          ]
        },
        {
          "long_name": "Kowloon",
          "short_name": "Kowloon",
          "types": [
            "administrative_area_level_1",
            "political"
          ]
        },
        {
          "long_name": "Hong Kong",
          "short_name": "HK",
          "types": [
            "country",
            "political"
          ]
        }
      ],
      "formatted_address": "The Hart, 4 Hart Ave, Tsim Sha Tsui, Hong Kong",
      "geometry": {
        "bounds": {
          "northeast": {
            "lat": 22.297998,
            "lng": 114.174725
          },
          "southwest": {
            "lat": 22.2978859,
            "lng": 114.1745849
          }
        },
        "location": {
          "lat": 22.2979629,
          "lng": 114.1746594
        },
        "location_type": "ROOFTOP",
        "viewport": {
          "northeast": {
            "lat": 22.2992909302915,
            "lng": 114.1760039302915
          },
          "southwest": {
            "lat": 22.2965929697085,
            "lng": 114.1733059697085
          }
        }
      },
      "partial_match": true,
      "place_id": "ChIJraAQEe4ABDQRgsAxRz-JdJY",
      "types": [
        "premise"
      ]
    }
  ],
  "geocode_tc": [
    {
      "address_components": [
        {
          "long_name": "4\u865f1\u6a13",
          "short_name": "4\u865f1\u6a13",
          "types": [
            "subpremise"
          ]
        },
        {
          "long_name": "\u8d6b\u5fb7\u9053",
          "short_name": "\u8d6b\u5fb7\u9053",
          "types": [
            "route"
          ]
        },
        {
          "long_name": "\u5c16\u6c99\u5480",
          "short_name": "\u5c16\u6c99\u5480",
          "types": [
            "neighborhood",
            "political"
          ]
        },
        {
          "long_name": "\u4e5d\u9f8d",
          "short_name": "\u4e5d\u9f8d",
          "types": [
            "administrative_area_level_1",
            "political"
          ]
        },
        {
          "long_name": "\u9999\u6e2f",
          "short_name": "HK",
          "types": [
            "country",
            "political"
          ]
        }
      ],
      "formatted_address": "\u9999\u6e2f\u5c16\u6c99\u5480\u8d6b\u5fb7\u90534\u865f1\u6a13",
      "geometry": {
        "location": {
          "lat": 22.2979629,
          "lng": 114.1746594
        },
        "location_type": "ROOFTOP",
        "viewport": {
          "northeast": {
            "lat": 22.2993118802915,
            "lng": 114.1760083802915
          },
          "southwest": {
            "lat": 22.29661391970849,
            "lng": 114.1733104197085
          }
        }
      },
      "place_id": "ChIJq6oWEe4ABDQRcJVTL9gJy_o",
      "plus_code": {
        "compound_code": "75XF+5V \u9999\u6e2f",
        "global_code": "7PJP75XF+5V"
      },
      "types": [
        "establishment",
        "food",
        "point_of_interest",
        "restaurant"
      ]
    }
  ],
  "licno": "2261813371",
  "timestamp": 1564968756,
  "version": "1564966095"
}
