{
  "adr_en": "British Kitbar, SHOP 6, G/F, LOOK YUEN, 6 TSING PAK PATH, TUEN MUN, NEW TERRITORIES",
  "adr_tc": "\u65b0\u754c\u5c6f\u9580\u9752\u67cf\u5f916\u865f\u9e7f\u82d1\u5730\u4e0b6\u865f\u92ea \u82f1\u570b\u9910\u5427",
  "geocode_en": [
    {
      "address_components": [
        {
          "long_name": "Look Yuen",
          "short_name": "Look Yuen",
          "types": [
            "premise"
          ]
        },
        {
          "long_name": "6",
          "short_name": "6",
          "types": [
            "street_number"
          ]
        },
        {
          "long_name": "Tsing Pak Path",
          "short_name": "Tsing Pak Path",
          "types": [
            "route"
          ]
        },
        {
          "long_name": "San Hui",
          "short_name": "San Hui",
          "types": [
            "neighborhood",
            "political"
          ]
        },
        {
          "long_name": "New Territories",
          "short_name": "New Territories",
          "types": [
            "administrative_area_level_1",
            "political"
          ]
        },
        {
          "long_name": "Hong Kong",
          "short_name": "HK",
          "types": [
            "country",
            "political"
          ]
        }
      ],
      "formatted_address": "Look Yuen, 6 Tsing Pak Path, San Hui, Hong Kong",
      "geometry": {
        "bounds": {
          "northeast": {
            "lat": 22.401432,
            "lng": 113.9781821
          },
          "southwest": {
            "lat": 22.4011981,
            "lng": 113.977965
          }
        },
        "location": {
          "lat": 22.4013117,
          "lng": 113.9780642
        },
        "location_type": "ROOFTOP",
        "viewport": {
          "northeast": {
            "lat": 22.4026640302915,
            "lng": 113.9794225302915
          },
          "southwest": {
            "lat": 22.3999660697085,
            "lng": 113.9767245697085
          }
        }
      },
      "partial_match": true,
      "place_id": "ChIJ-XLpWh_7AzQRShq0iENjnR4",
      "types": [
        "premise"
      ]
    }
  ],
  "geocode_tc": [
    {
      "address_components": [
        {
          "long_name": "\u5730\u4e0b6\u865f\u92ea",
          "short_name": "\u5730\u4e0b6\u865f\u92ea",
          "types": [
            "subpremise"
          ]
        },
        {
          "long_name": "\u9e7f\u82d1",
          "short_name": "\u9e7f\u82d1",
          "types": [
            "premise"
          ]
        },
        {
          "long_name": "6",
          "short_name": "6",
          "types": [
            "street_number"
          ]
        },
        {
          "long_name": "\u9752\u67cf\u5f91",
          "short_name": "\u9752\u67cf\u5f91",
          "types": [
            "route"
          ]
        },
        {
          "long_name": "\u65b0\u589f",
          "short_name": "\u65b0\u589f",
          "types": [
            "neighborhood",
            "political"
          ]
        },
        {
          "long_name": "\u65b0\u754c",
          "short_name": "\u65b0\u754c",
          "types": [
            "administrative_area_level_1",
            "political"
          ]
        },
        {
          "long_name": "\u9999\u6e2f",
          "short_name": "HK",
          "types": [
            "country",
            "political"
          ]
        }
      ],
      "formatted_address": "\u9999\u6e2f\u65b0\u589f\u9752\u67cf\u5f916\u865f\u9e7f\u82d1\u5730\u4e0b6\u865f\u92ea",
      "geometry": {
        "bounds": {
          "northeast": {
            "lat": 22.401432,
            "lng": 113.9781821
          },
          "southwest": {
            "lat": 22.4011981,
            "lng": 113.977965
          }
        },
        "location": {
          "lat": 22.4013117,
          "lng": 113.9780642
        },
        "location_type": "ROOFTOP",
        "viewport": {
          "northeast": {
            "lat": 22.4026640302915,
            "lng": 113.9794225302915
          },
          "southwest": {
            "lat": 22.3999660697085,
            "lng": 113.9767245697085
          }
        }
      },
      "partial_match": true,
      "place_id": "Ej7lnLDkuIs26Jmf6YuqLCBMb29rIFl1ZW4sIDYgVHNpbmcgUGFrIFBhdGgsIFNhbiBIdWksIEhvbmcgS29uZyIpGicKFgoUChIJ-XLpWh_7AzQRShq0iENjnR4SDeWcsOS4izbomZ_pi6o",
      "types": [
        "subpremise"
      ]
    }
  ],
  "licno": "2293803197",
  "timestamp": 1564968756,
  "version": "1564966095"
}
