{
  "adr_en": "FLAME, SHOP B, G/F., ONE CAPITAL PLACE, 18 LUARD ROAD, WANCHAI, HONG KONG",
  "adr_tc": "\u9999\u6e2f\u7063\u4ed4\u76e7\u62bc\u905318\u865f\u6d77\u5fb7\u4e2d\u5fc3\u5730\u4e0bB\u92ea FLAME",
  "geocode_en": [
    {
      "address_components": [
        {
          "long_name": "Hong Kong",
          "short_name": "HK",
          "types": [
            "country",
            "political"
          ]
        }
      ],
      "formatted_address": "Shop B, G/F., One Capital Place, 18 Luard Road, Wanchai, Hong Kong, Hong Kong",
      "geometry": {
        "location": {
          "lat": 22.278461,
          "lng": 114.171956
        },
        "location_type": "GEOMETRIC_CENTER",
        "viewport": {
          "northeast": {
            "lat": 22.2798099802915,
            "lng": 114.1733049802915
          },
          "southwest": {
            "lat": 22.2771120197085,
            "lng": 114.1706070197085
          }
        }
      },
      "place_id": "ChIJD3H5XFwABDQRksiaOJYqP4U",
      "plus_code": {
        "compound_code": "75HC+9Q Hong Kong",
        "global_code": "7PJP75HC+9Q"
      },
      "types": [
        "bar",
        "establishment",
        "point_of_interest"
      ]
    }
  ],
  "geocode_tc": [
    {
      "address_components": [
        {
          "long_name": "\u9999\u6e2f",
          "short_name": "HK",
          "types": [
            "country",
            "political"
          ]
        }
      ],
      "formatted_address": "Shop B, G/F., One Capital Place, 18 Luard Road, Wanchai, Hong Kong, \u9999\u6e2f",
      "geometry": {
        "location": {
          "lat": 22.278461,
          "lng": 114.171956
        },
        "location_type": "GEOMETRIC_CENTER",
        "viewport": {
          "northeast": {
            "lat": 22.2798099802915,
            "lng": 114.1733049802915
          },
          "southwest": {
            "lat": 22.2771120197085,
            "lng": 114.1706070197085
          }
        }
      },
      "partial_match": true,
      "place_id": "ChIJD3H5XFwABDQRksiaOJYqP4U",
      "plus_code": {
        "compound_code": "75HC+9Q \u9999\u6e2f",
        "global_code": "7PJP75HC+9Q"
      },
      "types": [
        "bar",
        "establishment",
        "point_of_interest"
      ]
    },
    {
      "address_components": [
        {
          "long_name": "\u6d77\u5fb7\u4e2d\u5fc3",
          "short_name": "\u6d77\u5fb7\u4e2d\u5fc3",
          "types": [
            "premise"
          ]
        },
        {
          "long_name": "18",
          "short_name": "18",
          "types": [
            "street_number"
          ]
        },
        {
          "long_name": "\u76e7\u62bc\u9053",
          "short_name": "\u76e7\u62bc\u9053",
          "types": [
            "route"
          ]
        },
        {
          "long_name": "\u7063\u4ed4",
          "short_name": "\u7063\u4ed4",
          "types": [
            "neighborhood",
            "political"
          ]
        },
        {
          "long_name": "\u9999\u6e2f\u5cf6",
          "short_name": "\u9999\u6e2f\u5cf6",
          "types": [
            "administrative_area_level_1",
            "political"
          ]
        },
        {
          "long_name": "\u9999\u6e2f",
          "short_name": "HK",
          "types": [
            "country",
            "political"
          ]
        }
      ],
      "formatted_address": "\u9999\u6e2f\u7063\u4ed4\u76e7\u62bc\u905318\u865f\u6d77\u5fb7\u4e2d\u5fc3",
      "geometry": {
        "bounds": {
          "northeast": {
            "lat": 22.278534,
            "lng": 114.1721019
          },
          "southwest": {
            "lat": 22.278388,
            "lng": 114.17181
          }
        },
        "location": {
          "lat": 22.2784631,
          "lng": 114.1719656
        },
        "location_type": "ROOFTOP",
        "viewport": {
          "northeast": {
            "lat": 22.27980998029151,
            "lng": 114.1733049302915
          },
          "southwest": {
            "lat": 22.2771120197085,
            "lng": 114.1706069697085
          }
        }
      },
      "partial_match": true,
      "place_id": "ChIJD3H5XFwABDQRbiPovU6OSug",
      "types": [
        "premise"
      ]
    }
  ],
  "licno": "2212802528",
  "timestamp": 1564966180,
  "version": "1564966095"
}
