{
  "adr_en": "\u5bcc\u8208\u6f6e\u6d32\u7c89\u9eb5, SHOP 9, G/F, YEE FUNG BUILDING, 31-35A YAU SAN STREET, YUEN LONG, NEW TERRITORIES",
  "adr_tc": "\u65b0\u754c\u5143\u6717\u53c8\u65b0\u885731-35A\u865f\u6021\u8c50\u5927\u5ec8\u5730\u4e0b9\u865f\u92ea \u5bcc\u8208\u6f6e\u6d32\u7c89\u9eb5",
  "geocode_en": [
    {
      "address_components": [
        {
          "long_name": "\u6d32\u7c89\u9eb5, SHOP",
          "short_name": "\u6d32\u7c89\u9eb5, SHOP",
          "types": [
            "subpremise"
          ]
        },
        {
          "long_name": "Yee Fung Building",
          "short_name": "Yee Fung Building",
          "types": [
            "premise"
          ]
        },
        {
          "long_name": "31",
          "short_name": "31",
          "types": [
            "street_number"
          ]
        },
        {
          "long_name": "Yau San Street",
          "short_name": "Yau San St",
          "types": [
            "route"
          ]
        },
        {
          "long_name": "Yuen Long",
          "short_name": "Yuen Long",
          "types": [
            "neighborhood",
            "political"
          ]
        },
        {
          "long_name": "New Territories",
          "short_name": "New Territories",
          "types": [
            "administrative_area_level_1",
            "political"
          ]
        },
        {
          "long_name": "Hong Kong",
          "short_name": "HK",
          "types": [
            "country",
            "political"
          ]
        }
      ],
      "formatted_address": "\u6d32\u7c89\u9eb5, SHOP, Yee Fung Building, 31 Yau San St, Yuen Long, Hong Kong",
      "geometry": {
        "bounds": {
          "northeast": {
            "lat": 22.443154,
            "lng": 114.0313491
          },
          "southwest": {
            "lat": 22.4430369,
            "lng": 114.031193
          }
        },
        "location": {
          "lat": 22.4430987,
          "lng": 114.0312628
        },
        "location_type": "ROOFTOP",
        "viewport": {
          "northeast": {
            "lat": 22.4444444302915,
            "lng": 114.0326200302915
          },
          "southwest": {
            "lat": 22.4417464697085,
            "lng": 114.0299220697085
          }
        }
      },
      "partial_match": true,
      "place_id": "EkfmtLLnsonpurUsIFNIT1AsIFllZSBGdW5nIEJ1aWxkaW5nLCAzMSBZYXUgU2FuIFN0LCBZdWVuIExvbmcsIEhvbmcgS29uZyIrGikKFgoUChIJRc4OUqfwAzQRqgwxUMLBHJwSD-a0sueyiem6tSwgU0hPUA",
      "types": [
        "subpremise"
      ]
    }
  ],
  "geocode_tc": [
    {
      "address_components": [
        {
          "long_name": "\u6021\u8c50\u5927\u5ec8",
          "short_name": "\u6021\u8c50\u5927\u5ec8",
          "types": [
            "premise"
          ]
        },
        {
          "long_name": "31",
          "short_name": "31",
          "types": [
            "street_number"
          ]
        },
        {
          "long_name": "\u53c8\u65b0\u8857",
          "short_name": "\u53c8\u65b0\u8857",
          "types": [
            "route"
          ]
        },
        {
          "long_name": "\u5143\u6717",
          "short_name": "\u5143\u6717",
          "types": [
            "neighborhood",
            "political"
          ]
        },
        {
          "long_name": "\u65b0\u754c",
          "short_name": "\u65b0\u754c",
          "types": [
            "administrative_area_level_1",
            "political"
          ]
        },
        {
          "long_name": "\u9999\u6e2f",
          "short_name": "HK",
          "types": [
            "country",
            "political"
          ]
        }
      ],
      "formatted_address": "\u9999\u6e2f\u5143\u6717\u53c8\u65b0\u885731\u865f\u6021\u8c50\u5927\u5ec8",
      "geometry": {
        "bounds": {
          "northeast": {
            "lat": 22.443154,
            "lng": 114.0313491
          },
          "southwest": {
            "lat": 22.4430369,
            "lng": 114.031193
          }
        },
        "location": {
          "lat": 22.4430987,
          "lng": 114.0312628
        },
        "location_type": "ROOFTOP",
        "viewport": {
          "northeast": {
            "lat": 22.4444444302915,
            "lng": 114.0326200302915
          },
          "southwest": {
            "lat": 22.4417464697085,
            "lng": 114.0299220697085
          }
        }
      },
      "partial_match": true,
      "place_id": "ChIJRc4OUqfwAzQRqgwxUMLBHJw",
      "types": [
        "premise"
      ]
    },
    {
      "address_components": [
        {
          "long_name": "\u5143\u6717",
          "short_name": "\u5143\u6717",
          "types": [
            "neighborhood",
            "political"
          ]
        },
        {
          "long_name": "\u65b0\u754c",
          "short_name": "\u65b0\u754c",
          "types": [
            "administrative_area_level_1",
            "political"
          ]
        },
        {
          "long_name": "\u9999\u6e2f",
          "short_name": "HK",
          "types": [
            "country",
            "political"
          ]
        }
      ],
      "formatted_address": "\u9999\u6e2f\u5143\u6717",
      "geometry": {
        "location": {
          "lat": 22.4430821,
          "lng": 114.0311521
        },
        "location_type": "GEOMETRIC_CENTER",
        "viewport": {
          "northeast": {
            "lat": 22.4444310802915,
            "lng": 114.0325010802915
          },
          "southwest": {
            "lat": 22.4417331197085,
            "lng": 114.0298031197085
          }
        }
      },
      "partial_match": true,
      "place_id": "ChIJu_WfUqfwAzQR4vzIN_iozxQ",
      "plus_code": {
        "compound_code": "C2VJ+6F \u9999\u6e2f",
        "global_code": "7PJPC2VJ+6F"
      },
      "types": [
        "establishment",
        "food",
        "point_of_interest",
        "restaurant"
      ]
    }
  ],
  "licno": "3194801549",
  "timestamp": 1564975666,
  "version": "1564966095"
}
