{
  "adr_en": "Sushi Express, SHOP NO. L103, LEVEL 1, LEUNG KING PLAZA, LEUNG KING ESTATE, 31 TIN KING ROAD, TUEN MUN, NEW TERRITORIES",
  "adr_tc": "\u65b0\u754c\u5c6f\u9580\u7530\u666f\u8def31\u865f\u826f\u666f\u90a8\u826f\u666f\u5ee3\u5834\u7b2c\u4e00\u5c64L103\u865f\u92ea \u722d\u9bae\u8ff4\u8f49\u58fd\u53f8",
  "geocode_en": [
    {
      "address_components": [
        {
          "long_name": "31",
          "short_name": "31",
          "types": [
            "street_number"
          ]
        },
        {
          "long_name": "Tin King Road",
          "short_name": "Tin King Rd",
          "types": [
            "route"
          ]
        },
        {
          "long_name": "Tuen Mun",
          "short_name": "Tuen Mun",
          "types": [
            "neighborhood",
            "political"
          ]
        },
        {
          "long_name": "New Territories",
          "short_name": "New Territories",
          "types": [
            "administrative_area_level_1",
            "political"
          ]
        },
        {
          "long_name": "Hong Kong",
          "short_name": "HK",
          "types": [
            "country",
            "political"
          ]
        }
      ],
      "formatted_address": "31 Tin King Rd, Tuen Mun, Hong Kong",
      "geometry": {
        "location": {
          "lat": 22.4063621,
          "lng": 113.9628034
        },
        "location_type": "ROOFTOP",
        "viewport": {
          "northeast": {
            "lat": 22.4077110802915,
            "lng": 113.9641523802915
          },
          "southwest": {
            "lat": 22.4050131197085,
            "lng": 113.9614544197085
          }
        }
      },
      "partial_match": true,
      "place_id": "ChIJx3V5Uij7AzQR5PeFMHjlnpU",
      "plus_code": {
        "compound_code": "CX47+G4 Hong Kong",
        "global_code": "7PJMCX47+G4"
      },
      "types": [
        "establishment",
        "point_of_interest",
        "shopping_mall"
      ]
    }
  ],
  "geocode_tc": [
    {
      "address_components": [
        {
          "long_name": "\u65b0\u754c",
          "short_name": "\u65b0\u754c",
          "types": [
            "administrative_area_level_1",
            "political"
          ]
        },
        {
          "long_name": "\u9999\u6e2f",
          "short_name": "HK",
          "types": [
            "country",
            "political"
          ]
        }
      ],
      "formatted_address": "\u9999\u6e2f\u65b0\u754c",
      "geometry": {
        "bounds": {
          "northeast": {
            "lat": 22.561969,
            "lng": 114.441442
          },
          "southwest": {
            "lat": 22.153415,
            "lng": 113.835078
          }
        },
        "location": {
          "lat": 22.3704243,
          "lng": 114.1234149
        },
        "location_type": "APPROXIMATE",
        "viewport": {
          "northeast": {
            "lat": 22.561969,
            "lng": 114.441442
          },
          "southwest": {
            "lat": 22.153415,
            "lng": 113.835078
          }
        }
      },
      "partial_match": true,
      "place_id": "ChIJt8ZyJegABDQRyJEH8bJo_iI",
      "types": [
        "administrative_area_level_1",
        "political"
      ]
    }
  ],
  "licno": "2293803504",
  "timestamp": 1564968756,
  "version": "1564966095"
}
