{
  "adr_en": "TAI HING, SHOP 28-31, G/F, SITE 2, CHARMING GARDEN, HOI WANG ROAD, MONGKOK WEST, KOWLOON",
  "adr_tc": "\u4e5d\u9f8d\u65fa\u89d2\u897f\u6d77\u6cd3\u9053\u5bcc\u69ae\u82b1\u5712\u7b2c\u4e8c\u671f\u5730\u4e0b28-31\u865f\u8216 \u592a\u8208",
  "geocode_en": [
    {
      "address_components": [
        {
          "long_name": "8",
          "short_name": "8",
          "types": [
            "street_number"
          ]
        },
        {
          "long_name": "Hoi Ting Road",
          "short_name": "Hoi Ting Rd",
          "types": [
            "route"
          ]
        },
        {
          "long_name": "Hong Kong",
          "short_name": "HK",
          "types": [
            "country",
            "political"
          ]
        }
      ],
      "formatted_address": "\u53ca 16 \u865f, 8 Hoi Ting Rd, Hong Kong",
      "geometry": {
        "location": {
          "lat": 22.314211,
          "lng": 114.163083
        },
        "location_type": "ROOFTOP",
        "viewport": {
          "northeast": {
            "lat": 22.3155599802915,
            "lng": 114.1644319802915
          },
          "southwest": {
            "lat": 22.3128620197085,
            "lng": 114.1617340197085
          }
        }
      },
      "partial_match": true,
      "place_id": "ChIJgVjUv74ABDQRQ2X7YNHv07U",
      "plus_code": {
        "compound_code": "8577+M6 Hong Kong",
        "global_code": "7PJP8577+M6"
      },
      "types": [
        "establishment",
        "point_of_interest"
      ]
    },
    {
      "address_components": [
        {
          "long_name": "Hoi Wang Road",
          "short_name": "Hoi Wang Rd",
          "types": [
            "route"
          ]
        },
        {
          "long_name": "Kowloon",
          "short_name": "Kowloon",
          "types": [
            "administrative_area_level_1",
            "political"
          ]
        },
        {
          "long_name": "Hong Kong",
          "short_name": "HK",
          "types": [
            "country",
            "political"
          ]
        }
      ],
      "formatted_address": "Hoi Wang Rd, Hong Kong",
      "geometry": {
        "bounds": {
          "northeast": {
            "lat": 22.3184719,
            "lng": 114.1662297
          },
          "southwest": {
            "lat": 22.3061443,
            "lng": 114.162514
          }
        },
        "location": {
          "lat": 22.3123441,
          "lng": 114.164645
        },
        "location_type": "GEOMETRIC_CENTER",
        "viewport": {
          "northeast": {
            "lat": 22.3184719,
            "lng": 114.1662297
          },
          "southwest": {
            "lat": 22.3061443,
            "lng": 114.162514
          }
        }
      },
      "partial_match": true,
      "place_id": "ChIJLdjW574ABDQRSH-LFvWJiBs",
      "types": [
        "route"
      ]
    }
  ],
  "geocode_tc": [
    {
      "address_components": [
        {
          "long_name": "\u5927\u89d2\u5480",
          "short_name": "\u5927\u89d2\u5480",
          "types": [
            "neighborhood",
            "political"
          ]
        },
        {
          "long_name": "\u4e5d\u9f8d",
          "short_name": "\u4e5d\u9f8d",
          "types": [
            "administrative_area_level_1",
            "political"
          ]
        },
        {
          "long_name": "\u9999\u6e2f",
          "short_name": "HK",
          "types": [
            "country",
            "political"
          ]
        }
      ],
      "formatted_address": "\u9999\u6e2f\u5927\u89d2\u5480\u65fa\u89d2\u6d77\u6cd3\u9053\u5bcc\u69ae\u82b1\u5712\u7b2c2\u671f\u5730\u4e0b26-31\u865f\u8216",
      "geometry": {
        "location": {
          "lat": 22.3143626,
          "lng": 114.1644461
        },
        "location_type": "GEOMETRIC_CENTER",
        "viewport": {
          "northeast": {
            "lat": 22.3157115802915,
            "lng": 114.1657950802915
          },
          "southwest": {
            "lat": 22.3130136197085,
            "lng": 114.1630971197085
          }
        }
      },
      "place_id": "ChIJL524wb4ABDQRtDWAHh6THWA",
      "plus_code": {
        "compound_code": "8577+PQ \u9999\u6e2f",
        "global_code": "7PJP8577+PQ"
      },
      "types": [
        "establishment",
        "food",
        "point_of_interest",
        "restaurant"
      ]
    }
  ],
  "licno": "2262219141",
  "timestamp": 1564968756,
  "version": "1564966095"
}
