{
  "adr_en": "NOBLE, 3/F, PODIUM PLAZA, 5-7B HANOI ROAD, TSIM SHA TSUI, KOWLOON",
  "adr_tc": "\u4e5d\u9f8d\u5c16\u6c99\u5480\u6cb3\u5167\u90535\u865f \u666e\u57fa\u5546\u696d\u4e2d\u5fc33\u6a13 NOBLE",
  "geocode_en": [
    {
      "address_components": [
        {
          "long_name": "Hong Kong",
          "short_name": "HK",
          "types": [
            "country",
            "political"
          ]
        }
      ],
      "formatted_address": "Unit 801-802, 8/F, Podium Plaza, 5-7B Hanoi Road, Tsim Sha Tsui, Kowloon, Hong Kong",
      "geometry": {
        "location": {
          "lat": 22.297647,
          "lng": 114.174355
        },
        "location_type": "GEOMETRIC_CENTER",
        "viewport": {
          "northeast": {
            "lat": 22.2989959802915,
            "lng": 114.1757039802915
          },
          "southwest": {
            "lat": 22.2962980197085,
            "lng": 114.1730060197085
          }
        }
      },
      "place_id": "ChIJjZk6Be4ABDQRSp98dHh-z0Y",
      "plus_code": {
        "compound_code": "75XF+3P Hong Kong",
        "global_code": "7PJP75XF+3P"
      },
      "types": [
        "establishment",
        "point_of_interest"
      ]
    }
  ],
  "geocode_tc": [
    {
      "address_components": [
        {
          "long_name": "\u666e\u57fa\u5546\u696d\u4e2d\u5fc3",
          "short_name": "\u666e\u57fa\u5546\u696d\u4e2d\u5fc3",
          "types": [
            "premise"
          ]
        },
        {
          "long_name": "5",
          "short_name": "5",
          "types": [
            "street_number"
          ]
        },
        {
          "long_name": "\u6cb3\u5167\u9053",
          "short_name": "\u6cb3\u5167\u9053",
          "types": [
            "route"
          ]
        },
        {
          "long_name": "\u5c16\u6c99\u5480",
          "short_name": "\u5c16\u6c99\u5480",
          "types": [
            "neighborhood",
            "political"
          ]
        },
        {
          "long_name": "\u4e5d\u9f8d",
          "short_name": "\u4e5d\u9f8d",
          "types": [
            "administrative_area_level_1",
            "political"
          ]
        },
        {
          "long_name": "\u9999\u6e2f",
          "short_name": "HK",
          "types": [
            "country",
            "political"
          ]
        }
      ],
      "formatted_address": "\u9999\u6e2f\u5c16\u6c99\u5480\u6cb3\u5167\u90535\u865f\u666e\u57fa\u5546\u696d\u4e2d\u5fc3",
      "geometry": {
        "bounds": {
          "northeast": {
            "lat": 22.2978551,
            "lng": 114.174434
          },
          "southwest": {
            "lat": 22.297551,
            "lng": 114.1740749
          }
        },
        "location": {
          "lat": 22.2977236,
          "lng": 114.1742414
        },
        "location_type": "ROOFTOP",
        "viewport": {
          "northeast": {
            "lat": 22.2990520302915,
            "lng": 114.1756034302915
          },
          "southwest": {
            "lat": 22.2963540697085,
            "lng": 114.1729054697085
          }
        }
      },
      "partial_match": true,
      "place_id": "ChIJKdpyBe4ABDQRtGiCj8bdkcA",
      "types": [
        "premise"
      ]
    }
  ],
  "licno": "3161801211",
  "timestamp": 1564975666,
  "version": "1564966095"
}
