{
  "adr_en": "CLUB PANDA, PANDA CAF\u00c9 AT OCEAN PARKAND OUTSIDE SEATING ACCOMMODATION ON THE PAVEMENTAT SHOP FRONT, ABERDEEN, HONG KONG",
  "adr_tc": "\u9999\u6e2f\u9999\u6e2f\u4ed4\u6d77\u6d0b\u516c\u5712\u5927\u718a\u8c93\u9910\u5ef3\u53ca\u9732\u5929\u8336\u5ea7 \u718a\u8c93\u8588",
  "geocode_en": [
    {
      "address_components": [
        {
          "long_name": "Hong Kong",
          "short_name": "HK",
          "types": [
            "country",
            "political"
          ]
        }
      ],
      "formatted_address": "Hong Kong, Aberdeen \u6d77\u6d0b\u516c\u5712\u6d77\u6ff1\u6a02\u5712\u4e9e\u6d32\u52d5\u7269\u5929\u5730\u5c0d\u9762",
      "geometry": {
        "location": {
          "lat": 22.2452076,
          "lng": 114.1763464
        },
        "location_type": "GEOMETRIC_CENTER",
        "viewport": {
          "northeast": {
            "lat": 22.2465565802915,
            "lng": 114.1776953802915
          },
          "southwest": {
            "lat": 22.2438586197085,
            "lng": 114.1749974197085
          }
        }
      },
      "partial_match": true,
      "place_id": "ChIJa1ApGCQABDQRSOQoyfxu6ow",
      "plus_code": {
        "compound_code": "65WG+3G Hong Kong",
        "global_code": "7PJP65WG+3G"
      },
      "types": [
        "cafe",
        "establishment",
        "food",
        "point_of_interest"
      ]
    },
    {
      "address_components": [
        {
          "long_name": "Aberdeen",
          "short_name": "Aberdeen",
          "types": [
            "neighborhood",
            "political"
          ]
        },
        {
          "long_name": "Hong Kong Island",
          "short_name": "Hong Kong Island",
          "types": [
            "administrative_area_level_1",
            "political"
          ]
        },
        {
          "long_name": "Hong Kong",
          "short_name": "HK",
          "types": [
            "country",
            "political"
          ]
        }
      ],
      "formatted_address": "Aberdeen, Hong Kong",
      "geometry": {
        "location": {
          "lat": 22.2466607,
          "lng": 114.1757239
        },
        "location_type": "GEOMETRIC_CENTER",
        "viewport": {
          "northeast": {
            "lat": 22.2480096802915,
            "lng": 114.1770728802915
          },
          "southwest": {
            "lat": 22.2453117197085,
            "lng": 114.1743749197085
          }
        }
      },
      "partial_match": true,
      "place_id": "ChIJ4SEGMiQABDQRRhn7SYWq0fM",
      "plus_code": {
        "compound_code": "65WG+M7 Aberdeen, Hong Kong",
        "global_code": "7PJP65WG+M7"
      },
      "types": [
        "amusement_park",
        "establishment",
        "point_of_interest"
      ]
    }
  ],
  "geocode_tc": [
    {
      "address_components": [
        {
          "long_name": "\u9999\u6e2f",
          "short_name": "HK",
          "types": [
            "country",
            "political"
          ]
        }
      ],
      "formatted_address": "\u9999\u6e2fAberdeen \u6d77\u6d0b\u516c\u5712\u6d77\u6ff1\u6a02\u5712\u4e9e\u6d32\u52d5\u7269\u5929\u5730\u5c0d\u9762",
      "geometry": {
        "location": {
          "lat": 22.2452076,
          "lng": 114.1763464
        },
        "location_type": "GEOMETRIC_CENTER",
        "viewport": {
          "northeast": {
            "lat": 22.2465565802915,
            "lng": 114.1776953802915
          },
          "southwest": {
            "lat": 22.2438586197085,
            "lng": 114.1749974197085
          }
        }
      },
      "partial_match": true,
      "place_id": "ChIJa1ApGCQABDQRSOQoyfxu6ow",
      "plus_code": {
        "compound_code": "65WG+3G \u9999\u6e2f",
        "global_code": "7PJP65WG+3G"
      },
      "types": [
        "cafe",
        "establishment",
        "food",
        "point_of_interest"
      ]
    }
  ],
  "licno": "2215800684",
  "timestamp": 1564968756,
  "version": "1564966095"
}
