{
  "adr_en": "\u7e3d\u90e8\u7f8e\u98df\u5c4b, SHOP 3B, G/F., KA WO BUILDING, 14-22 KA WO STREET, TIN WAN, HONG KONG",
  "adr_tc": "\u9999\u6e2f\u7530\u7063\u5609\u548c\u885714-22\u865f\u5609\u548c\u5927\u5ec8\u5730\u4e0b3B\u92ea \u7e3d\u90e8\u7f8e\u98df\u5c4b",
  "geocode_en": [
    {
      "address_components": [
        {
          "long_name": "\u5c4b, SHOP",
          "short_name": "\u5c4b, SHOP",
          "types": [
            "subpremise"
          ]
        },
        {
          "long_name": "Ka Wo Building Block B",
          "short_name": "Ka Wo Building Block B",
          "types": [
            "premise"
          ]
        },
        {
          "long_name": "14-22",
          "short_name": "14-22",
          "types": [
            "street_number"
          ]
        },
        {
          "long_name": "Ka Wo Street",
          "short_name": "Ka Wo St",
          "types": [
            "route"
          ]
        },
        {
          "long_name": "Tin Wan",
          "short_name": "Tin Wan",
          "types": [
            "neighborhood",
            "political"
          ]
        },
        {
          "long_name": "Hong Kong Island",
          "short_name": "Hong Kong Island",
          "types": [
            "administrative_area_level_1",
            "political"
          ]
        },
        {
          "long_name": "Hong Kong",
          "short_name": "HK",
          "types": [
            "country",
            "political"
          ]
        }
      ],
      "formatted_address": "\u5c4b, SHOP, Ka Wo Building Block B, 14-22 Ka Wo St, Tin Wan, Hong Kong",
      "geometry": {
        "bounds": {
          "northeast": {
            "lat": 22.250026,
            "lng": 114.148954
          },
          "southwest": {
            "lat": 22.249815,
            "lng": 114.1487079
          }
        },
        "location": {
          "lat": 22.2499491,
          "lng": 114.1488123
        },
        "location_type": "ROOFTOP",
        "viewport": {
          "northeast": {
            "lat": 22.2512694802915,
            "lng": 114.1501799302915
          },
          "southwest": {
            "lat": 22.2485715197085,
            "lng": 114.1474819697085
          }
        }
      },
      "partial_match": true,
      "place_id": "EkXlsYssIFNIT1AsIEthIFdvIEJ1aWxkaW5nIEJsb2NrIEIsIDE0LTIyIEthIFdvIFN0LCBUaW4gV2FuLCBIb25nIEtvbmciJRojChYKFAoSCe8TPEQBAAQ0ERBh9rCjri4yEgnlsYssIFNIT1A",
      "types": [
        "subpremise"
      ]
    }
  ],
  "geocode_tc": [
    {
      "address_components": [
        {
          "long_name": "\u9999\u6e2f",
          "short_name": "HK",
          "types": [
            "country",
            "political"
          ]
        }
      ],
      "formatted_address": "\u9999\u6e2f\u5609\u79be\u885714-22\u865f",
      "geometry": {
        "location": {
          "lat": 22.249981,
          "lng": 114.148647
        },
        "location_type": "GEOMETRIC_CENTER",
        "viewport": {
          "northeast": {
            "lat": 22.2513299802915,
            "lng": 114.1499959802915
          },
          "southwest": {
            "lat": 22.2486320197085,
            "lng": 114.1472980197085
          }
        }
      },
      "place_id": "ChIJZY3xRgEABDQRpGNRQBfMRro",
      "plus_code": {
        "compound_code": "64XX+XF \u9999\u6e2f",
        "global_code": "7PJP64XX+XF"
      },
      "types": [
        "establishment",
        "point_of_interest"
      ]
    }
  ],
  "licno": "2215800240",
  "timestamp": 1564968756,
  "version": "1564966095"
}
