{
  "adr_en": "\u806f\u70b3, G/F., 1 KIN HONG STREET, PENG CHAU, NEW TERRITORIES",
  "adr_tc": "\u576a\u6d32\u5065\u5eb7\u88571\u865f\u5730\u4e0b \u806f\u70b3",
  "geocode_en": [
    {
      "address_components": [
        {
          "long_name": "\u865f\u5730\u4e0b",
          "short_name": "\u865f\u5730\u4e0b",
          "types": [
            "subpremise"
          ]
        },
        {
          "long_name": "1",
          "short_name": "1",
          "types": [
            "street_number"
          ]
        },
        {
          "long_name": "\u5065\u5eb7\u8857",
          "short_name": "\u5065\u5eb7\u8857",
          "types": [
            "route"
          ]
        },
        {
          "long_name": "\u576a\u6d32",
          "short_name": "\u576a\u6d32",
          "types": [
            "neighborhood",
            "political"
          ]
        },
        {
          "long_name": "\u65b0\u754c",
          "short_name": "\u65b0\u754c",
          "types": [
            "administrative_area_level_1",
            "political"
          ]
        },
        {
          "long_name": "Hong Kong",
          "short_name": "HK",
          "types": [
            "country",
            "political"
          ]
        }
      ],
      "formatted_address": "Hong Kong, \u576a\u6d32\u5065\u5eb7\u88571\u865f\u865f\u5730\u4e0b",
      "geometry": {
        "location": {
          "lat": 22.369515,
          "lng": 114.130068
        },
        "location_type": "ROOFTOP",
        "viewport": {
          "northeast": {
            "lat": 22.3708639802915,
            "lng": 114.1314169802915
          },
          "southwest": {
            "lat": 22.3681660197085,
            "lng": 114.1287190197085
          }
        }
      },
      "partial_match": true,
      "place_id": "ChIJ6S8RR5D4AzQRlByMxerk3oY",
      "plus_code": {
        "compound_code": "949J+R2 Hong Kong",
        "global_code": "7PJP949J+R2"
      },
      "types": [
        "establishment",
        "point_of_interest"
      ]
    },
    {
      "address_components": [
        {
          "long_name": "G",
          "short_name": "G",
          "types": [
            "subpremise"
          ]
        },
        {
          "long_name": "Che Wah Industrial Building",
          "short_name": "Che Wah Industrial Building",
          "types": [
            "premise"
          ]
        },
        {
          "long_name": "1",
          "short_name": "1",
          "types": [
            "street_number"
          ]
        },
        {
          "long_name": "Kin Hong Street",
          "short_name": "Kin Hong St",
          "types": [
            "route"
          ]
        },
        {
          "long_name": "Kwai Chung",
          "short_name": "Kwai Chung",
          "types": [
            "neighborhood",
            "political"
          ]
        },
        {
          "long_name": "New Territories",
          "short_name": "New Territories",
          "types": [
            "administrative_area_level_1",
            "political"
          ]
        },
        {
          "long_name": "Hong Kong",
          "short_name": "HK",
          "types": [
            "country",
            "political"
          ]
        }
      ],
      "formatted_address": "G, Che Wah Industrial Building, 1 Kin Hong St, Kwai Chung, Hong Kong",
      "geometry": {
        "bounds": {
          "northeast": {
            "lat": 22.369476,
            "lng": 114.130171
          },
          "southwest": {
            "lat": 22.36916,
            "lng": 114.129668
          }
        },
        "location": {
          "lat": 22.369345,
          "lng": 114.1299544
        },
        "location_type": "ROOFTOP",
        "viewport": {
          "northeast": {
            "lat": 22.3706669802915,
            "lng": 114.1312684802915
          },
          "southwest": {
            "lat": 22.3679690197085,
            "lng": 114.1285705197085
          }
        }
      },
      "partial_match": true,
      "place_id": "EkRHLCBDaGUgV2FoIEluZHVzdHJpYWwgQnVpbGRpbmcsIDEgS2luIEhvbmcgU3QsIEt3YWkgQ2h1bmcsIEhvbmcgS29uZyIdGhsKFgoUChIJ-_90RpD4AzQRtuLLzOyr5BMSAUc",
      "types": [
        "subpremise"
      ]
    },
    {
      "address_components": [
        {
          "long_name": "F",
          "short_name": "F",
          "types": [
            "subpremise"
          ]
        },
        {
          "long_name": "Che Wah Industrial Building",
          "short_name": "Che Wah Industrial Building",
          "types": [
            "premise"
          ]
        },
        {
          "long_name": "1",
          "short_name": "1",
          "types": [
            "street_number"
          ]
        },
        {
          "long_name": "Kin Hong Street",
          "short_name": "Kin Hong St",
          "types": [
            "route"
          ]
        },
        {
          "long_name": "Kwai Chung",
          "short_name": "Kwai Chung",
          "types": [
            "neighborhood",
            "political"
          ]
        },
        {
          "long_name": "New Territories",
          "short_name": "New Territories",
          "types": [
            "administrative_area_level_1",
            "political"
          ]
        },
        {
          "long_name": "Hong Kong",
          "short_name": "HK",
          "types": [
            "country",
            "political"
          ]
        }
      ],
      "formatted_address": "F, Che Wah Industrial Building, 1 Kin Hong St, Kwai Chung, Hong Kong",
      "geometry": {
        "bounds": {
          "northeast": {
            "lat": 22.369476,
            "lng": 114.130171
          },
          "southwest": {
            "lat": 22.36916,
            "lng": 114.129668
          }
        },
        "location": {
          "lat": 22.369345,
          "lng": 114.1299544
        },
        "location_type": "ROOFTOP",
        "viewport": {
          "northeast": {
            "lat": 22.3706669802915,
            "lng": 114.1312684802915
          },
          "southwest": {
            "lat": 22.3679690197085,
            "lng": 114.1285705197085
          }
        }
      },
      "partial_match": true,
      "place_id": "EkRGLCBDaGUgV2FoIEluZHVzdHJpYWwgQnVpbGRpbmcsIDEgS2luIEhvbmcgU3QsIEt3YWkgQ2h1bmcsIEhvbmcgS29uZyIdGhsKFgoUChIJ-_90RpD4AzQRtuLLzOyr5BMSAUY",
      "types": [
        "subpremise"
      ]
    },
    {
      "address_components": [
        {
          "long_name": "Peng Chau",
          "short_name": "Peng Chau",
          "types": [
            "establishment",
            "natural_feature"
          ]
        },
        {
          "long_name": "New Territories",
          "short_name": "New Territories",
          "types": [
            "administrative_area_level_1",
            "political"
          ]
        },
        {
          "long_name": "Hong Kong",
          "short_name": "HK",
          "types": [
            "country",
            "political"
          ]
        }
      ],
      "formatted_address": "Peng Chau, Hong Kong",
      "geometry": {
        "bounds": {
          "northeast": {
            "lat": 22.2921442,
            "lng": 114.047502
          },
          "southwest": {
            "lat": 22.2797629,
            "lng": 114.0351837
          }
        },
        "location": {
          "lat": 22.2830679,
          "lng": 114.0413675
        },
        "location_type": "APPROXIMATE",
        "viewport": {
          "northeast": {
            "lat": 22.2921442,
            "lng": 114.047502
          },
          "southwest": {
            "lat": 22.2797629,
            "lng": 114.0351837
          }
        }
      },
      "partial_match": true,
      "place_id": "ChIJmWHddN39AzQRBD8e-rkz_jE",
      "types": [
        "establishment",
        "natural_feature"
      ]
    }
  ],
  "geocode_tc": [
    {
      "address_components": [
        {
          "long_name": "\u865f\u5730\u4e0b",
          "short_name": "\u865f\u5730\u4e0b",
          "types": [
            "subpremise"
          ]
        },
        {
          "long_name": "1",
          "short_name": "1",
          "types": [
            "street_number"
          ]
        },
        {
          "long_name": "\u5065\u5eb7\u8857",
          "short_name": "\u5065\u5eb7\u8857",
          "types": [
            "route"
          ]
        },
        {
          "long_name": "\u576a\u6d32",
          "short_name": "\u576a\u6d32",
          "types": [
            "neighborhood",
            "political"
          ]
        },
        {
          "long_name": "\u65b0\u754c",
          "short_name": "\u65b0\u754c",
          "types": [
            "administrative_area_level_1",
            "political"
          ]
        },
        {
          "long_name": "\u9999\u6e2f",
          "short_name": "HK",
          "types": [
            "country",
            "political"
          ]
        }
      ],
      "formatted_address": "\u9999\u6e2f\u576a\u6d32\u5065\u5eb7\u88571\u865f\u865f\u5730\u4e0b",
      "geometry": {
        "location": {
          "lat": 22.369515,
          "lng": 114.130068
        },
        "location_type": "ROOFTOP",
        "viewport": {
          "northeast": {
            "lat": 22.3708639802915,
            "lng": 114.1314169802915
          },
          "southwest": {
            "lat": 22.3681660197085,
            "lng": 114.1287190197085
          }
        }
      },
      "partial_match": true,
      "place_id": "ChIJ6S8RR5D4AzQRlByMxerk3oY",
      "plus_code": {
        "compound_code": "949J+R2 \u9999\u6e2f",
        "global_code": "7PJP949J+R2"
      },
      "types": [
        "establishment",
        "point_of_interest"
      ]
    }
  ],
  "licno": "2217000808",
  "timestamp": 1564968756,
  "version": "1564966095"
}
