{
  "adr_en": "Yu Mai, SHOP C, G/F, INCLUDING THE YARD THEREOF & SHOP E, G/F, FUK WING BUILDING, NO. 111-117 FUK WING STREET, KOWLOON",
  "adr_tc": "\u4e5d\u9f8d\u798f\u69ae\u8857111-117\u865f\u798f\u69ae\u5927\u53a6\u5730\u4e0bE\u8216\u53ca\u5730\u4e0bC\u8216\u5305\u62ec\u5929\u4e95 \u9b5a\u7c73",
  "geocode_en": [
    {
      "address_components": [
        {
          "long_name": "Fuk Wing Building",
          "short_name": "Fuk Wing Building",
          "types": [
            "premise"
          ]
        },
        {
          "long_name": "111-117",
          "short_name": "111-117",
          "types": [
            "street_number"
          ]
        },
        {
          "long_name": "Fuk Wing Street",
          "short_name": "Fuk Wing St",
          "types": [
            "route"
          ]
        },
        {
          "long_name": "Un Chau",
          "short_name": "Un Chau",
          "types": [
            "neighborhood",
            "political"
          ]
        },
        {
          "long_name": "Kowloon",
          "short_name": "Kowloon",
          "types": [
            "administrative_area_level_1",
            "political"
          ]
        },
        {
          "long_name": "Hong Kong",
          "short_name": "HK",
          "types": [
            "country",
            "political"
          ]
        }
      ],
      "formatted_address": "Fuk Wing Building, 111-117 Fuk Wing St, Un Chau, Hong Kong",
      "geometry": {
        "bounds": {
          "northeast": {
            "lat": 22.331753,
            "lng": 114.1629991
          },
          "southwest": {
            "lat": 22.331527,
            "lng": 114.162791
          }
        },
        "location": {
          "lat": 22.3316424,
          "lng": 114.1629088
        },
        "location_type": "ROOFTOP",
        "viewport": {
          "northeast": {
            "lat": 22.3329889802915,
            "lng": 114.1642440302915
          },
          "southwest": {
            "lat": 22.3302910197085,
            "lng": 114.1615460697085
          }
        }
      },
      "partial_match": true,
      "place_id": "ChIJ99z4ubQABDQRWML4b3BbmwU",
      "types": [
        "premise"
      ]
    }
  ],
  "geocode_tc": [
    {
      "address_components": [
        {
          "long_name": "\u798f\u69ae\u8857",
          "short_name": "\u798f\u69ae\u8857",
          "types": [
            "route"
          ]
        },
        {
          "long_name": "\u6df1\u6c34\u57d7",
          "short_name": "\u6df1\u6c34\u57d7",
          "types": [
            "neighborhood",
            "political"
          ]
        },
        {
          "long_name": "\u9999\u6e2f",
          "short_name": "HK",
          "types": [
            "country",
            "political"
          ]
        }
      ],
      "formatted_address": "\u9999\u6e2f\u6df1\u6c34\u57d7\u798f\u69ae\u8857111-117\u865f\u798f\u69ae\u5927\u5ec8\u5730\u4e0bE\u8216\u53ca\u5730\u4e0bC\u8216\u9023\u5929\u4e95",
      "geometry": {
        "location": {
          "lat": 22.3317081,
          "lng": 114.1629189
        },
        "location_type": "GEOMETRIC_CENTER",
        "viewport": {
          "northeast": {
            "lat": 22.3330570802915,
            "lng": 114.1642678802915
          },
          "southwest": {
            "lat": 22.3303591197085,
            "lng": 114.1615699197085
          }
        }
      },
      "place_id": "ChIJk69Dt7QABDQRftd9vjS4BMA",
      "plus_code": {
        "compound_code": "85J7+M5 \u9999\u6e2f\u6df1\u6c34\u57d7",
        "global_code": "7PJP85J7+M5"
      },
      "types": [
        "establishment",
        "food",
        "point_of_interest",
        "restaurant"
      ]
    }
  ],
  "licno": "2263803781",
  "timestamp": 1564968756,
  "version": "1564966095"
}
