{
  "adr_en": "MORTY'S DELICATESSEN, SHOPS 12-14, LOWER G/F., JARDINE HOUSE, 1 CONNAUGHT PLACE, CENTRAL, HONG KONG",
  "adr_tc": "\u9999\u6e2f\u4e2d\u74b0\u5eb7\u6a02\u5ee3\u58341\u865f\u6021\u548c\u5927\u5ec8\u5730\u4e0b\u4f4e\u5c6412-14\u865f\u92ea MORTY'S DELICATESSEN",
  "geocode_en": [
    {
      "address_components": [
        {
          "long_name": "Central",
          "short_name": "Central",
          "types": [
            "neighborhood",
            "political"
          ]
        },
        {
          "long_name": "Hong Kong Island",
          "short_name": "Hong Kong Island",
          "types": [
            "administrative_area_level_1",
            "political"
          ]
        },
        {
          "long_name": "Hong Kong",
          "short_name": "HK",
          "types": [
            "country",
            "political"
          ]
        }
      ],
      "formatted_address": "Jardine House, Shop 2-14, LG/F, 1 Connaught Place, Central, Hong Kong",
      "geometry": {
        "location": {
          "lat": 22.283227,
          "lng": 114.159215
        },
        "location_type": "GEOMETRIC_CENTER",
        "viewport": {
          "northeast": {
            "lat": 22.2845759802915,
            "lng": 114.1605639802915
          },
          "southwest": {
            "lat": 22.2818780197085,
            "lng": 114.1578660197085
          }
        }
      },
      "place_id": "ChIJ9b9MgWMABDQRuAIlDd--hPU",
      "plus_code": {
        "compound_code": "75M5+7M Central, Hong Kong",
        "global_code": "7PJP75M5+7M"
      },
      "types": [
        "establishment",
        "food",
        "point_of_interest",
        "restaurant",
        "store"
      ]
    }
  ],
  "geocode_tc": [
    {
      "address_components": [
        {
          "long_name": "\u6021\u548c\u5927\u5ec8",
          "short_name": "\u6021\u548c\u5927\u5ec8",
          "types": [
            "premise"
          ]
        },
        {
          "long_name": "1",
          "short_name": "1",
          "types": [
            "street_number"
          ]
        },
        {
          "long_name": "\u5eb7\u6a02\u5ee3\u5834",
          "short_name": "\u5eb7\u6a02\u5ee3\u5834",
          "types": [
            "route"
          ]
        },
        {
          "long_name": "\u4e2d\u74b0",
          "short_name": "\u4e2d\u74b0",
          "types": [
            "neighborhood",
            "political"
          ]
        },
        {
          "long_name": "\u9999\u6e2f\u5cf6",
          "short_name": "\u9999\u6e2f\u5cf6",
          "types": [
            "administrative_area_level_1",
            "political"
          ]
        },
        {
          "long_name": "\u9999\u6e2f",
          "short_name": "HK",
          "types": [
            "country",
            "political"
          ]
        }
      ],
      "formatted_address": "\u9999\u6e2f\u4e2d\u74b0\u5eb7\u6a02\u5ee3\u58341\u865f\u6021\u548c\u5927\u5ec8",
      "geometry": {
        "bounds": {
          "northeast": {
            "lat": 22.283277,
            "lng": 114.1594579
          },
          "southwest": {
            "lat": 22.2827479,
            "lng": 114.158871
          }
        },
        "location": {
          "lat": 22.2829697,
          "lng": 114.1592628
        },
        "location_type": "ROOFTOP",
        "viewport": {
          "northeast": {
            "lat": 22.2843614302915,
            "lng": 114.1605134302915
          },
          "southwest": {
            "lat": 22.2816634697085,
            "lng": 114.1578154697085
          }
        }
      },
      "partial_match": true,
      "place_id": "ChIJdcBMgWMABDQRvAv0rowDW24",
      "types": [
        "premise"
      ]
    },
    {
      "address_components": [
        {
          "long_name": "Central",
          "short_name": "Central",
          "types": [
            "neighborhood",
            "political"
          ]
        },
        {
          "long_name": "Hong Kong Island",
          "short_name": "Hong Kong Island",
          "types": [
            "administrative_area_level_1",
            "political"
          ]
        },
        {
          "long_name": "\u9999\u6e2f",
          "short_name": "HK",
          "types": [
            "country",
            "political"
          ]
        }
      ],
      "formatted_address": "Jardine House, Shop 2-14, LG/F, 1 Connaught Place, Central, \u9999\u6e2f",
      "geometry": {
        "location": {
          "lat": 22.283227,
          "lng": 114.159215
        },
        "location_type": "GEOMETRIC_CENTER",
        "viewport": {
          "northeast": {
            "lat": 22.2845759802915,
            "lng": 114.1605639802915
          },
          "southwest": {
            "lat": 22.2818780197085,
            "lng": 114.1578660197085
          }
        }
      },
      "partial_match": true,
      "place_id": "ChIJ9b9MgWMABDQRuAIlDd--hPU",
      "plus_code": {
        "compound_code": "75M5+7M \u9999\u6e2f\u4e2d\u74b0",
        "global_code": "7PJP75M5+7M"
      },
      "types": [
        "establishment",
        "food",
        "point_of_interest",
        "restaurant",
        "store"
      ]
    }
  ],
  "licno": "2218810464",
  "timestamp": 1564968756,
  "version": "1564966095"
}
