{
  "adr_en": "\u6d77\u798f\u5c0f\u9928, SHOP 29, G/F, KWUN TONG PLAZA, 68 HOI YUEN ROAD, KWUN TONG, KOWLOON",
  "adr_tc": "\u4e5d\u9f8d\u89c0\u5858\u958b\u6e90\u905368\u865f\u89c0\u5858\u5ee3\u5834\u5730\u4e0b29\u865f\u92ea \u6d77\u798f\u5c0f\u9928",
  "geocode_en": [
    {
      "address_components": [
        {
          "long_name": "Hong Kong",
          "short_name": "HK",
          "types": [
            "country",
            "political"
          ]
        }
      ],
      "formatted_address": "Hong Kong, \u89c0\u5858\u958b\u6e90\u905368\u865f\u89c0\u5858\u5ee3\u5834\u5730\u4e0bG29\u865f\u8216",
      "geometry": {
        "location": {
          "lat": 22.3112692,
          "lng": 114.2258615
        },
        "location_type": "GEOMETRIC_CENTER",
        "viewport": {
          "northeast": {
            "lat": 22.3126181802915,
            "lng": 114.2272104802915
          },
          "southwest": {
            "lat": 22.3099202197085,
            "lng": 114.2245125197085
          }
        }
      },
      "partial_match": true,
      "place_id": "ChIJzx-A9U8BBDQRxxyAdJMMNdg",
      "plus_code": {
        "compound_code": "866G+G8 Hong Kong",
        "global_code": "7PJP866G+G8"
      },
      "types": [
        "establishment",
        "food",
        "point_of_interest",
        "restaurant"
      ]
    },
    {
      "address_components": [
        {
          "long_name": "Kwun Tong Plaza",
          "short_name": "Kwun Tong Plaza",
          "types": [
            "premise"
          ]
        },
        {
          "long_name": "68",
          "short_name": "68",
          "types": [
            "street_number"
          ]
        },
        {
          "long_name": "Hoi Yuen Road",
          "short_name": "Hoi Yuen Rd",
          "types": [
            "route"
          ]
        },
        {
          "long_name": "Kwun Tong",
          "short_name": "Kwun Tong",
          "types": [
            "neighborhood",
            "political"
          ]
        },
        {
          "long_name": "Kowloon",
          "short_name": "Kowloon",
          "types": [
            "administrative_area_level_1",
            "political"
          ]
        },
        {
          "long_name": "Hong Kong",
          "short_name": "HK",
          "types": [
            "country",
            "political"
          ]
        }
      ],
      "formatted_address": "Kwun Tong Plaza, 68 Hoi Yuen Rd, Kwun Tong, Hong Kong",
      "geometry": {
        "bounds": {
          "northeast": {
            "lat": 22.3114619,
            "lng": 114.226343
          },
          "southwest": {
            "lat": 22.31089,
            "lng": 114.2256951
          }
        },
        "location": {
          "lat": 22.3111987,
          "lng": 114.2260006
        },
        "location_type": "ROOFTOP",
        "viewport": {
          "northeast": {
            "lat": 22.3125249302915,
            "lng": 114.2273680302915
          },
          "southwest": {
            "lat": 22.3098269697085,
            "lng": 114.2246700697085
          }
        }
      },
      "partial_match": true,
      "place_id": "ChIJ5bZOX0UBBDQRRJAQ2YaX--8",
      "types": [
        "premise"
      ]
    }
  ],
  "geocode_tc": [
    {
      "address_components": [
        {
          "long_name": "\u9999\u6e2f",
          "short_name": "HK",
          "types": [
            "country",
            "political"
          ]
        }
      ],
      "formatted_address": "\u9999\u6e2f\u89c0\u5858\u958b\u6e90\u905368\u865f\u89c0\u5858\u5ee3\u5834\u5730\u4e0bG29\u865f\u8216",
      "geometry": {
        "location": {
          "lat": 22.3112692,
          "lng": 114.2258615
        },
        "location_type": "GEOMETRIC_CENTER",
        "viewport": {
          "northeast": {
            "lat": 22.3126181802915,
            "lng": 114.2272104802915
          },
          "southwest": {
            "lat": 22.3099202197085,
            "lng": 114.2245125197085
          }
        }
      },
      "place_id": "ChIJzx-A9U8BBDQRxxyAdJMMNdg",
      "plus_code": {
        "compound_code": "866G+G8 \u9999\u6e2f",
        "global_code": "7PJP866G+G8"
      },
      "types": [
        "establishment",
        "food",
        "point_of_interest",
        "restaurant"
      ]
    }
  ],
  "licno": "3151800899",
  "timestamp": 1564975666,
  "version": "1564966095"
}
