{
  "adr_en": "ITACHO SUSHI, G/F (MINOR PORTION) & 1/F (MAJOR PORTION), CHEONG YU BUILDING, 143-151 CASTLE PEAK ROAD, YUEN LONG, NEW TERRITORIES",
  "adr_tc": "\u65b0\u754c\u5143\u6717\u9752\u5c71\u9053143-151\u865f \u660c\u88d5\u5927\u5ec8\u5730\u4e0b(\u5c0f\u90e8\u4efd)\u53ca1\u6a13(\u5927\u90e8\u4efd) \u677f\u9577\u58fd\u53f8",
  "geocode_en": [
    {
      "address_components": [
        {
          "long_name": "1",
          "short_name": "1",
          "types": [
            "route"
          ]
        },
        {
          "long_name": "Hong Kong",
          "short_name": "HK",
          "types": [
            "country",
            "political"
          ]
        }
      ],
      "formatted_address": "1, Hong Kong",
      "geometry": {
        "bounds": {
          "northeast": {
            "lat": 22.3966595,
            "lng": 114.2033843
          },
          "southwest": {
            "lat": 22.2404429,
            "lng": 114.1439354
          }
        },
        "location": {
          "lat": 22.3217068,
          "lng": 114.1779597
        },
        "location_type": "GEOMETRIC_CENTER",
        "viewport": {
          "northeast": {
            "lat": 22.3966595,
            "lng": 114.2033843
          },
          "southwest": {
            "lat": 22.2404429,
            "lng": 114.1439354
          }
        }
      },
      "partial_match": true,
      "place_id": "ChIJxXQptcgABDQR15RdKQNEH_Y",
      "types": [
        "route"
      ]
    },
    {
      "address_components": [
        {
          "long_name": "Cheong Yu Building",
          "short_name": "Cheong Yu Building",
          "types": [
            "premise"
          ]
        },
        {
          "long_name": "143-143C",
          "short_name": "143-143C",
          "types": [
            "street_number"
          ]
        },
        {
          "long_name": "Castle Peak Road (Yuen Long)",
          "short_name": "Castle Peak Road (Yuen Long)",
          "types": [
            "route"
          ]
        },
        {
          "long_name": "Yuen Long",
          "short_name": "Yuen Long",
          "types": [
            "neighborhood",
            "political"
          ]
        },
        {
          "long_name": "New Territories",
          "short_name": "New Territories",
          "types": [
            "administrative_area_level_1",
            "political"
          ]
        },
        {
          "long_name": "Hong Kong",
          "short_name": "HK",
          "types": [
            "country",
            "political"
          ]
        }
      ],
      "formatted_address": "Cheong Yu Building, 143-143C Castle Peak Road (Yuen Long), Yuen Long, Hong Kong",
      "geometry": {
        "bounds": {
          "northeast": {
            "lat": 22.4448131,
            "lng": 114.0276559
          },
          "southwest": {
            "lat": 22.44464,
            "lng": 114.0274579
          }
        },
        "location": {
          "lat": 22.4447051,
          "lng": 114.0275693
        },
        "location_type": "ROOFTOP",
        "viewport": {
          "northeast": {
            "lat": 22.44607553029151,
            "lng": 114.0289058802915
          },
          "southwest": {
            "lat": 22.4433775697085,
            "lng": 114.0262079197085
          }
        }
      },
      "partial_match": true,
      "place_id": "ChIJodcOXKDwAzQR3LdVuwVgEko",
      "types": [
        "premise"
      ]
    }
  ],
  "geocode_tc": [
    {
      "address_components": [
        {
          "long_name": "\u660c\u88d5\u5927\u5ec8",
          "short_name": "\u660c\u88d5\u5927\u5ec8",
          "types": [
            "premise"
          ]
        },
        {
          "long_name": "143-143C",
          "short_name": "143-143C",
          "types": [
            "street_number"
          ]
        },
        {
          "long_name": "\u9752\u5c71\u516c\u8def\u5143\u6717\u6bb5",
          "short_name": "\u9752\u5c71\u516c\u8def\u5143\u6717\u6bb5",
          "types": [
            "route"
          ]
        },
        {
          "long_name": "\u5143\u6717",
          "short_name": "\u5143\u6717",
          "types": [
            "neighborhood",
            "political"
          ]
        },
        {
          "long_name": "\u65b0\u754c",
          "short_name": "\u65b0\u754c",
          "types": [
            "administrative_area_level_1",
            "political"
          ]
        },
        {
          "long_name": "\u9999\u6e2f",
          "short_name": "HK",
          "types": [
            "country",
            "political"
          ]
        }
      ],
      "formatted_address": "\u9999\u6e2f\u5143\u6717\u9752\u5c71\u516c\u8def\u5143\u6717\u6bb5143-143C\u865f\u660c\u88d5\u5927\u5ec8",
      "geometry": {
        "bounds": {
          "northeast": {
            "lat": 22.4448131,
            "lng": 114.0276559
          },
          "southwest": {
            "lat": 22.44464,
            "lng": 114.0274579
          }
        },
        "location": {
          "lat": 22.4447051,
          "lng": 114.0275693
        },
        "location_type": "ROOFTOP",
        "viewport": {
          "northeast": {
            "lat": 22.44607553029151,
            "lng": 114.0289058802915
          },
          "southwest": {
            "lat": 22.4433775697085,
            "lng": 114.0262079197085
          }
        }
      },
      "partial_match": true,
      "place_id": "ChIJodcOXKDwAzQR3LdVuwVgEko",
      "types": [
        "premise"
      ]
    },
    {
      "address_components": [
        {
          "long_name": "\u9752\u5c71\u9053",
          "short_name": "\u9752\u5c71\u9053",
          "types": [
            "route"
          ]
        },
        {
          "long_name": "\u4e5d\u9f8d",
          "short_name": "\u4e5d\u9f8d",
          "types": [
            "administrative_area_level_1",
            "political"
          ]
        },
        {
          "long_name": "\u9999\u6e2f",
          "short_name": "HK",
          "types": [
            "country",
            "political"
          ]
        }
      ],
      "formatted_address": "\u9999\u6e2f\u9752\u5c71\u9053",
      "geometry": {
        "bounds": {
          "northeast": {
            "lat": 22.3411578,
            "lng": 114.1647434
          },
          "southwest": {
            "lat": 22.3320725,
            "lng": 114.1439354
          }
        },
        "location": {
          "lat": 22.3385206,
          "lng": 114.1562042
        },
        "location_type": "GEOMETRIC_CENTER",
        "viewport": {
          "northeast": {
            "lat": 22.3411578,
            "lng": 114.1647434
          },
          "southwest": {
            "lat": 22.3320725,
            "lng": 114.1439354
          }
        }
      },
      "partial_match": true,
      "place_id": "ChIJ79nUq1MHBDQRS5mTW_fco04",
      "types": [
        "route"
      ]
    }
  ],
  "licno": "2294808278",
  "timestamp": 1564975666,
  "version": "1564966095"
}
