{
  "adr_en": "\u6709\u53e3\u798f, G/F, 6 LUNG KONG ROAD, KOWLOON CITY, KOWLOON",
  "adr_tc": "\u4e5d\u9f8d\u4e5d\u9f8d\u57ce\u9f8d\u5d17\u90536\u865f\u5730\u4e0b \u6709\u53e3\u798f",
  "geocode_en": [
    {
      "address_components": [
        {
          "long_name": "15",
          "short_name": "15",
          "types": [
            "street_number"
          ]
        },
        {
          "long_name": "Tak Ku Ling Road",
          "short_name": "Tak Ku Ling Rd",
          "types": [
            "route"
          ]
        },
        {
          "long_name": "Kowloon City",
          "short_name": "Kowloon City",
          "types": [
            "neighborhood",
            "political"
          ]
        },
        {
          "long_name": "Kowloon",
          "short_name": "Kowloon",
          "types": [
            "administrative_area_level_1",
            "political"
          ]
        },
        {
          "long_name": "Hong Kong",
          "short_name": "HK",
          "types": [
            "country",
            "political"
          ]
        }
      ],
      "formatted_address": "15 Tak Ku Ling Rd, Kowloon City, Hong Kong",
      "geometry": {
        "location": {
          "lat": 22.3284814,
          "lng": 114.1913983
        },
        "location_type": "ROOFTOP",
        "viewport": {
          "northeast": {
            "lat": 22.3298303802915,
            "lng": 114.1927472802915
          },
          "southwest": {
            "lat": 22.32713241970849,
            "lng": 114.1900493197085
          }
        }
      },
      "partial_match": true,
      "place_id": "ChIJWSTTpCoHBDQR2ICK2y-WEjg",
      "plus_code": {
        "compound_code": "85HR+9H Hong Kong",
        "global_code": "7PJP85HR+9H"
      },
      "types": [
        "establishment",
        "food",
        "point_of_interest",
        "restaurant"
      ]
    },
    {
      "address_components": [
        {
          "long_name": "G",
          "short_name": "G",
          "types": [
            "subpremise"
          ]
        },
        {
          "long_name": "Good Luck House",
          "short_name": "Good Luck House",
          "types": [
            "premise"
          ]
        },
        {
          "long_name": "6",
          "short_name": "6",
          "types": [
            "street_number"
          ]
        },
        {
          "long_name": "Lung Kong Road",
          "short_name": "Lung Kong Rd",
          "types": [
            "route"
          ]
        },
        {
          "long_name": "Kowloon City",
          "short_name": "Kowloon City",
          "types": [
            "neighborhood",
            "political"
          ]
        },
        {
          "long_name": "Kowloon",
          "short_name": "Kowloon",
          "types": [
            "administrative_area_level_1",
            "political"
          ]
        },
        {
          "long_name": "Hong Kong",
          "short_name": "HK",
          "types": [
            "country",
            "political"
          ]
        }
      ],
      "formatted_address": "G, Good Luck House, 6 Lung Kong Rd, Kowloon City, Hong Kong",
      "geometry": {
        "bounds": {
          "northeast": {
            "lat": 22.328515,
            "lng": 114.190637
          },
          "southwest": {
            "lat": 22.32846,
            "lng": 114.190472
          }
        },
        "location": {
          "lat": 22.3284903,
          "lng": 114.1905547
        },
        "location_type": "ROOFTOP",
        "viewport": {
          "northeast": {
            "lat": 22.3298364802915,
            "lng": 114.1919034802915
          },
          "southwest": {
            "lat": 22.3271385197085,
            "lng": 114.1892055197085
          }
        }
      },
      "partial_match": true,
      "place_id": "EjtHLCBHb29kIEx1Y2sgSG91c2UsIDYgTHVuZyBLb25nIFJkLCBLb3dsb29uIENpdHksIEhvbmcgS29uZyIdGhsKFgoUChIJW00GsSoHBDQRCnFND1K5TxsSAUc",
      "types": [
        "subpremise"
      ]
    },
    {
      "address_components": [
        {
          "long_name": "F",
          "short_name": "F",
          "types": [
            "subpremise"
          ]
        },
        {
          "long_name": "Good Luck House",
          "short_name": "Good Luck House",
          "types": [
            "premise"
          ]
        },
        {
          "long_name": "6",
          "short_name": "6",
          "types": [
            "street_number"
          ]
        },
        {
          "long_name": "Lung Kong Road",
          "short_name": "Lung Kong Rd",
          "types": [
            "route"
          ]
        },
        {
          "long_name": "Kowloon City",
          "short_name": "Kowloon City",
          "types": [
            "neighborhood",
            "political"
          ]
        },
        {
          "long_name": "Kowloon",
          "short_name": "Kowloon",
          "types": [
            "administrative_area_level_1",
            "political"
          ]
        },
        {
          "long_name": "Hong Kong",
          "short_name": "HK",
          "types": [
            "country",
            "political"
          ]
        }
      ],
      "formatted_address": "F, Good Luck House, 6 Lung Kong Rd, Kowloon City, Hong Kong",
      "geometry": {
        "bounds": {
          "northeast": {
            "lat": 22.328515,
            "lng": 114.190637
          },
          "southwest": {
            "lat": 22.32846,
            "lng": 114.190472
          }
        },
        "location": {
          "lat": 22.3284903,
          "lng": 114.1905547
        },
        "location_type": "ROOFTOP",
        "viewport": {
          "northeast": {
            "lat": 22.3298364802915,
            "lng": 114.1919034802915
          },
          "southwest": {
            "lat": 22.3271385197085,
            "lng": 114.1892055197085
          }
        }
      },
      "partial_match": true,
      "place_id": "EjtGLCBHb29kIEx1Y2sgSG91c2UsIDYgTHVuZyBLb25nIFJkLCBLb3dsb29uIENpdHksIEhvbmcgS29uZyIdGhsKFgoUChIJW00GsSoHBDQRCnFND1K5TxsSAUY",
      "types": [
        "subpremise"
      ]
    }
  ],
  "geocode_tc": [
    {
      "address_components": [
        {
          "long_name": "\u5730\u4e0b \u6709",
          "short_name": "\u5730\u4e0b \u6709",
          "types": [
            "subpremise"
          ]
        },
        {
          "long_name": "\u597d\u904b\u6a13",
          "short_name": "\u597d\u904b\u6a13",
          "types": [
            "premise"
          ]
        },
        {
          "long_name": "6",
          "short_name": "6",
          "types": [
            "street_number"
          ]
        },
        {
          "long_name": "\u9f8d\u5d17\u9053",
          "short_name": "\u9f8d\u5d17\u9053",
          "types": [
            "route"
          ]
        },
        {
          "long_name": "\u4e5d\u9f8d\u57ce",
          "short_name": "\u4e5d\u9f8d\u57ce",
          "types": [
            "neighborhood",
            "political"
          ]
        },
        {
          "long_name": "\u4e5d\u9f8d",
          "short_name": "\u4e5d\u9f8d",
          "types": [
            "administrative_area_level_1",
            "political"
          ]
        },
        {
          "long_name": "\u9999\u6e2f",
          "short_name": "HK",
          "types": [
            "country",
            "political"
          ]
        }
      ],
      "formatted_address": "\u9999\u6e2f\u4e5d\u9f8d\u57ce\u9f8d\u5d17\u90536\u865f\u597d\u904b\u6a13\u5730\u4e0b \u6709",
      "geometry": {
        "bounds": {
          "northeast": {
            "lat": 22.328515,
            "lng": 114.190637
          },
          "southwest": {
            "lat": 22.32846,
            "lng": 114.190472
          }
        },
        "location": {
          "lat": 22.3284903,
          "lng": 114.1905547
        },
        "location_type": "ROOFTOP",
        "viewport": {
          "northeast": {
            "lat": 22.3298364802915,
            "lng": 114.1919034802915
          },
          "southwest": {
            "lat": 22.3271385197085,
            "lng": 114.1892055197085
          }
        }
      },
      "partial_match": true,
      "place_id": "EkTlnLDkuIsg5pyJLCBHb29kIEx1Y2sgSG91c2UsIDYgTHVuZyBLb25nIFJkLCBLb3dsb29uIENpdHksIEhvbmcgS29uZyImGiQKFgoUChIJW00GsSoHBDQRCnFND1K5TxsSCuWcsOS4iyDmnIk",
      "types": [
        "subpremise"
      ]
    }
  ],
  "licno": "3152802078",
  "timestamp": 1564975666,
  "version": "1564966095"
}
