{
  "adr_en": "\u5146\u79a7\u9910\u5ef3\u5c0f\u5eda, SHOP NO. 11, 2/F, COMMERCIAL COMPLEX, SIU HEI COURT, TUEN MUN, NEW TERRITORIES",
  "adr_tc": "\u65b0\u754c\u5c6f\u9580\u5146\u79a7\u82d1\u5546\u5834\u4e8c\u5b57\u6a13\u7b2c11\u865f\u8216 \u5146\u79a7\u9910\u5ef3\u5c0f\u5eda",
  "geocode_en": [
    {
      "address_components": [
        {
          "long_name": "Hong Kong",
          "short_name": "HK",
          "types": [
            "country",
            "political"
          ]
        }
      ],
      "formatted_address": "Hong Kong, \u5c6f\u9580\u5146\u79a7\u82d1\u5546\u5834\u4e8c\u5b57\u6a13\u7b2c11\u865f\u8216",
      "geometry": {
        "location": {
          "lat": 22.3733907,
          "lng": 113.965911
        },
        "location_type": "GEOMETRIC_CENTER",
        "viewport": {
          "northeast": {
            "lat": 22.3747396802915,
            "lng": 113.9672599802915
          },
          "southwest": {
            "lat": 22.37204171970849,
            "lng": 113.9645620197085
          }
        }
      },
      "partial_match": true,
      "place_id": "ChIJ0bqIpVr7AzQR4FUd2-YAJwk",
      "plus_code": {
        "compound_code": "9XF8+99 Hong Kong",
        "global_code": "7PJM9XF8+99"
      },
      "types": [
        "establishment",
        "food",
        "point_of_interest",
        "restaurant"
      ]
    },
    {
      "address_components": [
        {
          "long_name": "201",
          "short_name": "201",
          "types": [
            "street_number"
          ]
        },
        {
          "long_name": "Wu Chui Road",
          "short_name": "Wu Chui Rd",
          "types": [
            "route"
          ]
        },
        {
          "long_name": "Tuen Mun",
          "short_name": "Tuen Mun",
          "types": [
            "neighborhood",
            "political"
          ]
        },
        {
          "long_name": "New Territories",
          "short_name": "New Territories",
          "types": [
            "administrative_area_level_1",
            "political"
          ]
        },
        {
          "long_name": "Hong Kong",
          "short_name": "HK",
          "types": [
            "country",
            "political"
          ]
        }
      ],
      "formatted_address": "201 Wu Chui Rd, Tuen Mun, Hong Kong",
      "geometry": {
        "location": {
          "lat": 22.3744297,
          "lng": 113.9670201
        },
        "location_type": "ROOFTOP",
        "viewport": {
          "northeast": {
            "lat": 22.3757786802915,
            "lng": 113.9683690802915
          },
          "southwest": {
            "lat": 22.3730807197085,
            "lng": 113.9656711197085
          }
        }
      },
      "partial_match": true,
      "place_id": "ChIJ34aXs1r7AzQRlQiJk4yJQvs",
      "plus_code": {
        "compound_code": "9XF8+QR Hong Kong",
        "global_code": "7PJM9XF8+QR"
      },
      "types": [
        "establishment",
        "point_of_interest"
      ]
    }
  ],
  "geocode_tc": [
    {
      "address_components": [
        {
          "long_name": "\u9999\u6e2f",
          "short_name": "HK",
          "types": [
            "country",
            "political"
          ]
        }
      ],
      "formatted_address": "\u9999\u6e2f\u5c6f\u9580\u5146\u79a7\u82d1\u5546\u5834\u4e8c\u5b57\u6a13\u7b2c11\u865f\u8216",
      "geometry": {
        "location": {
          "lat": 22.3733907,
          "lng": 113.965911
        },
        "location_type": "GEOMETRIC_CENTER",
        "viewport": {
          "northeast": {
            "lat": 22.3747396802915,
            "lng": 113.9672599802915
          },
          "southwest": {
            "lat": 22.37204171970849,
            "lng": 113.9645620197085
          }
        }
      },
      "place_id": "ChIJ0bqIpVr7AzQR4FUd2-YAJwk",
      "plus_code": {
        "compound_code": "9XF8+99 \u9999\u6e2f",
        "global_code": "7PJM9XF8+99"
      },
      "types": [
        "establishment",
        "food",
        "point_of_interest",
        "restaurant"
      ]
    }
  ],
  "licno": "2293000594",
  "timestamp": 1564968756,
  "version": "1564966095"
}
