{
  "adr_en": "\u4f55\u5bb6\u516c\u96de\u9910\u5ef3, SHOP A & SHOP B, G/F, HONG KING BUILDING, NO. 86 TSEUK LUK STREET, SAN PO KONG, KOWLOON",
  "adr_tc": "\u4e5d\u9f8d\u65b0\u84b2\u5d17\u7235\u797f\u885786\u865f\u5eb7\u666f\u6a13\u5730\u4e0bA\u53caB\u8216 \u4f55\u5bb6\u516c\u96de\u9910\u5ef3",
  "geocode_en": [
    {
      "address_components": [
        {
          "long_name": "Hong King Building",
          "short_name": "Hong King Building",
          "types": [
            "premise"
          ]
        },
        {
          "long_name": "86",
          "short_name": "86",
          "types": [
            "street_number"
          ]
        },
        {
          "long_name": "Tseuk Luk Street",
          "short_name": "Tseuk Luk St",
          "types": [
            "route"
          ]
        },
        {
          "long_name": "San Po Kong",
          "short_name": "San Po Kong",
          "types": [
            "neighborhood",
            "political"
          ]
        },
        {
          "long_name": "Kowloon",
          "short_name": "Kowloon",
          "types": [
            "administrative_area_level_1",
            "political"
          ]
        },
        {
          "long_name": "Hong Kong",
          "short_name": "HK",
          "types": [
            "country",
            "political"
          ]
        }
      ],
      "formatted_address": "Hong King Building, 86 Tseuk Luk St, San Po Kong, Hong Kong",
      "geometry": {
        "bounds": {
          "northeast": {
            "lat": 22.335379,
            "lng": 114.197608
          },
          "southwest": {
            "lat": 22.3347641,
            "lng": 114.1968709
          }
        },
        "location": {
          "lat": 22.3350355,
          "lng": 114.1973469
        },
        "location_type": "ROOFTOP",
        "viewport": {
          "northeast": {
            "lat": 22.3364205302915,
            "lng": 114.1985884302915
          },
          "southwest": {
            "lat": 22.3337225697085,
            "lng": 114.1958904697085
          }
        }
      },
      "partial_match": true,
      "place_id": "ChIJq9pe1NYGBDQRDtaq5bafaUs",
      "types": [
        "premise"
      ]
    }
  ],
  "geocode_tc": [
    {
      "address_components": [
        {
          "long_name": "\u7235\u797f\u8857",
          "short_name": "\u7235\u797f\u8857",
          "types": [
            "route"
          ]
        },
        {
          "long_name": "\u65b0\u84b2\u5d17",
          "short_name": "\u65b0\u84b2\u5d17",
          "types": [
            "neighborhood",
            "political"
          ]
        },
        {
          "long_name": "\u4e5d\u9f8d",
          "short_name": "\u4e5d\u9f8d",
          "types": [
            "administrative_area_level_1",
            "political"
          ]
        },
        {
          "long_name": "\u9999\u6e2f",
          "short_name": "HK",
          "types": [
            "country",
            "political"
          ]
        }
      ],
      "formatted_address": "\u9999\u6e2f\u65b0\u84b2\u5d17\u7235\u797f\u8857",
      "geometry": {
        "bounds": {
          "northeast": {
            "lat": 22.3368845,
            "lng": 114.1979971
          },
          "southwest": {
            "lat": 22.3344097,
            "lng": 114.1950248
          }
        },
        "location": {
          "lat": 22.3357491,
          "lng": 114.1967569
        },
        "location_type": "GEOMETRIC_CENTER",
        "viewport": {
          "northeast": {
            "lat": 22.3369960802915,
            "lng": 114.1979971
          },
          "southwest": {
            "lat": 22.3342981197085,
            "lng": 114.1950248
          }
        }
      },
      "partial_match": true,
      "place_id": "ChIJm55gJtcGBDQRGUbXwLWhm1I",
      "types": [
        "route"
      ]
    }
  ],
  "licno": "2253802970",
  "timestamp": 1564968756,
  "version": "1564966095"
}
