{
  "adr_en": "Coffee Corner, COFFEE CORNER, 1/F, LOBBY, SHA TIN COMMUNICATIONS AND TECHNOLOGY CENTRE, SHATIN RACECOURSE, SHA TIN TOWN LOT NO. 13, SHA TIN, NEW TERRITORIES",
  "adr_tc": "\u65b0\u754c\u6c99\u7530\u6c99\u7530\u5e02\u5730\u6bb5\u7b2c13\u865f\u6c99\u7530\u99ac\u5834 \u6c99\u7530\u901a\u8a0a\u53ca\u79d1\u6280\u4e2d\u5fc31\u6a13\u5927\u5802COFFEE CORNER Coffee Corner",
  "geocode_en": [
    {
      "address_components": [
        {
          "long_name": "Sha Tin",
          "short_name": "Sha Tin",
          "types": [
            "neighborhood",
            "political"
          ]
        },
        {
          "long_name": "New Territories",
          "short_name": "New Territories",
          "types": [
            "administrative_area_level_1",
            "political"
          ]
        },
        {
          "long_name": "Hong Kong",
          "short_name": "HK",
          "types": [
            "country",
            "political"
          ]
        }
      ],
      "formatted_address": "STTL 13 Sha Tin Racecourse Sha Tin New Territories \u5e02 \u5730\u6bb5 13 \u865f \u6c99\u7530 \u99ac\u5834, Sha Tin, Hong Kong",
      "geometry": {
        "location": {
          "lat": 22.3968555,
          "lng": 114.2015019
        },
        "location_type": "GEOMETRIC_CENTER",
        "viewport": {
          "northeast": {
            "lat": 22.3982044802915,
            "lng": 114.2028508802915
          },
          "southwest": {
            "lat": 22.3955065197085,
            "lng": 114.2001529197085
          }
        }
      },
      "partial_match": true,
      "place_id": "ChIJ4WLXETcGBDQRroCFeaBs3PA",
      "plus_code": {
        "compound_code": "96W2+PJ Hong Kong",
        "global_code": "7PJP96W2+PJ"
      },
      "types": [
        "establishment",
        "point_of_interest",
        "premise"
      ]
    },
    {
      "address_components": [
        {
          "long_name": "New Territories",
          "short_name": "New Territories",
          "types": [
            "administrative_area_level_1",
            "political"
          ]
        },
        {
          "long_name": "Hong Kong",
          "short_name": "HK",
          "types": [
            "country",
            "political"
          ]
        }
      ],
      "formatted_address": "The Hong Kong Jockey Club Sha Tin Racecourse Stand, Sha Tin, Hong Kong, Hong Kong",
      "geometry": {
        "location": {
          "lat": 22.401109,
          "lng": 114.205262
        },
        "location_type": "GEOMETRIC_CENTER",
        "viewport": {
          "northeast": {
            "lat": 22.4024579802915,
            "lng": 114.2066109802915
          },
          "southwest": {
            "lat": 22.39976001970849,
            "lng": 114.2039130197085
          }
        }
      },
      "partial_match": true,
      "place_id": "ChIJw5O3UjoGBDQRHUM7KP-zLeU",
      "plus_code": {
        "compound_code": "C624+C4 Hong Kong",
        "global_code": "7PJPC624+C4"
      },
      "types": [
        "establishment",
        "point_of_interest"
      ]
    }
  ],
  "geocode_tc": [
    {
      "address_components": [
        {
          "long_name": "New Territories",
          "short_name": "New Territories",
          "types": [
            "administrative_area_level_1",
            "political"
          ]
        },
        {
          "long_name": "\u9999\u6e2f",
          "short_name": "HK",
          "types": [
            "country",
            "political"
          ]
        }
      ],
      "formatted_address": "The Hong Kong Jockey Club Sha Tin Racecourse Stand, Sha Tin, Hong Kong, \u9999\u6e2f",
      "geometry": {
        "location": {
          "lat": 22.401109,
          "lng": 114.205262
        },
        "location_type": "GEOMETRIC_CENTER",
        "viewport": {
          "northeast": {
            "lat": 22.4024579802915,
            "lng": 114.2066109802915
          },
          "southwest": {
            "lat": 22.39976001970849,
            "lng": 114.2039130197085
          }
        }
      },
      "partial_match": true,
      "place_id": "ChIJw5O3UjoGBDQRHUM7KP-zLeU",
      "plus_code": {
        "compound_code": "C624+C4 \u9999\u6e2f",
        "global_code": "7PJPC624+C4"
      },
      "types": [
        "establishment",
        "point_of_interest"
      ]
    },
    {
      "address_components": [
        {
          "long_name": "\u6c99\u7530",
          "short_name": "\u6c99\u7530",
          "types": [
            "neighborhood",
            "political"
          ]
        },
        {
          "long_name": "\u65b0\u754c",
          "short_name": "\u65b0\u754c",
          "types": [
            "administrative_area_level_1",
            "political"
          ]
        },
        {
          "long_name": "\u9999\u6e2f",
          "short_name": "HK",
          "types": [
            "country",
            "political"
          ]
        }
      ],
      "formatted_address": "\u9999\u6e2f\u6c99\u7530",
      "geometry": {
        "location": {
          "lat": 22.3871184,
          "lng": 114.1953501
        },
        "location_type": "APPROXIMATE",
        "viewport": {
          "northeast": {
            "lat": 22.397435,
            "lng": 114.2113575
          },
          "southwest": {
            "lat": 22.376801,
            "lng": 114.1793427
          }
        }
      },
      "partial_match": true,
      "place_id": "ChIJaQfyQkwGBDQRZnaAp0jyeW0",
      "types": [
        "neighborhood",
        "political"
      ]
    }
  ],
  "licno": "3197801179",
  "timestamp": 1564975666,
  "version": "1564966095"
}
