{
  "adr_en": "\u828a\u828a\u4e32, SHOP NO.11, G/F, HO WANG BUILDING, YLTL 339, YU WING PATH, YUEN LONG, NEW TERRITORIES",
  "adr_tc": "\u65b0\u754c\u5143\u6717\u5143\u6717\u5e02\u5730\u6bb5339\u865f\u88d5\u69ae\u5f91\u597d\u65fa\u6d0b\u6a13\u5730\u4e0b11\u865f\u92ea \u828a\u828a\u4e32",
  "geocode_en": [
    {
      "address_components": [
        {
          "long_name": "Hong Kong",
          "short_name": "HK",
          "types": [
            "country",
            "political"
          ]
        }
      ],
      "formatted_address": "Hong Kong, \u5143\u6717\u88d5\u69ae\u5f9111\u865f\u597d\u65fa\u5927\u5ec8\u5730\u4e0b",
      "geometry": {
        "location": {
          "lat": 22.442012,
          "lng": 114.026021
        },
        "location_type": "GEOMETRIC_CENTER",
        "viewport": {
          "northeast": {
            "lat": 22.4433609802915,
            "lng": 114.0273699802915
          },
          "southwest": {
            "lat": 22.4406630197085,
            "lng": 114.0246720197085
          }
        }
      },
      "partial_match": true,
      "place_id": "ChIJo7MhuQr6AzQRawpO1YKKZtE",
      "plus_code": {
        "compound_code": "C2RG+RC Hong Kong",
        "global_code": "7PJPC2RG+RC"
      },
      "types": [
        "establishment",
        "food",
        "point_of_interest",
        "restaurant"
      ]
    },
    {
      "address_components": [
        {
          "long_name": "Ho Wang Building",
          "short_name": "Ho Wang Building",
          "types": [
            "premise"
          ]
        },
        {
          "long_name": "11",
          "short_name": "11",
          "types": [
            "street_number"
          ]
        },
        {
          "long_name": "Yu Wing Path",
          "short_name": "Yu Wing Path",
          "types": [
            "route"
          ]
        },
        {
          "long_name": "Yuen Long",
          "short_name": "Yuen Long",
          "types": [
            "neighborhood",
            "political"
          ]
        },
        {
          "long_name": "New Territories",
          "short_name": "New Territories",
          "types": [
            "administrative_area_level_1",
            "political"
          ]
        },
        {
          "long_name": "Hong Kong",
          "short_name": "HK",
          "types": [
            "country",
            "political"
          ]
        }
      ],
      "formatted_address": "Ho Wang Building, 11 Yu Wing Path, Yuen Long, Hong Kong",
      "geometry": {
        "bounds": {
          "northeast": {
            "lat": 22.44231,
            "lng": 114.026087
          },
          "southwest": {
            "lat": 22.4417139,
            "lng": 114.0259551
          }
        },
        "location": {
          "lat": 22.4420047,
          "lng": 114.0260129
        },
        "location_type": "ROOFTOP",
        "viewport": {
          "northeast": {
            "lat": 22.4433609302915,
            "lng": 114.0273700302915
          },
          "southwest": {
            "lat": 22.4406629697085,
            "lng": 114.0246720697085
          }
        }
      },
      "partial_match": true,
      "place_id": "ChIJtw_huAr6AzQR4tf3Q1G6b-E",
      "types": [
        "premise"
      ]
    }
  ],
  "geocode_tc": [
    {
      "address_components": [
        {
          "long_name": "\u9999\u6e2f",
          "short_name": "HK",
          "types": [
            "country",
            "political"
          ]
        }
      ],
      "formatted_address": "\u9999\u6e2f\u5143\u6717\u88d5\u69ae\u5f9111\u865f\u597d\u65fa\u5927\u5ec8\u5730\u4e0b",
      "geometry": {
        "location": {
          "lat": 22.442012,
          "lng": 114.026021
        },
        "location_type": "GEOMETRIC_CENTER",
        "viewport": {
          "northeast": {
            "lat": 22.4433609802915,
            "lng": 114.0273699802915
          },
          "southwest": {
            "lat": 22.4406630197085,
            "lng": 114.0246720197085
          }
        }
      },
      "place_id": "ChIJo7MhuQr6AzQRawpO1YKKZtE",
      "plus_code": {
        "compound_code": "C2RG+RC \u9999\u6e2f",
        "global_code": "7PJPC2RG+RC"
      },
      "types": [
        "establishment",
        "food",
        "point_of_interest",
        "restaurant"
      ]
    }
  ],
  "licno": "3194000100",
  "timestamp": 1564975666,
  "version": "1564966095"
}
