{
  "adr_en": "\u661f\u8f1d\u83dc\u9928, SHOP 6, G/F, TAI FOOK CENTRE, 9-33 KIN TAK STREET, YUEN LONG, NEW TERRITORIES",
  "adr_tc": "\u65b0\u754c\u5143\u6717\u5efa\u5fb7\u88579-33\u865f\u5927\u798f\u4e2d\u5fc3\u5730\u4e0b6\u92ea \u661f\u8f1d\u83dc\u9928",
  "geocode_en": [
    {
      "address_components": [
        {
          "long_name": "19\u865f",
          "short_name": "19\u865f",
          "types": [
            "street_number"
          ]
        },
        {
          "long_name": "Kin Tak Street",
          "short_name": "Kin Tak St",
          "types": [
            "route"
          ]
        },
        {
          "long_name": "Yuen Long",
          "short_name": "Yuen Long",
          "types": [
            "neighborhood",
            "political"
          ]
        },
        {
          "long_name": "New Territories",
          "short_name": "New Territories",
          "types": [
            "administrative_area_level_1",
            "political"
          ]
        },
        {
          "long_name": "Hong Kong",
          "short_name": "HK",
          "types": [
            "country",
            "political"
          ]
        }
      ],
      "formatted_address": "19\u865f Kin Tak St, Yuen Long, Hong Kong",
      "geometry": {
        "location": {
          "lat": 22.441315,
          "lng": 114.030491
        },
        "location_type": "ROOFTOP",
        "viewport": {
          "northeast": {
            "lat": 22.4426639802915,
            "lng": 114.0318399802915
          },
          "southwest": {
            "lat": 22.4399660197085,
            "lng": 114.0291420197085
          }
        }
      },
      "partial_match": true,
      "place_id": "ChIJHzh0zZT7AzQRESl_Ka7-zlI",
      "plus_code": {
        "compound_code": "C2RJ+G5 Hong Kong",
        "global_code": "7PJPC2RJ+G5"
      },
      "types": [
        "establishment",
        "food",
        "point_of_interest",
        "restaurant"
      ]
    },
    {
      "address_components": [
        {
          "long_name": "Tai Fook Centre",
          "short_name": "Tai Fook Centre",
          "types": [
            "premise"
          ]
        },
        {
          "long_name": "9",
          "short_name": "9",
          "types": [
            "street_number"
          ]
        },
        {
          "long_name": "Kin Tak Street",
          "short_name": "Kin Tak St",
          "types": [
            "route"
          ]
        },
        {
          "long_name": "Yuen Long",
          "short_name": "Yuen Long",
          "types": [
            "neighborhood",
            "political"
          ]
        },
        {
          "long_name": "New Territories",
          "short_name": "New Territories",
          "types": [
            "administrative_area_level_1",
            "political"
          ]
        },
        {
          "long_name": "Hong Kong",
          "short_name": "HK",
          "types": [
            "country",
            "political"
          ]
        }
      ],
      "formatted_address": "Tai Fook Centre, 9 Kin Tak St, Yuen Long, Hong Kong",
      "geometry": {
        "bounds": {
          "northeast": {
            "lat": 22.441308,
            "lng": 114.0306859
          },
          "southwest": {
            "lat": 22.441045,
            "lng": 114.0305409
          }
        },
        "location": {
          "lat": 22.4411685,
          "lng": 114.0306356
        },
        "location_type": "ROOFTOP",
        "viewport": {
          "northeast": {
            "lat": 22.4425254802915,
            "lng": 114.0319623802915
          },
          "southwest": {
            "lat": 22.4398275197085,
            "lng": 114.0292644197085
          }
        }
      },
      "partial_match": true,
      "place_id": "ChIJlwtOHwr6AzQRWlXUpRTb01U",
      "types": [
        "premise"
      ]
    }
  ],
  "geocode_tc": [
    {
      "address_components": [
        {
          "long_name": "\u5927\u798f\u4e2d\u5fc3",
          "short_name": "\u5927\u798f\u4e2d\u5fc3",
          "types": [
            "premise"
          ]
        },
        {
          "long_name": "9",
          "short_name": "9",
          "types": [
            "street_number"
          ]
        },
        {
          "long_name": "\u5efa\u5fb7\u8857",
          "short_name": "\u5efa\u5fb7\u8857",
          "types": [
            "route"
          ]
        },
        {
          "long_name": "\u5143\u6717",
          "short_name": "\u5143\u6717",
          "types": [
            "neighborhood",
            "political"
          ]
        },
        {
          "long_name": "\u65b0\u754c",
          "short_name": "\u65b0\u754c",
          "types": [
            "administrative_area_level_1",
            "political"
          ]
        },
        {
          "long_name": "\u9999\u6e2f",
          "short_name": "HK",
          "types": [
            "country",
            "political"
          ]
        }
      ],
      "formatted_address": "\u9999\u6e2f\u5143\u6717\u5efa\u5fb7\u88579\u865f\u5927\u798f\u4e2d\u5fc3",
      "geometry": {
        "bounds": {
          "northeast": {
            "lat": 22.441308,
            "lng": 114.0306859
          },
          "southwest": {
            "lat": 22.441045,
            "lng": 114.0305409
          }
        },
        "location": {
          "lat": 22.4411685,
          "lng": 114.0306356
        },
        "location_type": "ROOFTOP",
        "viewport": {
          "northeast": {
            "lat": 22.4425254802915,
            "lng": 114.0319623802915
          },
          "southwest": {
            "lat": 22.4398275197085,
            "lng": 114.0292644197085
          }
        }
      },
      "partial_match": true,
      "place_id": "ChIJlwtOHwr6AzQRWlXUpRTb01U",
      "types": [
        "premise"
      ]
    },
    {
      "address_components": [
        {
          "long_name": "19\u865f",
          "short_name": "19\u865f",
          "types": [
            "street_number"
          ]
        },
        {
          "long_name": "\u5efa\u5fb7\u8857",
          "short_name": "\u5efa\u5fb7\u8857",
          "types": [
            "route"
          ]
        },
        {
          "long_name": "\u5143\u6717",
          "short_name": "\u5143\u6717",
          "types": [
            "neighborhood",
            "political"
          ]
        },
        {
          "long_name": "\u65b0\u754c",
          "short_name": "\u65b0\u754c",
          "types": [
            "administrative_area_level_1",
            "political"
          ]
        },
        {
          "long_name": "\u9999\u6e2f",
          "short_name": "HK",
          "types": [
            "country",
            "political"
          ]
        }
      ],
      "formatted_address": "\u9999\u6e2f\u5143\u6717\u5efa\u5fb7\u885719\u865f",
      "geometry": {
        "location": {
          "lat": 22.441315,
          "lng": 114.030491
        },
        "location_type": "ROOFTOP",
        "viewport": {
          "northeast": {
            "lat": 22.4426639802915,
            "lng": 114.0318399802915
          },
          "southwest": {
            "lat": 22.4399660197085,
            "lng": 114.0291420197085
          }
        }
      },
      "partial_match": true,
      "place_id": "ChIJHzh0zZT7AzQRESl_Ka7-zlI",
      "plus_code": {
        "compound_code": "C2RJ+G5 \u9999\u6e2f",
        "global_code": "7PJPC2RJ+G5"
      },
      "types": [
        "establishment",
        "food",
        "point_of_interest",
        "restaurant"
      ]
    }
  ],
  "licno": "2294805419",
  "timestamp": 1564975666,
  "version": "1564966095"
}
