{
  "adr_en": "My Place, SHOP 6 & 7, G/F., TIMLEY COURT, 99 CATCHICK STREET, KENNEDY TOWN, HONG KONG",
  "adr_tc": "\u9999\u6e2f\u5805\u5c3c\u5730\u57ce\u5409\u5e2d\u885799\u865f \u6dfb\u5229\u95a3\u5730\u4e0b6\u53ca7\u865f\u8216 My Place",
  "geocode_en": [
    {
      "address_components": [
        {
          "long_name": "99",
          "short_name": "99",
          "types": [
            "street_number"
          ]
        },
        {
          "long_name": "Catchick Street",
          "short_name": "Catchick St",
          "types": [
            "route"
          ]
        },
        {
          "long_name": "Kennedy Town",
          "short_name": "Kennedy Town",
          "types": [
            "neighborhood",
            "political"
          ]
        },
        {
          "long_name": "Hong Kong Island",
          "short_name": "Hong Kong Island",
          "types": [
            "administrative_area_level_1",
            "political"
          ]
        },
        {
          "long_name": "Hong Kong",
          "short_name": "HK",
          "types": [
            "country",
            "political"
          ]
        }
      ],
      "formatted_address": "99 Catchick St, Kennedy Town, Hong Kong",
      "geometry": {
        "location": {
          "lat": 22.2832076,
          "lng": 114.1268113
        },
        "location_type": "ROOFTOP",
        "viewport": {
          "northeast": {
            "lat": 22.2845565802915,
            "lng": 114.1281602802915
          },
          "southwest": {
            "lat": 22.28185861970849,
            "lng": 114.1254623197085
          }
        }
      },
      "partial_match": true,
      "place_id": "ChIJtzsMGpr_AzQRQFPSATJahVA",
      "plus_code": {
        "compound_code": "74MG+7P Kennedy Town, Hong Kong",
        "global_code": "7PJP74MG+7P"
      },
      "types": [
        "bar",
        "establishment",
        "point_of_interest"
      ]
    },
    {
      "address_components": [
        {
          "long_name": "Shop 6",
          "short_name": "Shop 6",
          "types": [
            "subpremise"
          ]
        },
        {
          "long_name": "Central",
          "short_name": "Central",
          "types": [
            "neighborhood",
            "political"
          ]
        },
        {
          "long_name": "Hong Kong Island",
          "short_name": "Hong Kong Island",
          "types": [
            "administrative_area_level_1",
            "political"
          ]
        },
        {
          "long_name": "Hong Kong",
          "short_name": "HK",
          "types": [
            "country",
            "political"
          ]
        }
      ],
      "formatted_address": "Shop 6, Central, Hong Kong",
      "geometry": {
        "bounds": {
          "northeast": {
            "lat": 22.278622,
            "lng": 114.1607408
          },
          "southwest": {
            "lat": 22.278384,
            "lng": 114.1604609
          }
        },
        "location": {
          "lat": 22.2784976,
          "lng": 114.1605981
        },
        "location_type": "ROOFTOP",
        "viewport": {
          "northeast": {
            "lat": 22.27985198029151,
            "lng": 114.1619498302915
          },
          "southwest": {
            "lat": 22.2771540197085,
            "lng": 114.1592518697085
          }
        }
      },
      "partial_match": true,
      "place_id": "ChIJW4OHwWUABDQR7r8c52ly0sE",
      "types": [
        "subpremise"
      ]
    }
  ],
  "geocode_tc": [
    {
      "address_components": [
        {
          "long_name": "\u53ca7\u865f\u8216",
          "short_name": "\u53ca7\u865f\u8216",
          "types": [
            "subpremise"
          ]
        },
        {
          "long_name": "\u6dfb\u5229\u95a3",
          "short_name": "\u6dfb\u5229\u95a3",
          "types": [
            "premise"
          ]
        },
        {
          "long_name": "99",
          "short_name": "99",
          "types": [
            "street_number"
          ]
        },
        {
          "long_name": "\u5409\u5e2d\u8857",
          "short_name": "\u5409\u5e2d\u8857",
          "types": [
            "route"
          ]
        },
        {
          "long_name": "\u5805\u5c3c\u5730\u57ce",
          "short_name": "\u5805\u5c3c\u5730\u57ce",
          "types": [
            "neighborhood",
            "political"
          ]
        },
        {
          "long_name": "\u9999\u6e2f\u5cf6",
          "short_name": "\u9999\u6e2f\u5cf6",
          "types": [
            "administrative_area_level_1",
            "political"
          ]
        },
        {
          "long_name": "\u9999\u6e2f",
          "short_name": "HK",
          "types": [
            "country",
            "political"
          ]
        }
      ],
      "formatted_address": "\u9999\u6e2f\u5805\u5c3c\u5730\u57ce\u5409\u5e2d\u885799\u865f\u6dfb\u5229\u95a3\u53ca7\u865f\u8216",
      "geometry": {
        "bounds": {
          "northeast": {
            "lat": 22.283262,
            "lng": 114.126874
          },
          "southwest": {
            "lat": 22.28313,
            "lng": 114.126764
          }
        },
        "location": {
          "lat": 22.2832101,
          "lng": 114.1268191
        },
        "location_type": "ROOFTOP",
        "viewport": {
          "northeast": {
            "lat": 22.2845449802915,
            "lng": 114.1281679802915
          },
          "southwest": {
            "lat": 22.2818470197085,
            "lng": 114.1254700197085
          }
        }
      },
      "partial_match": true,
      "place_id": "EkHlj4o36Jmf6IiWLCBUaW1sZXkgQ291cnQsIDk5IENhdGNoaWNrIFN0LCBLZW5uZWR5IFRvd24sIEhvbmcgS29uZyImGiQKFgoUChIJZZ0MGpr_AzQRIC9mkbk0b7YSCuWPijfomZ_oiJY",
      "types": [
        "subpremise"
      ]
    },
    {
      "address_components": [
        {
          "long_name": "99",
          "short_name": "99",
          "types": [
            "street_number"
          ]
        },
        {
          "long_name": "\u5409\u5e2d\u8857",
          "short_name": "\u5409\u5e2d\u8857",
          "types": [
            "route"
          ]
        },
        {
          "long_name": "\u5805\u5c3c\u5730\u57ce",
          "short_name": "\u5805\u5c3c\u5730\u57ce",
          "types": [
            "neighborhood",
            "political"
          ]
        },
        {
          "long_name": "\u9999\u6e2f\u5cf6",
          "short_name": "\u9999\u6e2f\u5cf6",
          "types": [
            "administrative_area_level_1",
            "political"
          ]
        },
        {
          "long_name": "\u9999\u6e2f",
          "short_name": "HK",
          "types": [
            "country",
            "political"
          ]
        }
      ],
      "formatted_address": "\u9999\u6e2f\u5805\u5c3c\u5730\u57ce\u5409\u5e2d\u885799\u865f",
      "geometry": {
        "location": {
          "lat": 22.2832076,
          "lng": 114.1268113
        },
        "location_type": "ROOFTOP",
        "viewport": {
          "northeast": {
            "lat": 22.2845565802915,
            "lng": 114.1281602802915
          },
          "southwest": {
            "lat": 22.28185861970849,
            "lng": 114.1254623197085
          }
        }
      },
      "partial_match": true,
      "place_id": "ChIJtzsMGpr_AzQRQFPSATJahVA",
      "plus_code": {
        "compound_code": "74MG+7P \u9999\u6e2f\u5805\u5c3c\u5730\u57ce",
        "global_code": "7PJP74MG+7P"
      },
      "types": [
        "bar",
        "establishment",
        "point_of_interest"
      ]
    }
  ],
  "licno": "3118804940",
  "timestamp": 1564975666,
  "version": "1564966095"
}
