{
  "adr_en": "Oh Sushi, SHOP 307, LEVEL 3, THE ARCADE, 100 CYBERPORT ROAD, HONG KONG",
  "adr_tc": "\u9999\u6e2f\u6578\u78bc\u6e2f\u9053100\u865f \u6578\u78bc\u6e2f\u5546\u58343\u6a13307\u865f\u8216 \u5967\u58fd\u53f8",
  "geocode_en": [
    {
      "address_components": [
        {
          "long_name": "Hong Kong",
          "short_name": "HK",
          "types": [
            "country",
            "political"
          ]
        }
      ],
      "formatted_address": "Shop 307, The Cyberport Arcade, 100 Cyberport Road, Pok Fu Lam, Hong Kong",
      "geometry": {
        "location": {
          "lat": 22.2607278,
          "lng": 114.1300241
        },
        "location_type": "GEOMETRIC_CENTER",
        "viewport": {
          "northeast": {
            "lat": 22.2620767802915,
            "lng": 114.1313730802915
          },
          "southwest": {
            "lat": 22.25937881970849,
            "lng": 114.1286751197085
          }
        }
      },
      "place_id": "ChIJH8dRve__AzQRdQRjJxdmM48",
      "plus_code": {
        "compound_code": "746J+72 Hong Kong",
        "global_code": "7PJP746J+72"
      },
      "types": [
        "establishment",
        "food",
        "point_of_interest",
        "restaurant"
      ]
    }
  ],
  "geocode_tc": [
    {
      "address_components": [
        {
          "long_name": "\u9999\u6e2f",
          "short_name": "HK",
          "types": [
            "country",
            "political"
          ]
        }
      ],
      "formatted_address": "Shop 307, The Cyberport Arcade, 100 Cyberport Road, Pok Fu Lam, \u9999\u6e2f",
      "geometry": {
        "location": {
          "lat": 22.2607278,
          "lng": 114.1300241
        },
        "location_type": "GEOMETRIC_CENTER",
        "viewport": {
          "northeast": {
            "lat": 22.2620767802915,
            "lng": 114.1313730802915
          },
          "southwest": {
            "lat": 22.25937881970849,
            "lng": 114.1286751197085
          }
        }
      },
      "place_id": "ChIJH8dRve__AzQRdQRjJxdmM48",
      "plus_code": {
        "compound_code": "746J+72 \u9999\u6e2f",
        "global_code": "7PJP746J+72"
      },
      "types": [
        "establishment",
        "food",
        "point_of_interest",
        "restaurant"
      ]
    },
    {
      "address_components": [
        {
          "long_name": "\u6570\u78bc\u6e2f",
          "short_name": "\u6570\u78bc\u6e2f",
          "types": [
            "premise"
          ]
        },
        {
          "long_name": "\u6578\u78bc\u6e2f\u9053",
          "short_name": "\u6578\u78bc\u6e2f\u9053",
          "types": [
            "route"
          ]
        },
        {
          "long_name": "\u8584\u6276\u6797",
          "short_name": "\u8584\u6276\u6797",
          "types": [
            "neighborhood",
            "political"
          ]
        },
        {
          "long_name": "\u9999\u6e2f\u5cf6",
          "short_name": "\u9999\u6e2f\u5cf6",
          "types": [
            "administrative_area_level_1",
            "political"
          ]
        },
        {
          "long_name": "\u9999\u6e2f",
          "short_name": "HK",
          "types": [
            "country",
            "political"
          ]
        }
      ],
      "formatted_address": "\u9999\u6e2f\u8584\u6276\u6797\u6578\u78bc\u6e2f\u9053\u6570\u78bc\u6e2f",
      "geometry": {
        "location": {
          "lat": 22.2610257,
          "lng": 114.1300656
        },
        "location_type": "ROOFTOP",
        "viewport": {
          "northeast": {
            "lat": 22.2623746802915,
            "lng": 114.1314145802915
          },
          "southwest": {
            "lat": 22.25967671970849,
            "lng": 114.1287166197085
          }
        }
      },
      "place_id": "ChIJJYKtou__AzQRd5oHfHsVHJc",
      "plus_code": {
        "compound_code": "746J+C2 \u9999\u6e2f\u8584\u6276\u6797",
        "global_code": "7PJP746J+C2"
      },
      "types": [
        "establishment",
        "point_of_interest",
        "shopping_mall"
      ]
    }
  ],
  "licno": "2215800125",
  "timestamp": 1564968756,
  "version": "1564966095"
}
