{
  "adr_en": "WE PUB, SHOP NO. 4, G/F, PO YUEN MANION, 24-42 BULKELEY STREET, KOWLOON CITY, KOWLOON",
  "adr_tc": "\u4e5d\u9f8d\u5bf6\u5176\u5229\u885724-42\u865f \u5bf6\u6e90\u5927\u53a6\u5730\u4e0b4\u865f \u7db2\u4e0a\u5427",
  "geocode_en": [
    {
      "address_components": [
        {
          "long_name": "Hong Kong",
          "short_name": "HK",
          "types": [
            "country",
            "political"
          ]
        }
      ],
      "formatted_address": "Shop No. 4, G/F, Po Yuen Manion, 24-42 Bulkeley Street, Kowloon City, Kowloon, Hong Kong",
      "geometry": {
        "location": {
          "lat": 22.307502,
          "lng": 114.184385
        },
        "location_type": "GEOMETRIC_CENTER",
        "viewport": {
          "northeast": {
            "lat": 22.3088509802915,
            "lng": 114.1857339802915
          },
          "southwest": {
            "lat": 22.3061530197085,
            "lng": 114.1830360197085
          }
        }
      },
      "partial_match": true,
      "place_id": "ChIJ_QvO7d0ABDQRmMrsF6lLSNg",
      "plus_code": {
        "compound_code": "855M+2Q Hong Kong",
        "global_code": "7PJP855M+2Q"
      },
      "types": [
        "establishment",
        "point_of_interest"
      ]
    }
  ],
  "geocode_tc": [
    {
      "address_components": [
        {
          "long_name": "\u9999\u6e2f",
          "short_name": "HK",
          "types": [
            "country",
            "political"
          ]
        }
      ],
      "formatted_address": "Shop No. 4, G/F, Po Yuen Manion, 24-42 Bulkeley Street, Kowloon City, Kowloon, \u9999\u6e2f",
      "geometry": {
        "location": {
          "lat": 22.307502,
          "lng": 114.184385
        },
        "location_type": "GEOMETRIC_CENTER",
        "viewport": {
          "northeast": {
            "lat": 22.3088509802915,
            "lng": 114.1857339802915
          },
          "southwest": {
            "lat": 22.3061530197085,
            "lng": 114.1830360197085
          }
        }
      },
      "partial_match": true,
      "place_id": "ChIJ_QvO7d0ABDQRmMrsF6lLSNg",
      "plus_code": {
        "compound_code": "855M+2Q \u9999\u6e2f",
        "global_code": "7PJP855M+2Q"
      },
      "types": [
        "establishment",
        "point_of_interest"
      ]
    },
    {
      "address_components": [
        {
          "long_name": "\u5bf6\u6e90\u5927\u5ec8",
          "short_name": "\u5bf6\u6e90\u5927\u5ec8",
          "types": [
            "premise"
          ]
        },
        {
          "long_name": "24-42",
          "short_name": "24-42",
          "types": [
            "street_number"
          ]
        },
        {
          "long_name": "\u5bf6\u5176\u5229\u8857",
          "short_name": "\u5bf6\u5176\u5229\u8857",
          "types": [
            "route"
          ]
        },
        {
          "long_name": "\u7d05\u78e1",
          "short_name": "\u7d05\u78e1",
          "types": [
            "neighborhood",
            "political"
          ]
        },
        {
          "long_name": "\u4e5d\u9f8d",
          "short_name": "\u4e5d\u9f8d",
          "types": [
            "administrative_area_level_1",
            "political"
          ]
        },
        {
          "long_name": "\u9999\u6e2f",
          "short_name": "HK",
          "types": [
            "country",
            "political"
          ]
        }
      ],
      "formatted_address": "\u9999\u6e2f\u7d05\u78e1\u5bf6\u5176\u5229\u885724-42\u865f\u5bf6\u6e90\u5927\u5ec8",
      "geometry": {
        "bounds": {
          "northeast": {
            "lat": 22.307644,
            "lng": 114.184578
          },
          "southwest": {
            "lat": 22.307359,
            "lng": 114.1841921
          }
        },
        "location": {
          "lat": 22.3075062,
          "lng": 114.1843662
        },
        "location_type": "ROOFTOP",
        "viewport": {
          "northeast": {
            "lat": 22.3088504802915,
            "lng": 114.1857340302915
          },
          "southwest": {
            "lat": 22.3061525197085,
            "lng": 114.1830360697085
          }
        }
      },
      "partial_match": true,
      "place_id": "ChIJHwzO7d0ABDQRsuWyiCKB8K0",
      "types": [
        "premise"
      ]
    }
  ],
  "licno": "3152244180",
  "timestamp": 1564975666,
  "version": "1564966095"
}
