{
  "adr_en": "No Record, SHOP 1, G/F., KING KWONG MANSION, NO. 8 KING KWONG STREET, HAPPY VALLEY, HONG KONG",
  "adr_tc": "\u9999\u6e2f\u8dd1\u99ac\u5730\u666f\u5149\u88578\u865f\u666f\u5149\u6a13\u5730\u4e0b1\u865f\u8216 \u6c92\u6709\u8a18\u9304",
  "geocode_en": [
    {
      "address_components": [
        {
          "long_name": "King Kwong Mansion",
          "short_name": "King Kwong Mansion",
          "types": [
            "premise"
          ]
        },
        {
          "long_name": "8",
          "short_name": "8",
          "types": [
            "street_number"
          ]
        },
        {
          "long_name": "King Kwong Street",
          "short_name": "King Kwong St",
          "types": [
            "route"
          ]
        },
        {
          "long_name": "Happy Valley",
          "short_name": "Happy Valley",
          "types": [
            "neighborhood",
            "political"
          ]
        },
        {
          "long_name": "Hong Kong Island",
          "short_name": "Hong Kong Island",
          "types": [
            "administrative_area_level_1",
            "political"
          ]
        },
        {
          "long_name": "Hong Kong",
          "short_name": "HK",
          "types": [
            "country",
            "political"
          ]
        }
      ],
      "formatted_address": "King Kwong Mansion, 8 King Kwong St, Happy Valley, Hong Kong",
      "geometry": {
        "bounds": {
          "northeast": {
            "lat": 22.26931,
            "lng": 114.1853111
          },
          "southwest": {
            "lat": 22.26918,
            "lng": 114.185175
          }
        },
        "location": {
          "lat": 22.2692651,
          "lng": 114.1852486
        },
        "location_type": "ROOFTOP",
        "viewport": {
          "northeast": {
            "lat": 22.2705939802915,
            "lng": 114.1865920302915
          },
          "southwest": {
            "lat": 22.2678960197085,
            "lng": 114.1838940697085
          }
        }
      },
      "partial_match": true,
      "place_id": "ChIJz6EQnE4ABDQRXCvZoynMepE",
      "types": [
        "premise"
      ]
    }
  ],
  "geocode_tc": [
    {
      "address_components": [
        {
          "long_name": "\u865f\u8216",
          "short_name": "\u865f\u8216",
          "types": [
            "subpremise"
          ]
        },
        {
          "long_name": "\u666f\u5149\u6a13",
          "short_name": "\u666f\u5149\u6a13",
          "types": [
            "premise"
          ]
        },
        {
          "long_name": "8",
          "short_name": "8",
          "types": [
            "street_number"
          ]
        },
        {
          "long_name": "\u666f\u5149\u8857",
          "short_name": "\u666f\u5149\u8857",
          "types": [
            "route"
          ]
        },
        {
          "long_name": "\u8dd1\u99ac\u5730",
          "short_name": "\u8dd1\u99ac\u5730",
          "types": [
            "neighborhood",
            "political"
          ]
        },
        {
          "long_name": "\u9999\u6e2f\u5cf6",
          "short_name": "\u9999\u6e2f\u5cf6",
          "types": [
            "administrative_area_level_1",
            "political"
          ]
        },
        {
          "long_name": "\u9999\u6e2f",
          "short_name": "HK",
          "types": [
            "country",
            "political"
          ]
        }
      ],
      "formatted_address": "\u9999\u6e2f\u8dd1\u99ac\u5730\u666f\u5149\u88578\u865f\u666f\u5149\u6a13\u865f\u8216",
      "geometry": {
        "bounds": {
          "northeast": {
            "lat": 22.26931,
            "lng": 114.1853111
          },
          "southwest": {
            "lat": 22.26918,
            "lng": 114.185175
          }
        },
        "location": {
          "lat": 22.2692651,
          "lng": 114.1852486
        },
        "location_type": "ROOFTOP",
        "viewport": {
          "northeast": {
            "lat": 22.2705939802915,
            "lng": 114.1865920302915
          },
          "southwest": {
            "lat": 22.2678960197085,
            "lng": 114.1838940697085
          }
        }
      },
      "partial_match": true,
      "place_id": "EkTomZ_oiJYsIEtpbmcgS3dvbmcgTWFuc2lvbiwgOCBLaW5nIEt3b25nIFN0LCBIYXBweSBWYWxsZXksIEhvbmcgS29uZyIiGiAKFgoUChIJz6EQnE4ABDQRXCvZoynMepESBuiZn-iIlg",
      "types": [
        "subpremise"
      ]
    },
    {
      "address_components": [
        {
          "long_name": "\u666f\u5149\u6a13",
          "short_name": "\u666f\u5149\u6a13",
          "types": [
            "premise"
          ]
        },
        {
          "long_name": "8",
          "short_name": "8",
          "types": [
            "street_number"
          ]
        },
        {
          "long_name": "\u666f\u5149\u8857",
          "short_name": "\u666f\u5149\u8857",
          "types": [
            "route"
          ]
        },
        {
          "long_name": "\u8dd1\u99ac\u5730",
          "short_name": "\u8dd1\u99ac\u5730",
          "types": [
            "neighborhood",
            "political"
          ]
        },
        {
          "long_name": "\u9999\u6e2f\u5cf6",
          "short_name": "\u9999\u6e2f\u5cf6",
          "types": [
            "administrative_area_level_1",
            "political"
          ]
        },
        {
          "long_name": "\u9999\u6e2f",
          "short_name": "HK",
          "types": [
            "country",
            "political"
          ]
        }
      ],
      "formatted_address": "\u9999\u6e2f\u8dd1\u99ac\u5730\u666f\u5149\u88578\u865f\u666f\u5149\u6a13",
      "geometry": {
        "bounds": {
          "northeast": {
            "lat": 22.26931,
            "lng": 114.1853111
          },
          "southwest": {
            "lat": 22.26918,
            "lng": 114.185175
          }
        },
        "location": {
          "lat": 22.2692651,
          "lng": 114.1852486
        },
        "location_type": "ROOFTOP",
        "viewport": {
          "northeast": {
            "lat": 22.2705939802915,
            "lng": 114.1865920302915
          },
          "southwest": {
            "lat": 22.2678960197085,
            "lng": 114.1838940697085
          }
        }
      },
      "partial_match": true,
      "place_id": "ChIJz6EQnE4ABDQRXCvZoynMepE",
      "types": [
        "premise"
      ]
    }
  ],
  "licno": "2212810541",
  "timestamp": 1564966180,
  "version": "1564966095"
}
