{
  "adr_en": "WHEATFIELD X, GROUND FLOOR OF NO. 11 JUBILEE STREET, FU HING BUILDING, NOS. 9 & 11 JUBILEE STREET, CENTRAL, HONG KONG",
  "adr_tc": "\u9999\u6e2f\u4e2d\u74b0 \u79df\u5e87\u5229\u88579\u53ca11\u865f\u5bcc\u8208\u5927\u5ec8 \u79df\u5e87\u5229\u885711\u865f\u5730\u4e0b WHEATFIELD X",
  "geocode_en": [
    {
      "address_components": [
        {
          "long_name": "Central",
          "short_name": "Central",
          "types": [
            "neighborhood",
            "political"
          ]
        },
        {
          "long_name": "Hong Kong Island",
          "short_name": "Hong Kong Island",
          "types": [
            "administrative_area_level_1",
            "political"
          ]
        },
        {
          "long_name": "Hong Kong",
          "short_name": "HK",
          "types": [
            "country",
            "political"
          ]
        }
      ],
      "formatted_address": "Hong Kong, Central, \u79df\u5351\u5229\u885713-15\u865f\u5730\u4e0b",
      "geometry": {
        "location": {
          "lat": 22.2843083,
          "lng": 114.1552619
        },
        "location_type": "GEOMETRIC_CENTER",
        "viewport": {
          "northeast": {
            "lat": 22.2856572802915,
            "lng": 114.1566108802915
          },
          "southwest": {
            "lat": 22.2829593197085,
            "lng": 114.1539129197085
          }
        }
      },
      "partial_match": true,
      "place_id": "ChIJXwrfsHwABDQRrh6ec4uy20Q",
      "plus_code": {
        "compound_code": "75M4+P4 Central, Hong Kong",
        "global_code": "7PJP75M4+P4"
      },
      "types": [
        "establishment",
        "food",
        "point_of_interest",
        "restaurant"
      ]
    },
    {
      "address_components": [
        {
          "long_name": "11",
          "short_name": "11",
          "types": [
            "subpremise"
          ]
        },
        {
          "long_name": "Fu Hing Building",
          "short_name": "Fu Hing Building",
          "types": [
            "premise"
          ]
        },
        {
          "long_name": "9-11",
          "short_name": "9-11",
          "types": [
            "street_number"
          ]
        },
        {
          "long_name": "Jubilee Street",
          "short_name": "Jubilee St",
          "types": [
            "route"
          ]
        },
        {
          "long_name": "Central",
          "short_name": "Central",
          "types": [
            "neighborhood",
            "political"
          ]
        },
        {
          "long_name": "Hong Kong Island",
          "short_name": "Hong Kong Island",
          "types": [
            "administrative_area_level_1",
            "political"
          ]
        },
        {
          "long_name": "Hong Kong",
          "short_name": "HK",
          "types": [
            "country",
            "political"
          ]
        }
      ],
      "formatted_address": "11, Fu Hing Building, 9-11 Jubilee St, Central, Hong Kong",
      "geometry": {
        "bounds": {
          "northeast": {
            "lat": 22.284402,
            "lng": 114.1552489
          },
          "southwest": {
            "lat": 22.28424,
            "lng": 114.1550911
          }
        },
        "location": {
          "lat": 22.284336,
          "lng": 114.1551523
        },
        "location_type": "ROOFTOP",
        "viewport": {
          "northeast": {
            "lat": 22.2856699802915,
            "lng": 114.1565189802915
          },
          "southwest": {
            "lat": 22.2829720197085,
            "lng": 114.1538210197085
          }
        }
      },
      "partial_match": true,
      "place_id": "EjkxMSwgRnUgSGluZyBCdWlsZGluZywgOS0xMSBKdWJpbGVlIFN0LCBDZW50cmFsLCBIb25nIEtvbmciHhocChYKFAoSCU2fv7B8AAQ0EcSXzBERVXZcEgIxMQ",
      "types": [
        "subpremise"
      ]
    },
    {
      "address_components": [
        {
          "long_name": "9",
          "short_name": "9",
          "types": [
            "subpremise"
          ]
        },
        {
          "long_name": "Fu Hing Building",
          "short_name": "Fu Hing Building",
          "types": [
            "premise"
          ]
        },
        {
          "long_name": "9-11",
          "short_name": "9-11",
          "types": [
            "street_number"
          ]
        },
        {
          "long_name": "Jubilee Street",
          "short_name": "Jubilee St",
          "types": [
            "route"
          ]
        },
        {
          "long_name": "Central",
          "short_name": "Central",
          "types": [
            "neighborhood",
            "political"
          ]
        },
        {
          "long_name": "Hong Kong Island",
          "short_name": "Hong Kong Island",
          "types": [
            "administrative_area_level_1",
            "political"
          ]
        },
        {
          "long_name": "Hong Kong",
          "short_name": "HK",
          "types": [
            "country",
            "political"
          ]
        }
      ],
      "formatted_address": "9, Fu Hing Building, 9-11 Jubilee St, Central, Hong Kong",
      "geometry": {
        "bounds": {
          "northeast": {
            "lat": 22.284402,
            "lng": 114.1552489
          },
          "southwest": {
            "lat": 22.28424,
            "lng": 114.1550911
          }
        },
        "location": {
          "lat": 22.284336,
          "lng": 114.1551523
        },
        "location_type": "ROOFTOP",
        "viewport": {
          "northeast": {
            "lat": 22.2856699802915,
            "lng": 114.1565189802915
          },
          "southwest": {
            "lat": 22.2829720197085,
            "lng": 114.1538210197085
          }
        }
      },
      "partial_match": true,
      "place_id": "Ejg5LCBGdSBIaW5nIEJ1aWxkaW5nLCA5LTExIEp1YmlsZWUgU3QsIENlbnRyYWwsIEhvbmcgS29uZyIdGhsKFgoUChIJTZ-_sHwABDQRxJfMERFVdlwSATk",
      "types": [
        "subpremise"
      ]
    }
  ],
  "geocode_tc": [
    {
      "address_components": [
        {
          "long_name": "\u4e2d\u74b0",
          "short_name": "\u4e2d\u74b0",
          "types": [
            "neighborhood",
            "political"
          ]
        },
        {
          "long_name": "\u9999\u6e2f\u5cf6",
          "short_name": "\u9999\u6e2f\u5cf6",
          "types": [
            "administrative_area_level_1",
            "political"
          ]
        },
        {
          "long_name": "\u9999\u6e2f",
          "short_name": "HK",
          "types": [
            "country",
            "political"
          ]
        }
      ],
      "formatted_address": "\u9999\u6e2f\u4e2d\u74b0\u79df\u5351\u5229\u885713-15\u865f\u5730\u4e0b",
      "geometry": {
        "location": {
          "lat": 22.2843083,
          "lng": 114.1552619
        },
        "location_type": "GEOMETRIC_CENTER",
        "viewport": {
          "northeast": {
            "lat": 22.2856572802915,
            "lng": 114.1566108802915
          },
          "southwest": {
            "lat": 22.2829593197085,
            "lng": 114.1539129197085
          }
        }
      },
      "place_id": "ChIJXwrfsHwABDQRrh6ec4uy20Q",
      "plus_code": {
        "compound_code": "75M4+P4 \u9999\u6e2f\u4e2d\u74b0",
        "global_code": "7PJP75M4+P4"
      },
      "types": [
        "establishment",
        "food",
        "point_of_interest",
        "restaurant"
      ]
    }
  ],
  "licno": "2218811315",
  "timestamp": 1564968756,
  "version": "1564966095"
}
