{
  "adr_en": "\u5c0f\u660e\u73e0\u5ddd\u6eec\u62c9\u9eb5\u5c0f\u7c60\u5305, SHOP NO. 1, G/F, 49 KAI TIN ROAD, LAM TIN, KOWLOON",
  "adr_tc": "\u4e5d\u9f8d\u85cd\u7530\u555f\u7530\u905349\u865f\u5730\u4e0b1\u865f\u92ea \u5c0f\u660e\u73e0\u5ddd\u6eec\u62c9\u9eb5\u5c0f\u7c60\u5305",
  "geocode_en": [
    {
      "address_components": [
        {
          "long_name": "Shanghai",
          "short_name": "Shanghai",
          "types": [
            "locality",
            "political"
          ]
        },
        {
          "long_name": "Shanghai",
          "short_name": "Shanghai",
          "types": [
            "administrative_area_level_1",
            "political"
          ]
        },
        {
          "long_name": "China",
          "short_name": "CN",
          "types": [
            "country",
            "political"
          ]
        }
      ],
      "formatted_address": "Shanghai, China",
      "geometry": {
        "bounds": {
          "northeast": {
            "lat": 31.8727163,
            "lng": 122.2471487
          },
          "southwest": {
            "lat": 30.6755933,
            "lng": 120.8568044
          }
        },
        "location": {
          "lat": 31.230416,
          "lng": 121.473701
        },
        "location_type": "APPROXIMATE",
        "viewport": {
          "northeast": {
            "lat": 31.6688967,
            "lng": 122.1137989
          },
          "southwest": {
            "lat": 30.7798012,
            "lng": 120.8397067
          }
        }
      },
      "partial_match": true,
      "place_id": "ChIJMzz1sUBwsjURoWTDI5QSlQI",
      "types": [
        "locality",
        "political"
      ]
    },
    {
      "address_components": [
        {
          "long_name": "SHOP NO. 1, G",
          "short_name": "SHOP NO. 1, G",
          "types": [
            "subpremise"
          ]
        },
        {
          "long_name": "49",
          "short_name": "49",
          "types": [
            "street_number"
          ]
        },
        {
          "long_name": "Kai Tin Road",
          "short_name": "Kai Tin Rd",
          "types": [
            "route"
          ]
        },
        {
          "long_name": "Lam Tin",
          "short_name": "Lam Tin",
          "types": [
            "neighborhood",
            "political"
          ]
        },
        {
          "long_name": "Kowloon",
          "short_name": "Kowloon",
          "types": [
            "administrative_area_level_1",
            "political"
          ]
        },
        {
          "long_name": "Hong Kong",
          "short_name": "HK",
          "types": [
            "country",
            "political"
          ]
        }
      ],
      "formatted_address": "SHOP NO. 1, G, 49 Kai Tin Rd, Lam Tin, Hong Kong",
      "geometry": {
        "location": {
          "lat": 22.3081355,
          "lng": 114.234421
        },
        "location_type": "ROOFTOP",
        "viewport": {
          "northeast": {
            "lat": 22.3094844802915,
            "lng": 114.2357699802915
          },
          "southwest": {
            "lat": 22.3067865197085,
            "lng": 114.2330720197085
          }
        }
      },
      "partial_match": true,
      "place_id": "EjBTSE9QIE5PLiAxLCBHLCA0OSBLYWkgVGluIFJkLCBMYW0gVGluLCBIb25nIEtvbmciKRonChYKFAoSCXFYfJZZAQQ0EW79o8CXPYQzEg1TSE9QIE5PLiAxLCBH",
      "types": [
        "subpremise"
      ]
    }
  ],
  "geocode_tc": [
    {
      "address_components": [
        {
          "long_name": "1, \u865f\u8216",
          "short_name": "1, \u865f\u8216",
          "types": [
            "subpremise"
          ]
        },
        {
          "long_name": "49\u865f",
          "short_name": "49\u865f",
          "types": [
            "street_number"
          ]
        },
        {
          "long_name": "\u5553\u7530\u9053",
          "short_name": "\u5553\u7530\u9053",
          "types": [
            "route"
          ]
        },
        {
          "long_name": "\u85cd\u7530",
          "short_name": "\u85cd\u7530",
          "types": [
            "neighborhood",
            "political"
          ]
        },
        {
          "long_name": "\u4e5d\u9f8d",
          "short_name": "\u4e5d\u9f8d",
          "types": [
            "administrative_area_level_1",
            "political"
          ]
        },
        {
          "long_name": "\u9999\u6e2f",
          "short_name": "HK",
          "types": [
            "country",
            "political"
          ]
        }
      ],
      "formatted_address": "\u9999\u6e2f\u85cd\u7530\u5553\u7530\u905349\u865f1, \u865f\u8216",
      "geometry": {
        "location": {
          "lat": 22.3081355,
          "lng": 114.234421
        },
        "location_type": "ROOFTOP",
        "viewport": {
          "northeast": {
            "lat": 22.3094844802915,
            "lng": 114.2357699802915
          },
          "southwest": {
            "lat": 22.3067865197085,
            "lng": 114.2330720197085
          }
        }
      },
      "place_id": "ChIJLxRZg70BBDQRasiBPkhyBt4",
      "plus_code": {
        "compound_code": "865M+7Q \u9999\u6e2f",
        "global_code": "7PJP865M+7Q"
      },
      "types": [
        "establishment",
        "food",
        "point_of_interest",
        "restaurant"
      ]
    }
  ],
  "licno": "2251806297",
  "timestamp": 1564968756,
  "version": "1564966095"
}
