{
  "adr_en": "\u6052\u6a02\u9910\u5ef3\u83dc\u9928, G/F, LOT 1510, 13B PAK SHE PRAYA ROAD, CHEUNG CHAU, NEW TERRITORIES",
  "adr_tc": "\u9577\u6d32\u5317\u793e\u6d77\u508d\u8def13B\u865f1510\u5730\u6bb5\u5730\u4e0b \u6052\u6a02\u9910\u5ef3\u83dc\u9928",
  "geocode_en": [
    {
      "address_components": [
        {
          "long_name": "Hong Kong",
          "short_name": "HK",
          "types": [
            "country",
            "political"
          ]
        }
      ],
      "formatted_address": "Hong Kong, \u9577\u6d32\u5317\u793e\u6d77\u508d\u8def13B\u865f1510\u5730\u6bb5\u5730\u4e0b",
      "geometry": {
        "location": {
          "lat": 22.2111046,
          "lng": 114.027519
        },
        "location_type": "GEOMETRIC_CENTER",
        "viewport": {
          "northeast": {
            "lat": 22.2124535802915,
            "lng": 114.0288679802915
          },
          "southwest": {
            "lat": 22.2097556197085,
            "lng": 114.0261700197085
          }
        }
      },
      "partial_match": true,
      "place_id": "ChIJz8McAo1WATQRhwaXwJSBy3U",
      "plus_code": {
        "compound_code": "626H+C2 Hong Kong",
        "global_code": "7PJP626H+C2"
      },
      "types": [
        "establishment",
        "food",
        "point_of_interest",
        "restaurant"
      ]
    },
    {
      "address_components": [
        {
          "long_name": "G/F, LOT",
          "short_name": "G/F, LOT",
          "types": [
            "subpremise"
          ]
        },
        {
          "long_name": "13",
          "short_name": "13",
          "types": [
            "street_number"
          ]
        },
        {
          "long_name": "Pak She Praya Road",
          "short_name": "Pak She Praya Rd",
          "types": [
            "route"
          ]
        },
        {
          "long_name": "Cheung Chau",
          "short_name": "Cheung Chau",
          "types": [
            "neighborhood",
            "political"
          ]
        },
        {
          "long_name": "New Territories",
          "short_name": "New Territories",
          "types": [
            "administrative_area_level_1",
            "political"
          ]
        },
        {
          "long_name": "Hong Kong",
          "short_name": "HK",
          "types": [
            "country",
            "political"
          ]
        }
      ],
      "formatted_address": "G/F, LOT, 13 Pak She Praya Rd, Cheung Chau, Hong Kong",
      "geometry": {
        "location": {
          "lat": 22.210653,
          "lng": 114.0279261
        },
        "location_type": "RANGE_INTERPOLATED",
        "viewport": {
          "northeast": {
            "lat": 22.2120019802915,
            "lng": 114.0292750802915
          },
          "southwest": {
            "lat": 22.2093040197085,
            "lng": 114.0265771197085
          }
        }
      },
      "partial_match": true,
      "place_id": "EihHL0YsIExPVCwgMTMgUGFrIFNoZSBQcmF5YSBSZCwgSG9uZyBLb25nIigaJgoaEhgKFAoSCaEkIgeNVgE0EW8mUI6WRYVUEA0SCEcvRiwgTE9U",
      "types": [
        "subpremise"
      ]
    }
  ],
  "geocode_tc": [
    {
      "address_components": [
        {
          "long_name": "\u9999\u6e2f",
          "short_name": "HK",
          "types": [
            "country",
            "political"
          ]
        }
      ],
      "formatted_address": "\u9999\u6e2f\u9577\u6d32\u5317\u793e\u6d77\u508d\u8def13B\u865f1510\u5730\u6bb5\u5730\u4e0b",
      "geometry": {
        "location": {
          "lat": 22.2111046,
          "lng": 114.027519
        },
        "location_type": "GEOMETRIC_CENTER",
        "viewport": {
          "northeast": {
            "lat": 22.2124535802915,
            "lng": 114.0288679802915
          },
          "southwest": {
            "lat": 22.2097556197085,
            "lng": 114.0261700197085
          }
        }
      },
      "place_id": "ChIJz8McAo1WATQRhwaXwJSBy3U",
      "plus_code": {
        "compound_code": "626H+C2 \u9999\u6e2f",
        "global_code": "7PJP626H+C2"
      },
      "types": [
        "establishment",
        "food",
        "point_of_interest",
        "restaurant"
      ]
    }
  ],
  "licno": "2217001157",
  "timestamp": 1564968756,
  "version": "1564966095"
}
