{
  "adr_en": "\u7f8e\u5229, SHOP 218G & 218H, CENTRAL SERVICES BLDG, NAM FUNG INDUSTRIAL CITY, 18 TIN HAU ROAD, TUEN MUN, NEW TERRITORIES",
  "adr_tc": "\u65b0\u754c\u5c6f\u9580\u5929\u540e\u8def18\u865f\u5357\u8c50\u5de5\u696d\u57ce\u4e2d\u592e\u5927\u6a13218G\u53ca218 H \u5ba4 \u7f8e\u5229",
  "geocode_en": [
    {
      "address_components": [
        {
          "long_name": "Hong Kong",
          "short_name": "HK",
          "types": [
            "country",
            "political"
          ]
        }
      ],
      "formatted_address": "Room 701 & 702, 7/F, Block 5, Nan Fung Industrial City, 18 Tin Hau Road, Tuen Mun, New Territories, Hong Kong",
      "geometry": {
        "location": {
          "lat": 22.388576,
          "lng": 113.967787
        },
        "location_type": "GEOMETRIC_CENTER",
        "viewport": {
          "northeast": {
            "lat": 22.3899249802915,
            "lng": 113.9691359802915
          },
          "southwest": {
            "lat": 22.3872270197085,
            "lng": 113.9664380197085
          }
        }
      },
      "partial_match": true,
      "place_id": "ChIJOxAfrjn7AzQRAnTFo4WXsSo",
      "plus_code": {
        "compound_code": "9XQ9+C4 Hong Kong",
        "global_code": "7PJM9XQ9+C4"
      },
      "types": [
        "establishment",
        "point_of_interest"
      ]
    },
    {
      "address_components": [
        {
          "long_name": "Central",
          "short_name": "Central",
          "types": [
            "neighborhood",
            "political"
          ]
        },
        {
          "long_name": "Hong Kong Island",
          "short_name": "Hong Kong Island",
          "types": [
            "administrative_area_level_1",
            "political"
          ]
        },
        {
          "long_name": "Hong Kong",
          "short_name": "HK",
          "types": [
            "country",
            "political"
          ]
        }
      ],
      "formatted_address": "Central, Hong Kong",
      "geometry": {
        "bounds": {
          "northeast": {
            "lat": 22.2890069,
            "lng": 114.1689992
          },
          "southwest": {
            "lat": 22.2752298,
            "lng": 114.1506367
          }
        },
        "location": {
          "lat": 22.2799907,
          "lng": 114.1587983
        },
        "location_type": "APPROXIMATE",
        "viewport": {
          "northeast": {
            "lat": 22.2890069,
            "lng": 114.1689992
          },
          "southwest": {
            "lat": 22.2752298,
            "lng": 114.1506367
          }
        }
      },
      "partial_match": true,
      "place_id": "ChIJvdEdo2QABDQRUrXM3junB1A",
      "types": [
        "neighborhood",
        "political"
      ]
    },
    {
      "address_components": [
        {
          "long_name": "18",
          "short_name": "18",
          "types": [
            "street_number"
          ]
        },
        {
          "long_name": "Tin Hau Road",
          "short_name": "Tin Hau Rd",
          "types": [
            "route"
          ]
        },
        {
          "long_name": "Tuen Mun",
          "short_name": "Tuen Mun",
          "types": [
            "neighborhood",
            "political"
          ]
        },
        {
          "long_name": "New Territories",
          "short_name": "New Territories",
          "types": [
            "administrative_area_level_1",
            "political"
          ]
        },
        {
          "long_name": "Hong Kong",
          "short_name": "HK",
          "types": [
            "country",
            "political"
          ]
        }
      ],
      "formatted_address": "18 Tin Hau Rd, Tuen Mun, Hong Kong",
      "geometry": {
        "bounds": {
          "northeast": {
            "lat": 22.3902948,
            "lng": 113.9687964
          },
          "southwest": {
            "lat": 22.3882536,
            "lng": 113.9672247
          }
        },
        "location": {
          "lat": 22.3893426,
          "lng": 113.9679581
        },
        "location_type": "GEOMETRIC_CENTER",
        "viewport": {
          "northeast": {
            "lat": 22.3906231802915,
            "lng": 113.9693595302915
          },
          "southwest": {
            "lat": 22.3879252197085,
            "lng": 113.9666615697085
          }
        }
      },
      "partial_match": true,
      "place_id": "ChIJgzJnozn7AzQRRETC_q-xYxs",
      "types": [
        "establishment",
        "premise"
      ]
    }
  ],
  "geocode_tc": [
    {
      "address_components": [
        {
          "long_name": "Nan Fung Industrial City Central Services Building",
          "short_name": "Nan Fung Industrial City Central Services Building",
          "types": [
            "premise"
          ]
        },
        {
          "long_name": "18",
          "short_name": "18",
          "types": [
            "street_number"
          ]
        },
        {
          "long_name": "Tin Hau Road",
          "short_name": "Tin Hau Rd",
          "types": [
            "route"
          ]
        },
        {
          "long_name": "Tuen Mun",
          "short_name": "Tuen Mun",
          "types": [
            "neighborhood",
            "political"
          ]
        },
        {
          "long_name": "\u9999\u6e2f",
          "short_name": "HK",
          "types": [
            "country",
            "political"
          ]
        }
      ],
      "formatted_address": "\u865f 2 \u697c 218H-218G, Nan Fung Industrial City Central Services Building, 18 Tin Hau Rd, Tuen Mun, \u9999\u6e2f",
      "geometry": {
        "location": {
          "lat": 22.3893424,
          "lng": 113.9679019
        },
        "location_type": "ROOFTOP",
        "viewport": {
          "northeast": {
            "lat": 22.3906913802915,
            "lng": 113.9692508802915
          },
          "southwest": {
            "lat": 22.3879934197085,
            "lng": 113.9665529197085
          }
        }
      },
      "partial_match": true,
      "place_id": "ChIJSQQdozn7AzQREvoaRMWXuZA",
      "plus_code": {
        "compound_code": "9XQ9+P5 \u9999\u6e2f",
        "global_code": "7PJM9XQ9+P5"
      },
      "types": [
        "establishment",
        "food",
        "point_of_interest",
        "restaurant"
      ]
    }
  ],
  "licno": "2293001481",
  "timestamp": 1564968756,
  "version": "1564966095"
}
