{
  "adr_en": "YI HUNG YUEN HOTPOT CUISINE, SHOP B & C ON G/F. & UNIT 102, 103 & 104 ON 1/F., YU YUET LAI BUILDING, 43-55 WYNDHAM STREET, CENTRAL, HONG KONG",
  "adr_tc": "\u9999\u6e2f\u4e2d\u74b0\u96f2\u54b8\u885743-55\u865f\u4f59\u6085\u79ae\u884c 1\u6a13102,103,104\u865f\u92ea\u53ca\u5730\u4e0bB\u53caC\u92ea \u6021\u7d05\u9662\u706b\u934b\u6599\u7406",
  "geocode_en": [
    {
      "address_components": [
        {
          "long_name": "Central",
          "short_name": "Central",
          "types": [
            "neighborhood",
            "political"
          ]
        },
        {
          "long_name": "Hong Kong Island",
          "short_name": "Hong Kong Island",
          "types": [
            "administrative_area_level_1",
            "political"
          ]
        },
        {
          "long_name": "Hong Kong",
          "short_name": "HK",
          "types": [
            "country",
            "political"
          ]
        }
      ],
      "formatted_address": "Hong Kong, Central, Shop B & C, G/F, Yu Yuet Lai Building, 43-55 Wyndham Street",
      "geometry": {
        "location": {
          "lat": 22.2809354,
          "lng": 114.1548684
        },
        "location_type": "GEOMETRIC_CENTER",
        "viewport": {
          "northeast": {
            "lat": 22.2822843802915,
            "lng": 114.1562173802915
          },
          "southwest": {
            "lat": 22.2795864197085,
            "lng": 114.1535194197085
          }
        }
      },
      "partial_match": true,
      "place_id": "ChIJo7DNTn8BBDQRLUgU8LjeJmI",
      "plus_code": {
        "compound_code": "75J3+9W Central, Hong Kong",
        "global_code": "7PJP75J3+9W"
      },
      "types": [
        "establishment",
        "food",
        "point_of_interest",
        "restaurant"
      ]
    },
    {
      "address_components": [
        {
          "long_name": "Yu Yuet Lai Building",
          "short_name": "Yu Yuet Lai Building",
          "types": [
            "premise"
          ]
        },
        {
          "long_name": "43-55",
          "short_name": "43-55",
          "types": [
            "street_number"
          ]
        },
        {
          "long_name": "Wyndham Street",
          "short_name": "Wyndham St",
          "types": [
            "route"
          ]
        },
        {
          "long_name": "Central",
          "short_name": "Central",
          "types": [
            "neighborhood",
            "political"
          ]
        },
        {
          "long_name": "Hong Kong Island",
          "short_name": "Hong Kong Island",
          "types": [
            "administrative_area_level_1",
            "political"
          ]
        },
        {
          "long_name": "Hong Kong",
          "short_name": "HK",
          "types": [
            "country",
            "political"
          ]
        }
      ],
      "formatted_address": "Yu Yuet Lai Building, 43-55 Wyndham St, Central, Hong Kong",
      "geometry": {
        "bounds": {
          "northeast": {
            "lat": 22.281167,
            "lng": 114.155014
          },
          "southwest": {
            "lat": 22.2806801,
            "lng": 114.154846
          }
        },
        "location": {
          "lat": 22.280928,
          "lng": 114.1549201
        },
        "location_type": "ROOFTOP",
        "viewport": {
          "northeast": {
            "lat": 22.2822725302915,
            "lng": 114.1562789802915
          },
          "southwest": {
            "lat": 22.2795745697085,
            "lng": 114.1535810197085
          }
        }
      },
      "partial_match": true,
      "place_id": "ChIJEc57JnsABDQRIkR35GcvDTg",
      "types": [
        "premise"
      ]
    }
  ],
  "geocode_tc": [
    {
      "address_components": [
        {
          "long_name": "\u92ea\u53ca\u5730\u4e0bB",
          "short_name": "\u92ea\u53ca\u5730\u4e0bB",
          "types": [
            "subpremise"
          ]
        },
        {
          "long_name": "\u4f59\u6085\u79ae\u884c",
          "short_name": "\u4f59\u6085\u79ae\u884c",
          "types": [
            "premise"
          ]
        },
        {
          "long_name": "43-55",
          "short_name": "43-55",
          "types": [
            "street_number"
          ]
        },
        {
          "long_name": "\u96f2\u54b8\u8857",
          "short_name": "\u96f2\u54b8\u8857",
          "types": [
            "route"
          ]
        },
        {
          "long_name": "\u4e2d\u74b0",
          "short_name": "\u4e2d\u74b0",
          "types": [
            "neighborhood",
            "political"
          ]
        },
        {
          "long_name": "\u9999\u6e2f\u5cf6",
          "short_name": "\u9999\u6e2f\u5cf6",
          "types": [
            "administrative_area_level_1",
            "political"
          ]
        },
        {
          "long_name": "\u9999\u6e2f",
          "short_name": "HK",
          "types": [
            "country",
            "political"
          ]
        }
      ],
      "formatted_address": "\u9999\u6e2f\u4e2d\u74b0\u96f2\u54b8\u885743-55\u865f\u4f59\u6085\u79ae\u884c\u92ea\u53ca\u5730\u4e0bB",
      "geometry": {
        "bounds": {
          "northeast": {
            "lat": 22.281167,
            "lng": 114.155014
          },
          "southwest": {
            "lat": 22.2806801,
            "lng": 114.154846
          }
        },
        "location": {
          "lat": 22.280928,
          "lng": 114.1549201
        },
        "location_type": "ROOFTOP",
        "viewport": {
          "northeast": {
            "lat": 22.2822725302915,
            "lng": 114.1562789802915
          },
          "southwest": {
            "lat": 22.2795745697085,
            "lng": 114.1535810197085
          }
        }
      },
      "partial_match": true,
      "place_id": "Eknpi6rlj4rlnLDkuItCLCBZdSBZdWV0IExhaSBCdWlsZGluZywgNDMtNTUgV3luZGhhbSBTdCwgQ2VudHJhbCwgSG9uZyBLb25nIikaJwoWChQKEgkRznsmewAENBEiRHfkZy8NOBIN6Yuq5Y-K5Zyw5LiLQg",
      "types": [
        "subpremise"
      ]
    },
    {
      "address_components": [
        {
          "long_name": "\u865f\u92ea\u53ca\u5730\u4e0b",
          "short_name": "\u865f\u92ea\u53ca\u5730\u4e0b",
          "types": [
            "subpremise"
          ]
        },
        {
          "long_name": "\u4f59\u6085\u79ae\u884c",
          "short_name": "\u4f59\u6085\u79ae\u884c",
          "types": [
            "premise"
          ]
        },
        {
          "long_name": "43-55",
          "short_name": "43-55",
          "types": [
            "street_number"
          ]
        },
        {
          "long_name": "\u96f2\u54b8\u8857",
          "short_name": "\u96f2\u54b8\u8857",
          "types": [
            "route"
          ]
        },
        {
          "long_name": "\u4e2d\u74b0",
          "short_name": "\u4e2d\u74b0",
          "types": [
            "neighborhood",
            "political"
          ]
        },
        {
          "long_name": "\u9999\u6e2f\u5cf6",
          "short_name": "\u9999\u6e2f\u5cf6",
          "types": [
            "administrative_area_level_1",
            "political"
          ]
        },
        {
          "long_name": "\u9999\u6e2f",
          "short_name": "HK",
          "types": [
            "country",
            "political"
          ]
        }
      ],
      "formatted_address": "\u9999\u6e2f\u4e2d\u74b0\u96f2\u54b8\u885743-55\u865f\u4f59\u6085\u79ae\u884c\u865f\u92ea\u53ca\u5730\u4e0b",
      "geometry": {
        "bounds": {
          "northeast": {
            "lat": 22.281167,
            "lng": 114.155014
          },
          "southwest": {
            "lat": 22.2806801,
            "lng": 114.154846
          }
        },
        "location": {
          "lat": 22.280928,
          "lng": 114.1549201
        },
        "location_type": "ROOFTOP",
        "viewport": {
          "northeast": {
            "lat": 22.2822725302915,
            "lng": 114.1562789802915
          },
          "southwest": {
            "lat": 22.2795745697085,
            "lng": 114.1535810197085
          }
        }
      },
      "partial_match": true,
      "place_id": "EkvomZ_pi6rlj4rlnLDkuIssIFl1IFl1ZXQgTGFpIEJ1aWxkaW5nLCA0My01NSBXeW5kaGFtIFN0LCBDZW50cmFsLCBIb25nIEtvbmciKxopChYKFAoSCRHOeyZ7AAQ0ESJEd-RnLw04Eg_omZ_pi6rlj4rlnLDkuIs",
      "types": [
        "subpremise"
      ]
    },
    {
      "address_components": [
        {
          "long_name": "\u4e2d\u74b0",
          "short_name": "\u4e2d\u74b0",
          "types": [
            "neighborhood",
            "political"
          ]
        },
        {
          "long_name": "\u9999\u6e2f\u5cf6",
          "short_name": "\u9999\u6e2f\u5cf6",
          "types": [
            "administrative_area_level_1",
            "political"
          ]
        },
        {
          "long_name": "\u9999\u6e2f",
          "short_name": "HK",
          "types": [
            "country",
            "political"
          ]
        }
      ],
      "formatted_address": "\u9999\u6e2f\u4e2d\u74b0Shop B & C, G/F, Yu Yuet Lai Building, 43-55 Wyndham Street",
      "geometry": {
        "location": {
          "lat": 22.2809354,
          "lng": 114.1548684
        },
        "location_type": "GEOMETRIC_CENTER",
        "viewport": {
          "northeast": {
            "lat": 22.2822843802915,
            "lng": 114.1562173802915
          },
          "southwest": {
            "lat": 22.2795864197085,
            "lng": 114.1535194197085
          }
        }
      },
      "partial_match": true,
      "place_id": "ChIJo7DNTn8BBDQRLUgU8LjeJmI",
      "plus_code": {
        "compound_code": "75J3+9W \u9999\u6e2f\u4e2d\u74b0",
        "global_code": "7PJP75J3+9W"
      },
      "types": [
        "establishment",
        "food",
        "point_of_interest",
        "restaurant"
      ]
    }
  ],
  "licno": "3818813866",
  "timestamp": 1564975666,
  "version": "1564966095"
}
