{
  "adr_en": "(no record found), SHOP B02, BASEMENT, TOWER 535, 535 JAFFE ROAD, CAUSEWAY BAY, HONG KONG",
  "adr_tc": "\u9999\u6e2f\u9285\u947c\u7063\u8b1d\u6590\u9053535\u865fTOWER 535\u5730\u5eabB02\u92ea (\u6c92\u6709\u8a18\u9304)",
  "geocode_en": [
    {
      "address_components": [
        {
          "long_name": "SHOP B02, BASEMENT, TOWER",
          "short_name": "SHOP B02, BASEMENT, TOWER",
          "types": [
            "subpremise"
          ]
        },
        {
          "long_name": "535",
          "short_name": "535",
          "types": [
            "street_number"
          ]
        },
        {
          "long_name": "Jaffe Road",
          "short_name": "Jaffe Rd",
          "types": [
            "route"
          ]
        },
        {
          "long_name": "Causeway Bay",
          "short_name": "Causeway Bay",
          "types": [
            "neighborhood",
            "political"
          ]
        },
        {
          "long_name": "Hong Kong Island",
          "short_name": "Hong Kong Island",
          "types": [
            "administrative_area_level_1",
            "political"
          ]
        },
        {
          "long_name": "Hong Kong",
          "short_name": "HK",
          "types": [
            "country",
            "political"
          ]
        }
      ],
      "formatted_address": "SHOP B02, BASEMENT, TOWER, 535 Jaffe Rd, Causeway Bay, Hong Kong",
      "geometry": {
        "bounds": {
          "northeast": {
            "lat": 22.281559,
            "lng": 114.184111
          },
          "southwest": {
            "lat": 22.281226,
            "lng": 114.183757
          }
        },
        "location": {
          "lat": 22.2813968,
          "lng": 114.1839249
        },
        "location_type": "ROOFTOP",
        "viewport": {
          "northeast": {
            "lat": 22.2827414802915,
            "lng": 114.1852829802915
          },
          "southwest": {
            "lat": 22.2800435197085,
            "lng": 114.1825850197085
          }
        }
      },
      "partial_match": true,
      "place_id": "EkBTSE9QIEIwMiwgQkFTRU1FTlQsIFRPV0VSLCA1MzUgSmFmZmUgUmQsIENhdXNld2F5IEJheSwgSG9uZyBLb25nIjUaMwoWChQKEgm5mu_0VgAENBEymGsUpI4kshIZU0hPUCBCMDIsIEJBU0VNRU5ULCBUT1dFUg",
      "types": [
        "subpremise"
      ]
    }
  ],
  "geocode_tc": [
    {
      "address_components": [
        {
          "long_name": "TOWER 535\u5730\u5eab",
          "short_name": "TOWER 535\u5730\u5eab",
          "types": [
            "subpremise"
          ]
        },
        {
          "long_name": "535",
          "short_name": "535",
          "types": [
            "street_number"
          ]
        },
        {
          "long_name": "\u8b1d\u6590\u9053",
          "short_name": "\u8b1d\u6590\u9053",
          "types": [
            "route"
          ]
        },
        {
          "long_name": "\u9285\u947c\u7063",
          "short_name": "\u9285\u947c\u7063",
          "types": [
            "neighborhood",
            "political"
          ]
        },
        {
          "long_name": "\u9999\u6e2f\u5cf6",
          "short_name": "\u9999\u6e2f\u5cf6",
          "types": [
            "administrative_area_level_1",
            "political"
          ]
        },
        {
          "long_name": "\u9999\u6e2f",
          "short_name": "HK",
          "types": [
            "country",
            "political"
          ]
        }
      ],
      "formatted_address": "\u9999\u6e2f\u9285\u947c\u7063\u8b1d\u6590\u9053535\u865fTOWER 535\u5730\u5eab",
      "geometry": {
        "bounds": {
          "northeast": {
            "lat": 22.281559,
            "lng": 114.184111
          },
          "southwest": {
            "lat": 22.281226,
            "lng": 114.183757
          }
        },
        "location": {
          "lat": 22.2813968,
          "lng": 114.1839249
        },
        "location_type": "ROOFTOP",
        "viewport": {
          "northeast": {
            "lat": 22.2827414802915,
            "lng": 114.1852829802915
          },
          "southwest": {
            "lat": 22.2800435197085,
            "lng": 114.1825850197085
          }
        }
      },
      "partial_match": true,
      "place_id": "EjZUT1dFUiA1MzXlnLDluqssIDUzNSBKYWZmZSBSZCwgQ2F1c2V3YXkgQmF5LCBIb25nIEtvbmciKxopChYKFAoSCbma7_RWAAQ0ETKYaxSkjiSyEg9UT1dFUiA1MzXlnLDluqs",
      "types": [
        "subpremise"
      ]
    }
  ],
  "licno": "3812817705",
  "timestamp": 1564975666,
  "version": "1564966095"
}
