{
  "adr_en": "\u767e\u6a02\u9580, LOWER G/F, (PORTION B &C), SOUTH SEA CENTRE, 75 MODY ROAD, TSIM SHA TSUI, KOWLOON",
  "adr_tc": "\u4e5d\u9f8d\u5c16\u6c99\u5480\u9ebc\u5730\u905375\u865f \u5357\u6d0b\u4e2d\u5fc3\u4f4e\u5c64\u5730\u4e0b(B\u53caC\u90e8\u4efd) \u767e\u6a02\u9580",
  "geocode_en": [
    {
      "address_components": [
        {
          "long_name": "South Seas Centre",
          "short_name": "South Seas Centre",
          "types": [
            "premise"
          ]
        },
        {
          "long_name": "75",
          "short_name": "75",
          "types": [
            "street_number"
          ]
        },
        {
          "long_name": "Mody Road",
          "short_name": "Mody Rd",
          "types": [
            "route"
          ]
        },
        {
          "long_name": "Tsim Sha Tsui East",
          "short_name": "Tsim Sha Tsui East",
          "types": [
            "neighborhood",
            "political"
          ]
        },
        {
          "long_name": "Kowloon",
          "short_name": "Kowloon",
          "types": [
            "administrative_area_level_1",
            "political"
          ]
        },
        {
          "long_name": "Hong Kong",
          "short_name": "HK",
          "types": [
            "country",
            "political"
          ]
        }
      ],
      "formatted_address": "South Seas Centre, 75 Mody Rd, Tsim Sha Tsui East, Hong Kong",
      "geometry": {
        "bounds": {
          "northeast": {
            "lat": 22.3000879,
            "lng": 114.1791179
          },
          "southwest": {
            "lat": 22.2992719,
            "lng": 114.1782779
          }
        },
        "location": {
          "lat": 22.299604,
          "lng": 114.1787697
        },
        "location_type": "ROOFTOP",
        "viewport": {
          "northeast": {
            "lat": 22.3010288802915,
            "lng": 114.1800468802915
          },
          "southwest": {
            "lat": 22.29833091970849,
            "lng": 114.1773489197085
          }
        }
      },
      "partial_match": true,
      "place_id": "ChIJrQP8cO8ABDQRcs5x7zK90Mo",
      "types": [
        "premise"
      ]
    },
    {
      "address_components": [
        {
          "long_name": "South Seas Centre",
          "short_name": "South Seas Centre",
          "types": [
            "premise"
          ]
        },
        {
          "long_name": "75",
          "short_name": "75",
          "types": [
            "street_number"
          ]
        },
        {
          "long_name": "Mody Road",
          "short_name": "Mody Rd",
          "types": [
            "route"
          ]
        },
        {
          "long_name": "Tsim Sha Tsui East",
          "short_name": "Tsim Sha Tsui East",
          "types": [
            "neighborhood",
            "political"
          ]
        },
        {
          "long_name": "Kowloon",
          "short_name": "Kowloon",
          "types": [
            "administrative_area_level_1",
            "political"
          ]
        },
        {
          "long_name": "Hong Kong",
          "short_name": "HK",
          "types": [
            "country",
            "political"
          ]
        }
      ],
      "formatted_address": "South Seas Centre, 75 Mody Rd, Tsim Sha Tsui East, Hong Kong",
      "geometry": {
        "bounds": {
          "northeast": {
            "lat": 22.3000879,
            "lng": 114.1791179
          },
          "southwest": {
            "lat": 22.2992719,
            "lng": 114.1782779
          }
        },
        "location": {
          "lat": 22.299604,
          "lng": 114.1787697
        },
        "location_type": "ROOFTOP",
        "viewport": {
          "northeast": {
            "lat": 22.3010288802915,
            "lng": 114.1800468802915
          },
          "southwest": {
            "lat": 22.29833091970849,
            "lng": 114.1773489197085
          }
        }
      },
      "partial_match": true,
      "place_id": "ChIJrQP8cO8ABDQRcs5x7zK90Mo",
      "types": [
        "premise"
      ]
    }
  ],
  "geocode_tc": [
    {
      "address_components": [
        {
          "long_name": "\u9999\u6e2f",
          "short_name": "HK",
          "types": [
            "country",
            "political"
          ]
        }
      ],
      "formatted_address": "\u9999\u6e2f\u5c16\u6c99\u5480\u9ebc\u5730\u905375\u865f\u5357\u6d0b\u4e2d\u5fc3LG",
      "geometry": {
        "location": {
          "lat": 22.299837,
          "lng": 114.178296
        },
        "location_type": "GEOMETRIC_CENTER",
        "viewport": {
          "northeast": {
            "lat": 22.3011859802915,
            "lng": 114.1796449802915
          },
          "southwest": {
            "lat": 22.2984880197085,
            "lng": 114.1769470197085
          }
        }
      },
      "place_id": "ChIJrQP8cO8ABDQRgmYnp3-o4Rs",
      "plus_code": {
        "compound_code": "75XH+W8 \u9999\u6e2f",
        "global_code": "7PJP75XH+W8"
      },
      "types": [
        "establishment",
        "food",
        "point_of_interest",
        "restaurant"
      ]
    }
  ],
  "licno": "2261092851",
  "timestamp": 1564968756,
  "version": "1564966095"
}
