{
  "adr_en": "\u5f37\u8a18, G/F., 53 KAT HING STREET, TAI O, LANTAU ISLAND, NEW TERRITORIES",
  "adr_tc": "\u5927\u5dbc\u5c71\u5927\u6fb3\u5409\u6176\u885753\u865f\u5730\u4e0b \u5f37\u8a18",
  "geocode_en": [
    {
      "address_components": [
        {
          "long_name": "G",
          "short_name": "G",
          "types": [
            "subpremise"
          ]
        },
        {
          "long_name": "53 Kat Hing Street",
          "short_name": "53 Kat Hing Street",
          "types": [
            "premise"
          ]
        },
        {
          "long_name": "53",
          "short_name": "53",
          "types": [
            "street_number"
          ]
        },
        {
          "long_name": "Kat Hing Street",
          "short_name": "Kat Hing St",
          "types": [
            "route"
          ]
        },
        {
          "long_name": "Tai O",
          "short_name": "Tai O",
          "types": [
            "neighborhood",
            "political"
          ]
        },
        {
          "long_name": "New Territories",
          "short_name": "New Territories",
          "types": [
            "administrative_area_level_1",
            "political"
          ]
        },
        {
          "long_name": "Hong Kong",
          "short_name": "HK",
          "types": [
            "country",
            "political"
          ]
        }
      ],
      "formatted_address": "G, 53 Kat Hing Street, 53 Kat Hing St, Tai O, Hong Kong",
      "geometry": {
        "bounds": {
          "northeast": {
            "lat": 22.254767,
            "lng": 113.862823
          },
          "southwest": {
            "lat": 22.2546859,
            "lng": 113.86278
          }
        },
        "location": {
          "lat": 22.2547144,
          "lng": 113.8628046
        },
        "location_type": "ROOFTOP",
        "viewport": {
          "northeast": {
            "lat": 22.2560754302915,
            "lng": 113.8641504802915
          },
          "southwest": {
            "lat": 22.2533774697085,
            "lng": 113.8614525197085
          }
        }
      },
      "partial_match": true,
      "place_id": "EjdHLCA1MyBLYXQgSGluZyBTdHJlZXQsIDUzIEthdCBIaW5nIFN0LCBUYWkgTywgSG9uZyBLb25nIh0aGwoWChQKEgljosRA0lgBNBEUudTligBrDhIBRw",
      "types": [
        "subpremise"
      ]
    },
    {
      "address_components": [
        {
          "long_name": "F",
          "short_name": "F",
          "types": [
            "subpremise"
          ]
        },
        {
          "long_name": "53 Kat Hing Street",
          "short_name": "53 Kat Hing Street",
          "types": [
            "premise"
          ]
        },
        {
          "long_name": "53",
          "short_name": "53",
          "types": [
            "street_number"
          ]
        },
        {
          "long_name": "Kat Hing Street",
          "short_name": "Kat Hing St",
          "types": [
            "route"
          ]
        },
        {
          "long_name": "Tai O",
          "short_name": "Tai O",
          "types": [
            "neighborhood",
            "political"
          ]
        },
        {
          "long_name": "New Territories",
          "short_name": "New Territories",
          "types": [
            "administrative_area_level_1",
            "political"
          ]
        },
        {
          "long_name": "Hong Kong",
          "short_name": "HK",
          "types": [
            "country",
            "political"
          ]
        }
      ],
      "formatted_address": "F, 53 Kat Hing Street, 53 Kat Hing St, Tai O, Hong Kong",
      "geometry": {
        "bounds": {
          "northeast": {
            "lat": 22.254767,
            "lng": 113.862823
          },
          "southwest": {
            "lat": 22.2546859,
            "lng": 113.86278
          }
        },
        "location": {
          "lat": 22.2547144,
          "lng": 113.8628046
        },
        "location_type": "ROOFTOP",
        "viewport": {
          "northeast": {
            "lat": 22.2560754302915,
            "lng": 113.8641504802915
          },
          "southwest": {
            "lat": 22.2533774697085,
            "lng": 113.8614525197085
          }
        }
      },
      "partial_match": true,
      "place_id": "EjdGLCA1MyBLYXQgSGluZyBTdHJlZXQsIDUzIEthdCBIaW5nIFN0LCBUYWkgTywgSG9uZyBLb25nIh0aGwoWChQKEgljosRA0lgBNBEUudTligBrDhIBRg",
      "types": [
        "subpremise"
      ]
    }
  ],
  "geocode_tc": [
    {
      "address_components": [
        {
          "long_name": "\u5730\u4e0b \u5f37\u8a18",
          "short_name": "\u5730\u4e0b \u5f37\u8a18",
          "types": [
            "subpremise"
          ]
        },
        {
          "long_name": "\u5409\u6176\u885753\u865f",
          "short_name": "\u5409\u6176\u885753\u865f",
          "types": [
            "premise"
          ]
        },
        {
          "long_name": "53",
          "short_name": "53",
          "types": [
            "street_number"
          ]
        },
        {
          "long_name": "\u5409\u6176\u8857",
          "short_name": "\u5409\u6176\u8857",
          "types": [
            "route"
          ]
        },
        {
          "long_name": "\u5927\u6fb3",
          "short_name": "\u5927\u6fb3",
          "types": [
            "neighborhood",
            "political"
          ]
        },
        {
          "long_name": "\u65b0\u754c",
          "short_name": "\u65b0\u754c",
          "types": [
            "administrative_area_level_1",
            "political"
          ]
        },
        {
          "long_name": "\u9999\u6e2f",
          "short_name": "HK",
          "types": [
            "country",
            "political"
          ]
        }
      ],
      "formatted_address": "\u9999\u6e2f\u5927\u6fb3\u5409\u6176\u885753\u865f\u5409\u6176\u885753\u865f\u5730\u4e0b \u5f37\u8a18",
      "geometry": {
        "bounds": {
          "northeast": {
            "lat": 22.254767,
            "lng": 113.862823
          },
          "southwest": {
            "lat": 22.2546859,
            "lng": 113.86278
          }
        },
        "location": {
          "lat": 22.2547144,
          "lng": 113.8628046
        },
        "location_type": "ROOFTOP",
        "viewport": {
          "northeast": {
            "lat": 22.2560754302915,
            "lng": 113.8641504802915
          },
          "southwest": {
            "lat": 22.2533774697085,
            "lng": 113.8614525197085
          }
        }
      },
      "place_id": "EkPlnLDkuIsg5by36KiYLCA1MyBLYXQgSGluZyBTdHJlZXQsIDUzIEthdCBIaW5nIFN0LCBUYWkgTywgSG9uZyBLb25nIikaJwoWChQKEgljosRA0lgBNBEUudTligBrDhIN5Zyw5LiLIOW8t-iomA",
      "types": [
        "subpremise"
      ]
    }
  ],
  "licno": "3117000347",
  "timestamp": 1564975666,
  "version": "1564966095"
}
