{
  "adr_en": "Lund Tak Lau, G/F, 8-10 VICTORY AVENUE, KOWLOON",
  "adr_tc": "\u4e5d\u9f8d\u52dd\u5229\u90538\u81f310\u5730\u4e0b \u9f8d\u5fb7\u6a13",
  "geocode_en": [
    {
      "address_components": [
        {
          "long_name": "Lund",
          "short_name": "Lund",
          "types": [
            "locality",
            "political"
          ]
        },
        {
          "long_name": "Sk\u00e5ne County",
          "short_name": "Sk\u00e5ne County",
          "types": [
            "administrative_area_level_1",
            "political"
          ]
        },
        {
          "long_name": "Sweden",
          "short_name": "SE",
          "types": [
            "country",
            "political"
          ]
        }
      ],
      "formatted_address": "Lund, Sweden",
      "geometry": {
        "bounds": {
          "northeast": {
            "lat": 55.7440789,
            "lng": 13.260202
          },
          "southwest": {
            "lat": 55.66952389999999,
            "lng": 13.13579
          }
        },
        "location": {
          "lat": 55.7046601,
          "lng": 13.1910073
        },
        "location_type": "APPROXIMATE",
        "viewport": {
          "northeast": {
            "lat": 55.7440789,
            "lng": 13.260202
          },
          "southwest": {
            "lat": 55.66952389999999,
            "lng": 13.13579
          }
        }
      },
      "partial_match": true,
      "place_id": "ChIJO1rnA3yQU0YRcHoOKXiQAQQ",
      "types": [
        "locality",
        "political"
      ]
    },
    {
      "address_components": [
        {
          "long_name": "G",
          "short_name": "G",
          "types": [
            "subpremise"
          ]
        },
        {
          "long_name": "8",
          "short_name": "8",
          "types": [
            "street_number"
          ]
        },
        {
          "long_name": "Victory Avenue",
          "short_name": "Victory Ave",
          "types": [
            "route"
          ]
        },
        {
          "long_name": "Ho Man Tin",
          "short_name": "Ho Man Tin",
          "types": [
            "neighborhood",
            "political"
          ]
        },
        {
          "long_name": "Kowloon",
          "short_name": "Kowloon",
          "types": [
            "administrative_area_level_1",
            "political"
          ]
        },
        {
          "long_name": "Hong Kong",
          "short_name": "HK",
          "types": [
            "country",
            "political"
          ]
        }
      ],
      "formatted_address": "G, 8 Victory Ave, Ho Man Tin, Hong Kong",
      "geometry": {
        "location": {
          "lat": 22.318761,
          "lng": 114.174918
        },
        "location_type": "ROOFTOP",
        "viewport": {
          "northeast": {
            "lat": 22.3201099802915,
            "lng": 114.1762669802915
          },
          "southwest": {
            "lat": 22.3174120197085,
            "lng": 114.1735690197085
          }
        }
      },
      "partial_match": true,
      "place_id": "EidHLCA4IFZpY3RvcnkgQXZlLCBIbyBNYW4gVGluLCBIb25nIEtvbmciHRobChYKFAoSCXf3UfLFAAQ0EQrWj6_p7XPcEgFH",
      "types": [
        "subpremise"
      ]
    },
    {
      "address_components": [
        {
          "long_name": "F",
          "short_name": "F",
          "types": [
            "subpremise"
          ]
        },
        {
          "long_name": "8",
          "short_name": "8",
          "types": [
            "street_number"
          ]
        },
        {
          "long_name": "Victory Avenue",
          "short_name": "Victory Ave",
          "types": [
            "route"
          ]
        },
        {
          "long_name": "Ho Man Tin",
          "short_name": "Ho Man Tin",
          "types": [
            "neighborhood",
            "political"
          ]
        },
        {
          "long_name": "Kowloon",
          "short_name": "Kowloon",
          "types": [
            "administrative_area_level_1",
            "political"
          ]
        },
        {
          "long_name": "Hong Kong",
          "short_name": "HK",
          "types": [
            "country",
            "political"
          ]
        }
      ],
      "formatted_address": "F, 8 Victory Ave, Ho Man Tin, Hong Kong",
      "geometry": {
        "location": {
          "lat": 22.318761,
          "lng": 114.174918
        },
        "location_type": "ROOFTOP",
        "viewport": {
          "northeast": {
            "lat": 22.3201099802915,
            "lng": 114.1762669802915
          },
          "southwest": {
            "lat": 22.3174120197085,
            "lng": 114.1735690197085
          }
        }
      },
      "partial_match": true,
      "place_id": "EidGLCA4IFZpY3RvcnkgQXZlLCBIbyBNYW4gVGluLCBIb25nIEtvbmciHRobChYKFAoSCXf3UfLFAAQ0EQrWj6_p7XPcEgFG",
      "types": [
        "subpremise"
      ]
    }
  ],
  "geocode_tc": [
    {
      "address_components": [
        {
          "long_name": "\u5730\u4e0b \u9f8d\u5fb7\u6a13",
          "short_name": "\u5730\u4e0b \u9f8d\u5fb7\u6a13",
          "types": [
            "subpremise"
          ]
        },
        {
          "long_name": "8",
          "short_name": "8",
          "types": [
            "street_number"
          ]
        },
        {
          "long_name": "\u52dd\u5229\u9053",
          "short_name": "\u52dd\u5229\u9053",
          "types": [
            "route"
          ]
        },
        {
          "long_name": "\u4f55\u6587\u7530",
          "short_name": "\u4f55\u6587\u7530",
          "types": [
            "neighborhood",
            "political"
          ]
        },
        {
          "long_name": "\u4e5d\u9f8d",
          "short_name": "\u4e5d\u9f8d",
          "types": [
            "administrative_area_level_1",
            "political"
          ]
        },
        {
          "long_name": "\u9999\u6e2f",
          "short_name": "HK",
          "types": [
            "country",
            "political"
          ]
        }
      ],
      "formatted_address": "\u9999\u6e2f\u4f55\u6587\u7530\u52dd\u5229\u90538\u865f\u5730\u4e0b \u9f8d\u5fb7\u6a13",
      "geometry": {
        "location": {
          "lat": 22.318761,
          "lng": 114.174918
        },
        "location_type": "ROOFTOP",
        "viewport": {
          "northeast": {
            "lat": 22.3201099802915,
            "lng": 114.1762669802915
          },
          "southwest": {
            "lat": 22.3174120197085,
            "lng": 114.1735690197085
          }
        }
      },
      "place_id": "EjblnLDkuIsg6b6N5b635qiTLCA4IFZpY3RvcnkgQXZlLCBIbyBNYW4gVGluLCBIb25nIEtvbmciLBoqChYKFAoSCXf3UfLFAAQ0EQrWj6_p7XPcEhDlnLDkuIsg6b6N5b635qiT",
      "types": [
        "subpremise"
      ]
    }
  ],
  "licno": "2252169658",
  "timestamp": 1564968756,
  "version": "1564966095"
}
