{
  "adr_en": "SWEET MEMORY, G/F AND OUTSIDE SEATING ACCOMMODATIONIN FRONT OF, 75A LUEN WO ROAD, LUEN WO HUI, FANLING, NEW TERRITORIES",
  "adr_tc": "\u65b0\u754c\u7c89\u5dba\u806f\u548c\u589f\u806f\u548c\u905375A\u5730\u4e0b\u53ca\u8216\u524d\u9732\u5929\u5ea7\u4f4d \u751cCC",
  "geocode_en": [
    {
      "address_components": [
        {
          "long_name": "Pun Yuen Building",
          "short_name": "Pun Yuen Building",
          "types": [
            "premise"
          ]
        },
        {
          "long_name": "75A",
          "short_name": "75A",
          "types": [
            "street_number"
          ]
        },
        {
          "long_name": "Luen Wo Road",
          "short_name": "Luen Wo Rd",
          "types": [
            "route"
          ]
        },
        {
          "long_name": "Fanling",
          "short_name": "Fanling",
          "types": [
            "neighborhood",
            "political"
          ]
        },
        {
          "long_name": "New Territories",
          "short_name": "New Territories",
          "types": [
            "administrative_area_level_1",
            "political"
          ]
        },
        {
          "long_name": "Hong Kong",
          "short_name": "HK",
          "types": [
            "country",
            "political"
          ]
        }
      ],
      "formatted_address": "Pun Yuen Building, 75A Luen Wo Rd, Fanling, Hong Kong",
      "geometry": {
        "bounds": {
          "northeast": {
            "lat": 22.499231,
            "lng": 114.144094
          },
          "southwest": {
            "lat": 22.4991029,
            "lng": 114.143948
          }
        },
        "location": {
          "lat": 22.499172,
          "lng": 114.1440167
        },
        "location_type": "ROOFTOP",
        "viewport": {
          "northeast": {
            "lat": 22.50051593029151,
            "lng": 114.1453699802915
          },
          "southwest": {
            "lat": 22.4978179697085,
            "lng": 114.1426720197085
          }
        }
      },
      "partial_match": true,
      "place_id": "ChIJTbnHd-IJBDQRXPEA0uP_xYw",
      "types": [
        "premise"
      ]
    }
  ],
  "geocode_tc": [
    {
      "address_components": [
        {
          "long_name": "\u5730\u4e0b\u53ca\u8216\u524d",
          "short_name": "\u5730\u4e0b\u53ca\u8216\u524d",
          "types": [
            "subpremise"
          ]
        },
        {
          "long_name": "\u8cd3\u82d1",
          "short_name": "\u8cd3\u82d1",
          "types": [
            "premise"
          ]
        },
        {
          "long_name": "75A",
          "short_name": "75A",
          "types": [
            "street_number"
          ]
        },
        {
          "long_name": "\u806f\u548c\u9053",
          "short_name": "\u806f\u548c\u9053",
          "types": [
            "route"
          ]
        },
        {
          "long_name": "\u7c89\u5dba",
          "short_name": "\u7c89\u5dba",
          "types": [
            "neighborhood",
            "political"
          ]
        },
        {
          "long_name": "\u65b0\u754c",
          "short_name": "\u65b0\u754c",
          "types": [
            "administrative_area_level_1",
            "political"
          ]
        },
        {
          "long_name": "\u9999\u6e2f",
          "short_name": "HK",
          "types": [
            "country",
            "political"
          ]
        }
      ],
      "formatted_address": "\u9999\u6e2f\u7c89\u5dba\u806f\u548c\u905375A\u865f\u8cd3\u82d1\u5730\u4e0b\u53ca\u8216\u524d",
      "geometry": {
        "bounds": {
          "northeast": {
            "lat": 22.499231,
            "lng": 114.144094
          },
          "southwest": {
            "lat": 22.4991029,
            "lng": 114.143948
          }
        },
        "location": {
          "lat": 22.499172,
          "lng": 114.1440167
        },
        "location_type": "ROOFTOP",
        "viewport": {
          "northeast": {
            "lat": 22.50051593029151,
            "lng": 114.1453699802915
          },
          "southwest": {
            "lat": 22.4978179697085,
            "lng": 114.1426720197085
          }
        }
      },
      "partial_match": true,
      "place_id": "EkblnLDkuIvlj4roiJbliY0sIFB1biBZdWVuIEJ1aWxkaW5nLCA3NUEgTHVlbiBXbyBSZCwgRmFubGluZywgSG9uZyBLb25nIisaKQoWChQKEglNucd34gkENBFc8QDS4__FjBIP5Zyw5LiL5Y-K6IiW5YmN",
      "types": [
        "subpremise"
      ]
    },
    {
      "address_components": [
        {
          "long_name": "\u9999\u6e2f",
          "short_name": "HK",
          "types": [
            "country",
            "political"
          ]
        }
      ],
      "formatted_address": "\u9999\u6e2f\u7c89\u5dba\u806f\u548c\u589f\u548c\u8c50\u88578\u865f\u548c\u8c50\u95a3\u5730\u4e0b5A\u8216",
      "geometry": {
        "location": {
          "lat": 22.4992167,
          "lng": 114.144058
        },
        "location_type": "GEOMETRIC_CENTER",
        "viewport": {
          "northeast": {
            "lat": 22.5005656802915,
            "lng": 114.1454069802915
          },
          "southwest": {
            "lat": 22.49786771970849,
            "lng": 114.1427090197085
          }
        }
      },
      "partial_match": true,
      "place_id": "ChIJVZvgwh32AzQRr3gOuZ4Z8Oo",
      "plus_code": {
        "compound_code": "F4XV+MJ \u9999\u6e2f",
        "global_code": "7PJPF4XV+MJ"
      },
      "types": [
        "establishment",
        "food",
        "point_of_interest",
        "store"
      ]
    }
  ],
  "licno": "2296801341",
  "timestamp": 1564975666,
  "version": "1564966095"
}
