{
  "adr_en": "Super Super, UNIT S002, G/F OF CORE BUILDING TWO, PHASE ONE, HONG KONG SCIENCE PARK, PAK SHEK KOK, SHA TIN, NEW TERRITORIES",
  "adr_tc": "\u65b0\u754c\u6c99\u7530\u767d\u77f3\u89d2 \u9999\u6e2f\u79d1\u5b78\u5712\u4e00\u671f\u6838\u5fc3\u5927\u6a13 \u4e8c\u5ea7\u5730\u4e0bS002\u865f\u92ea \u4e00\u7ca5\u9eb5",
  "geocode_en": [
    {
      "address_components": [
        {
          "long_name": "Pak Shek Kok",
          "short_name": "Pak Shek Kok",
          "types": [
            "neighborhood",
            "political"
          ]
        },
        {
          "long_name": "New Territories",
          "short_name": "New Territories",
          "types": [
            "administrative_area_level_1",
            "political"
          ]
        },
        {
          "long_name": "Hong Kong",
          "short_name": "HK",
          "types": [
            "country",
            "political"
          ]
        }
      ],
      "formatted_address": "Pak Shek Kok, Hong Kong",
      "geometry": {
        "bounds": {
          "northeast": {
            "lat": 22.4363045,
            "lng": 114.2152326
          },
          "southwest": {
            "lat": 22.4200476,
            "lng": 114.199215
          }
        },
        "location": {
          "lat": 22.4280945,
          "lng": 114.2082325
        },
        "location_type": "APPROXIMATE",
        "viewport": {
          "northeast": {
            "lat": 22.4363045,
            "lng": 114.2152326
          },
          "southwest": {
            "lat": 22.4200476,
            "lng": 114.199215
          }
        }
      },
      "partial_match": true,
      "place_id": "ChIJU26R5JAIBDQRqT0L91E3U4s",
      "types": [
        "neighborhood",
        "political"
      ]
    }
  ],
  "geocode_tc": [
    {
      "address_components": [
        {
          "long_name": "\u865f\u5730\u4e0bS002\u8216",
          "short_name": "\u865f\u5730\u4e0bS002\u8216",
          "types": [
            "subpremise"
          ]
        },
        {
          "long_name": "1",
          "short_name": "1",
          "types": [
            "street_number"
          ]
        },
        {
          "long_name": "\u79d1\u6280\u5927\u9053\u897f",
          "short_name": "\u79d1\u6280\u5927\u9053\u897f",
          "types": [
            "route"
          ]
        },
        {
          "long_name": "\u79d1\u5b78\u5712",
          "short_name": "\u79d1\u5b78\u5712",
          "types": [
            "neighborhood",
            "political"
          ]
        },
        {
          "long_name": "\u65b0\u754c",
          "short_name": "\u65b0\u754c",
          "types": [
            "administrative_area_level_1",
            "political"
          ]
        },
        {
          "long_name": "\u9999\u6e2f",
          "short_name": "HK",
          "types": [
            "country",
            "political"
          ]
        }
      ],
      "formatted_address": "\u9999\u6e2f\u79d1\u5b78\u5712\u79d1\u6280\u5927\u9053\u897f1\u865f\u865f\u5730\u4e0bS002\u8216",
      "geometry": {
        "location": {
          "lat": 22.4248709,
          "lng": 114.2127491
        },
        "location_type": "ROOFTOP",
        "viewport": {
          "northeast": {
            "lat": 22.4262198802915,
            "lng": 114.2140980802915
          },
          "southwest": {
            "lat": 22.4235219197085,
            "lng": 114.2114001197085
          }
        }
      },
      "place_id": "ChIJS1XVnJcIBDQR1wLsHf6tMFg",
      "plus_code": {
        "compound_code": "C6F7+W3 \u9999\u6e2f",
        "global_code": "7PJPC6F7+W3"
      },
      "types": [
        "establishment",
        "food",
        "point_of_interest",
        "restaurant"
      ]
    }
  ],
  "licno": "2297003786",
  "timestamp": 1564975666,
  "version": "1564966095"
}
