{
  "adr_en": "Folkland Coffee & Restaurant, UNIT 16B, G/F, FOLKLAND MANSION, 8 WALNUT STREET, TAI KOK TSUI, KOWLOON",
  "adr_tc": "\u4e5d\u9f8d\u5927\u89d2\u5480\u5408\u6843\u88578\u865f\u798f\u7fa4\u5927\u5ec8\u5730\u4e0b16B\u5ba4 \u798f\u7fa4\u9910\u5ef3\u5c0f\u83dc",
  "geocode_en": [
    {
      "address_components": [
        {
          "long_name": "Folkland Mansion",
          "short_name": "Folkland Mansion",
          "types": [
            "premise"
          ]
        },
        {
          "long_name": "8",
          "short_name": "8",
          "types": [
            "street_number"
          ]
        },
        {
          "long_name": "Walnut Street",
          "short_name": "Walnut St",
          "types": [
            "route"
          ]
        },
        {
          "long_name": "Tai Kok Tsui",
          "short_name": "Tai Kok Tsui",
          "types": [
            "neighborhood",
            "political"
          ]
        },
        {
          "long_name": "Kowloon",
          "short_name": "Kowloon",
          "types": [
            "administrative_area_level_1",
            "political"
          ]
        },
        {
          "long_name": "Hong Kong",
          "short_name": "HK",
          "types": [
            "country",
            "political"
          ]
        }
      ],
      "formatted_address": "Folkland Mansion, 8 Walnut St, Tai Kok Tsui, Hong Kong",
      "geometry": {
        "bounds": {
          "northeast": {
            "lat": 22.323505,
            "lng": 114.1639069
          },
          "southwest": {
            "lat": 22.323266,
            "lng": 114.1636671
          }
        },
        "location": {
          "lat": 22.3233573,
          "lng": 114.1637448
        },
        "location_type": "ROOFTOP",
        "viewport": {
          "northeast": {
            "lat": 22.3247344802915,
            "lng": 114.1651359802915
          },
          "southwest": {
            "lat": 22.32203651970849,
            "lng": 114.1624380197085
          }
        }
      },
      "partial_match": true,
      "place_id": "ChIJ1TCkG7cABDQRXM69AjF34Bw",
      "types": [
        "premise"
      ]
    }
  ],
  "geocode_tc": [
    {
      "address_components": [
        {
          "long_name": "\u9999\u6e2f",
          "short_name": "HK",
          "types": [
            "country",
            "political"
          ]
        }
      ],
      "formatted_address": "\u9999\u6e2f\u5927\u89d2\u5480\u5408\u6843\u88578\u865f\u798f\u7fa4\u5927\u5ec8\u5730\u4e0b16B\u8216",
      "geometry": {
        "location": {
          "lat": 22.323375,
          "lng": 114.163775
        },
        "location_type": "GEOMETRIC_CENTER",
        "viewport": {
          "northeast": {
            "lat": 22.3247239802915,
            "lng": 114.1651239802915
          },
          "southwest": {
            "lat": 22.3220260197085,
            "lng": 114.1624260197085
          }
        }
      },
      "place_id": "ChIJb3OkG7cABDQRSP4eXhwKZyg",
      "plus_code": {
        "compound_code": "85F7+8G \u9999\u6e2f",
        "global_code": "7PJP85F7+8G"
      },
      "types": [
        "establishment",
        "food",
        "point_of_interest",
        "restaurant"
      ]
    }
  ],
  "licno": "2262251798",
  "timestamp": 1564968756,
  "version": "1564966095"
}
