{
  "adr_en": "PUTIEN, SHOP 269-70, L2, MIRA PLACE TWO, 118-130 NATHAN ROAD, TSIM SHA TSUI, KOWLOON",
  "adr_tc": "\u4e5d\u9f8d\u5c16\u6c99\u5480\u5f4c\u6566\u9053118-130\u865f\u7f8e\u9e97\u83ef\u5ee3\u5834\u4e8c\u671f 2\u6a13269-70\u865f\u92ea \u8386\u7530",
  "geocode_en": [
    {
      "address_components": [
        {
          "long_name": "Tsim Sha Tsui",
          "short_name": "Tsim Sha Tsui",
          "types": [
            "neighborhood",
            "political"
          ]
        },
        {
          "long_name": "Hong Kong",
          "short_name": "HK",
          "types": [
            "country",
            "political"
          ]
        }
      ],
      "formatted_address": "269-270, L2, Mira Place Two, Tsim Sha Tsui, Hong Kong",
      "geometry": {
        "location": {
          "lat": 22.3002966,
          "lng": 114.172271
        },
        "location_type": "GEOMETRIC_CENTER",
        "viewport": {
          "northeast": {
            "lat": 22.3016455802915,
            "lng": 114.1736199802915
          },
          "southwest": {
            "lat": 22.2989476197085,
            "lng": 114.1709220197085
          }
        }
      },
      "partial_match": true,
      "place_id": "ChIJWaRpye0ABDQRc6ON0hIiIXI",
      "plus_code": {
        "compound_code": "852C+4W Hong Kong",
        "global_code": "7PJP852C+4W"
      },
      "types": [
        "establishment",
        "food",
        "point_of_interest",
        "restaurant"
      ]
    },
    {
      "address_components": [
        {
          "long_name": "SHOP 269",
          "short_name": "SHOP 269",
          "types": [
            "subpremise"
          ]
        },
        {
          "long_name": "The Mira Hong Kong",
          "short_name": "The Mira Hong Kong",
          "types": [
            "premise"
          ]
        },
        {
          "long_name": "118-130",
          "short_name": "118-130",
          "types": [
            "street_number"
          ]
        },
        {
          "long_name": "Nathan Road",
          "short_name": "Nathan Rd",
          "types": [
            "route"
          ]
        },
        {
          "long_name": "Tsim Sha Tsui",
          "short_name": "Tsim Sha Tsui",
          "types": [
            "neighborhood",
            "political"
          ]
        },
        {
          "long_name": "Kowloon",
          "short_name": "Kowloon",
          "types": [
            "administrative_area_level_1",
            "political"
          ]
        },
        {
          "long_name": "Hong Kong",
          "short_name": "HK",
          "types": [
            "country",
            "political"
          ]
        }
      ],
      "formatted_address": "SHOP 269, The Mira Hong Kong, 118-130 Nathan Rd, Tsim Sha Tsui, Hong Kong",
      "geometry": {
        "bounds": {
          "northeast": {
            "lat": 22.300449,
            "lng": 114.172789
          },
          "southwest": {
            "lat": 22.299824,
            "lng": 114.1721159
          }
        },
        "location": {
          "lat": 22.3000763,
          "lng": 114.1724533
        },
        "location_type": "ROOFTOP",
        "viewport": {
          "northeast": {
            "lat": 22.3014854802915,
            "lng": 114.1738014302915
          },
          "southwest": {
            "lat": 22.2987875197085,
            "lng": 114.1711034697085
          }
        }
      },
      "partial_match": true,
      "place_id": "EklTSE9QIDI2OSwgVGhlIE1pcmEgSG9uZyBLb25nLCAxMTgtMTMwIE5hdGhhbiBSZCwgVHNpbSBTaGEgVHN1aSwgSG9uZyBLb25nIiQaIgoWChQKEgl5HzbL7QAENBHma_ok4meaThIIU0hPUCAyNjk",
      "types": [
        "subpremise"
      ]
    }
  ],
  "geocode_tc": [
    {
      "address_components": [
        {
          "long_name": "\u7f8e\u9e97\u83ef\u5546\u5834",
          "short_name": "\u7f8e\u9e97\u83ef\u5546\u5834",
          "types": [
            "premise"
          ]
        },
        {
          "long_name": "132-134T",
          "short_name": "132-134T",
          "types": [
            "street_number"
          ]
        },
        {
          "long_name": "\u5f4c\u6566\u9053",
          "short_name": "\u5f4c\u6566\u9053",
          "types": [
            "route"
          ]
        },
        {
          "long_name": "\u5c16\u6c99\u5480",
          "short_name": "\u5c16\u6c99\u5480",
          "types": [
            "neighborhood",
            "political"
          ]
        },
        {
          "long_name": "\u4e5d\u9f8d",
          "short_name": "\u4e5d\u9f8d",
          "types": [
            "administrative_area_level_1",
            "political"
          ]
        },
        {
          "long_name": "\u9999\u6e2f",
          "short_name": "HK",
          "types": [
            "country",
            "political"
          ]
        }
      ],
      "formatted_address": "\u9999\u6e2f\u5c16\u6c99\u5480\u5f4c\u6566\u9053132-134T\u865f\u7f8e\u9e97\u83ef\u5546\u5834",
      "geometry": {
        "bounds": {
          "northeast": {
            "lat": 22.3011891,
            "lng": 114.1723351
          },
          "southwest": {
            "lat": 22.3005,
            "lng": 114.172076
          }
        },
        "location": {
          "lat": 22.3009412,
          "lng": 114.172221
        },
        "location_type": "ROOFTOP",
        "viewport": {
          "northeast": {
            "lat": 22.3021935302915,
            "lng": 114.1735545302915
          },
          "southwest": {
            "lat": 22.2994955697085,
            "lng": 114.1708565697085
          }
        }
      },
      "partial_match": true,
      "place_id": "ChIJa1nkN-wABDQRDsWr9AgJRRk",
      "types": [
        "premise"
      ]
    }
  ],
  "licno": "2261815012",
  "timestamp": 1564968756,
  "version": "1564966095"
}
