{
  "adr_en": "\u4fca\u8a18\u9eb5\u5bb6, 16B, G/F, KAM PUI BUILDING, SHEK MAN PATH, TAI LOONG STREET, KWAI CHUNG, NEW TERRITORIES",
  "adr_tc": "\u65b0\u754c\u8475\u6d8c \u5927\u96b4\u8857\u77f3\u6587\u5f91 \u91d1\u73ee\u6a13\u5730\u4e0b16B \u4fca\u8a18\u9eb5\u5bb6",
  "geocode_en": [
    {
      "address_components": [
        {
          "long_name": "Hong Kong",
          "short_name": "HK",
          "types": [
            "country",
            "political"
          ]
        }
      ],
      "formatted_address": "16B, G/F, Kam Pui Building, Shek Man Path, Tai Loong Street, Kwai Chung, New Territories, Hong Kong",
      "geometry": {
        "location": {
          "lat": 22.364859,
          "lng": 114.1358983
        },
        "location_type": "GEOMETRIC_CENTER",
        "viewport": {
          "northeast": {
            "lat": 22.36620798029151,
            "lng": 114.1372472802915
          },
          "southwest": {
            "lat": 22.3635100197085,
            "lng": 114.1345493197085
          }
        }
      },
      "place_id": "ChIJO1PwbZz4AzQR-okJjU6t9-Y",
      "plus_code": {
        "compound_code": "947P+W9 Hong Kong",
        "global_code": "7PJP947P+W9"
      },
      "types": [
        "establishment",
        "food",
        "point_of_interest",
        "restaurant"
      ]
    }
  ],
  "geocode_tc": [
    {
      "address_components": [
        {
          "long_name": "\u91d1\u73ee\u6a13",
          "short_name": "\u91d1\u73ee\u6a13",
          "types": [
            "premise"
          ]
        },
        {
          "long_name": "8-18",
          "short_name": "8-18",
          "types": [
            "street_number"
          ]
        },
        {
          "long_name": "\u77f3\u6587\u5f91",
          "short_name": "\u77f3\u6587\u5f91",
          "types": [
            "route"
          ]
        },
        {
          "long_name": "\u77f3\u7c6c",
          "short_name": "\u77f3\u7c6c",
          "types": [
            "neighborhood",
            "political"
          ]
        },
        {
          "long_name": "\u65b0\u754c",
          "short_name": "\u65b0\u754c",
          "types": [
            "administrative_area_level_1",
            "political"
          ]
        },
        {
          "long_name": "\u9999\u6e2f",
          "short_name": "HK",
          "types": [
            "country",
            "political"
          ]
        }
      ],
      "formatted_address": "\u9999\u6e2f\u77f3\u7c6c\u77f3\u6587\u5f918-18\u865f\u91d1\u73ee\u6a13",
      "geometry": {
        "bounds": {
          "northeast": {
            "lat": 22.365145,
            "lng": 114.136165
          },
          "southwest": {
            "lat": 22.364844,
            "lng": 114.135798
          }
        },
        "location": {
          "lat": 22.3650171,
          "lng": 114.1359695
        },
        "location_type": "ROOFTOP",
        "viewport": {
          "northeast": {
            "lat": 22.3663434802915,
            "lng": 114.1373304802915
          },
          "southwest": {
            "lat": 22.3636455197085,
            "lng": 114.1346325197085
          }
        }
      },
      "partial_match": true,
      "place_id": "ChIJv9Sv25v4AzQRzlVDq0CwO4c",
      "types": [
        "premise"
      ]
    }
  ],
  "licno": "3191000066",
  "timestamp": 1564975666,
  "version": "1564966095"
}
