{
  "adr_en": "Viet's Choice - Sai Wan Ho, SHOP A, B & C, G/F., SCENIC HORIZON, NO. 250 SHAU KEI WAN ROAD, SHAU KEI WAN, HONG KONG",
  "adr_tc": "\u9999\u6e2f\u7b72\u7b95\u7063\u7b72\u7b95\u7063\u9053250\u865f \u5fa1\u666f\u8ed2\u5730\u4e0bA,B\u53caC\u92ea \u8d8a\u68e7 - \u897f\u7063\u6cb3",
  "geocode_en": [
    {
      "address_components": [
        {
          "long_name": "Ho, SHOP A, B",
          "short_name": "Ho, SHOP A, B",
          "types": [
            "subpremise"
          ]
        },
        {
          "long_name": "Scenic Horizon",
          "short_name": "Scenic Horizon",
          "types": [
            "premise"
          ]
        },
        {
          "long_name": "250",
          "short_name": "250",
          "types": [
            "street_number"
          ]
        },
        {
          "long_name": "Shau Kei Wan Road",
          "short_name": "Shau Kei Wan Rd",
          "types": [
            "route"
          ]
        },
        {
          "long_name": "Shau Kei Wan",
          "short_name": "Shau Kei Wan",
          "types": [
            "neighborhood",
            "political"
          ]
        },
        {
          "long_name": "Hong Kong Island",
          "short_name": "Hong Kong Island",
          "types": [
            "administrative_area_level_1",
            "political"
          ]
        },
        {
          "long_name": "Hong Kong",
          "short_name": "HK",
          "types": [
            "country",
            "political"
          ]
        }
      ],
      "formatted_address": "Ho, SHOP A, B, Scenic Horizon, 250 Shau Kei Wan Rd, Shau Kei Wan, Hong Kong",
      "geometry": {
        "bounds": {
          "northeast": {
            "lat": 22.2802091,
            "lng": 114.225013
          },
          "southwest": {
            "lat": 22.2800969,
            "lng": 114.2248069
          }
        },
        "location": {
          "lat": 22.2801424,
          "lng": 114.2249093
        },
        "location_type": "ROOFTOP",
        "viewport": {
          "northeast": {
            "lat": 22.28150198029151,
            "lng": 114.2262589302915
          },
          "southwest": {
            "lat": 22.2788040197085,
            "lng": 114.2235609697085
          }
        }
      },
      "partial_match": true,
      "place_id": "EktIbywgU0hPUCBBLCBCLCBTY2VuaWMgSG9yaXpvbiwgMjUwIFNoYXUgS2VpIFdhbiBSZCwgU2hhdSBLZWkgV2FuLCBIb25nIEtvbmciKRonChYKFAoSCYkqia93AQQ0EagILddrJgVsEg1IbywgU0hPUCBBLCBC",
      "types": [
        "subpremise"
      ]
    },
    {
      "address_components": [
        {
          "long_name": "SHOP A, B & C",
          "short_name": "SHOP A, B & C",
          "types": [
            "subpremise"
          ]
        },
        {
          "long_name": "Scenic Horizon",
          "short_name": "Scenic Horizon",
          "types": [
            "premise"
          ]
        },
        {
          "long_name": "250",
          "short_name": "250",
          "types": [
            "street_number"
          ]
        },
        {
          "long_name": "Shau Kei Wan Road",
          "short_name": "Shau Kei Wan Rd",
          "types": [
            "route"
          ]
        },
        {
          "long_name": "Shau Kei Wan",
          "short_name": "Shau Kei Wan",
          "types": [
            "neighborhood",
            "political"
          ]
        },
        {
          "long_name": "Hong Kong Island",
          "short_name": "Hong Kong Island",
          "types": [
            "administrative_area_level_1",
            "political"
          ]
        },
        {
          "long_name": "Hong Kong",
          "short_name": "HK",
          "types": [
            "country",
            "political"
          ]
        }
      ],
      "formatted_address": "SHOP A, B & C, Scenic Horizon, 250 Shau Kei Wan Rd, Shau Kei Wan, Hong Kong",
      "geometry": {
        "bounds": {
          "northeast": {
            "lat": 22.2802091,
            "lng": 114.225013
          },
          "southwest": {
            "lat": 22.2800969,
            "lng": 114.2248069
          }
        },
        "location": {
          "lat": 22.2801424,
          "lng": 114.2249093
        },
        "location_type": "ROOFTOP",
        "viewport": {
          "northeast": {
            "lat": 22.28150198029151,
            "lng": 114.2262589302915
          },
          "southwest": {
            "lat": 22.2788040197085,
            "lng": 114.2235609697085
          }
        }
      },
      "partial_match": true,
      "place_id": "EktTSE9QIEEsIEIgJiBDLCBTY2VuaWMgSG9yaXpvbiwgMjUwIFNoYXUgS2VpIFdhbiBSZCwgU2hhdSBLZWkgV2FuLCBIb25nIEtvbmciKRonChYKFAoSCYkqia93AQQ0EagILddrJgVsEg1TSE9QIEEsIEIgJiBD",
      "types": [
        "subpremise"
      ]
    }
  ],
  "geocode_tc": [
    {
      "address_components": [
        {
          "long_name": "250\u865f",
          "short_name": "250\u865f",
          "types": [
            "street_number"
          ]
        },
        {
          "long_name": "\u7b72\u7b95\u7063\u9053",
          "short_name": "\u7b72\u7b95\u7063\u9053",
          "types": [
            "route"
          ]
        },
        {
          "long_name": "\u7b72\u7b95\u7063",
          "short_name": "\u7b72\u7b95\u7063",
          "types": [
            "neighborhood",
            "political"
          ]
        },
        {
          "long_name": "\u9999\u6e2f",
          "short_name": "HK",
          "types": [
            "country",
            "political"
          ]
        }
      ],
      "formatted_address": "\u9999\u6e2f\u7b72\u7b95\u7063\u7b72\u7b95\u7063\u9053250\u865f\u5730\u4e0bF-G\u865f\u8216\u5fa1\u666f\u8ed2",
      "geometry": {
        "location": {
          "lat": 22.2801806,
          "lng": 114.2250124
        },
        "location_type": "ROOFTOP",
        "viewport": {
          "northeast": {
            "lat": 22.2815295802915,
            "lng": 114.2263613802915
          },
          "southwest": {
            "lat": 22.27883161970849,
            "lng": 114.2236634197085
          }
        }
      },
      "place_id": "ChIJ2zCMr3cBBDQRMkTqj4Uq8CY",
      "plus_code": {
        "compound_code": "76JG+32 \u9999\u6e2f",
        "global_code": "7PJP76JG+32"
      },
      "types": [
        "establishment",
        "food",
        "point_of_interest",
        "restaurant"
      ]
    }
  ],
  "licno": "2211807456",
  "timestamp": 1564966180,
  "version": "1564966095"
}
