{
  "adr_en": "\u65b0\u8208\u767c\u8336\u9910\u5ef3, BLOCK C & D, G/F, DD 102, LOT 215, MAIN ROAD, SAN TIN, YUEN LONG, NEW TERRITORIES",
  "adr_tc": "\u65b0\u754c\u5143\u6717102\u7d04215\u5730\u6bb5\u65b0\u7530\u5927\u99ac\u8def\u5730\u4e0bC\u53caD\u5ea7 \u65b0\u8208\u767c\u8336\u9910\u5ef3",
  "geocode_en": [
    {
      "address_components": [
        {
          "long_name": "\u865f\u5730\u4e0b",
          "short_name": "\u865f\u5730\u4e0b",
          "types": [
            "subpremise"
          ]
        },
        {
          "long_name": "308",
          "short_name": "308",
          "types": [
            "street_number"
          ]
        },
        {
          "long_name": "\u96fb\u6c23\u9053",
          "short_name": "\u96fb\u6c23\u9053",
          "types": [
            "route"
          ]
        },
        {
          "long_name": "\u5317\u89d2",
          "short_name": "\u5317\u89d2",
          "types": [
            "neighborhood",
            "political"
          ]
        },
        {
          "long_name": "\u9999\u6e2f\u5cf6",
          "short_name": "\u9999\u6e2f\u5cf6",
          "types": [
            "administrative_area_level_1",
            "political"
          ]
        },
        {
          "long_name": "Hong Kong",
          "short_name": "HK",
          "types": [
            "country",
            "political"
          ]
        }
      ],
      "formatted_address": "Hong Kong, \u5317\u89d2\u96fb\u6c23\u9053308\u865f\u865f\u5730\u4e0b",
      "geometry": {
        "location": {
          "lat": 22.2904332,
          "lng": 114.1947601
        },
        "location_type": "ROOFTOP",
        "viewport": {
          "northeast": {
            "lat": 22.2917821802915,
            "lng": 114.1961090802915
          },
          "southwest": {
            "lat": 22.2890842197085,
            "lng": 114.1934111197085
          }
        }
      },
      "partial_match": true,
      "place_id": "ChIJe3YWsgMBBDQRWslADOqtKEE",
      "plus_code": {
        "compound_code": "75RV+5W Hong Kong",
        "global_code": "7PJP75RV+5W"
      },
      "types": [
        "establishment",
        "food",
        "point_of_interest",
        "restaurant"
      ]
    },
    {
      "address_components": [
        {
          "long_name": "San Tin",
          "short_name": "San Tin",
          "types": [
            "neighborhood",
            "political"
          ]
        },
        {
          "long_name": "New Territories",
          "short_name": "New Territories",
          "types": [
            "administrative_area_level_1",
            "political"
          ]
        },
        {
          "long_name": "Hong Kong",
          "short_name": "HK",
          "types": [
            "country",
            "political"
          ]
        }
      ],
      "formatted_address": "San Tin, Hong Kong",
      "geometry": {
        "bounds": {
          "northeast": {
            "lat": 22.5093371,
            "lng": 114.090359
          },
          "southwest": {
            "lat": 22.480134,
            "lng": 114.044293
          }
        },
        "location": {
          "lat": 22.4950121,
          "lng": 114.0696131
        },
        "location_type": "APPROXIMATE",
        "viewport": {
          "northeast": {
            "lat": 22.5093371,
            "lng": 114.090359
          },
          "southwest": {
            "lat": 22.480134,
            "lng": 114.044293
          }
        }
      },
      "partial_match": true,
      "place_id": "ChIJ33S7esP2AzQRlD0QQqfBIdM",
      "types": [
        "neighborhood",
        "political"
      ]
    }
  ],
  "geocode_tc": [
    {
      "address_components": [
        {
          "long_name": "\u65b0\u7530",
          "short_name": "\u65b0\u7530",
          "types": [
            "neighborhood",
            "political"
          ]
        },
        {
          "long_name": "\u65b0\u754c",
          "short_name": "\u65b0\u754c",
          "types": [
            "administrative_area_level_1",
            "political"
          ]
        },
        {
          "long_name": "\u9999\u6e2f",
          "short_name": "HK",
          "types": [
            "country",
            "political"
          ]
        }
      ],
      "formatted_address": "\u9999\u6e2f\u65b0\u7530",
      "geometry": {
        "bounds": {
          "northeast": {
            "lat": 22.5093371,
            "lng": 114.090359
          },
          "southwest": {
            "lat": 22.480134,
            "lng": 114.044293
          }
        },
        "location": {
          "lat": 22.4950121,
          "lng": 114.0696131
        },
        "location_type": "APPROXIMATE",
        "viewport": {
          "northeast": {
            "lat": 22.5093371,
            "lng": 114.090359
          },
          "southwest": {
            "lat": 22.480134,
            "lng": 114.044293
          }
        }
      },
      "partial_match": true,
      "place_id": "ChIJ33S7esP2AzQRlD0QQqfBIdM",
      "types": [
        "neighborhood",
        "political"
      ]
    },
    {
      "address_components": [
        {
          "long_name": "\u865f\u5730\u4e0b",
          "short_name": "\u865f\u5730\u4e0b",
          "types": [
            "subpremise"
          ]
        },
        {
          "long_name": "308",
          "short_name": "308",
          "types": [
            "street_number"
          ]
        },
        {
          "long_name": "\u96fb\u6c23\u9053",
          "short_name": "\u96fb\u6c23\u9053",
          "types": [
            "route"
          ]
        },
        {
          "long_name": "\u5317\u89d2",
          "short_name": "\u5317\u89d2",
          "types": [
            "neighborhood",
            "political"
          ]
        },
        {
          "long_name": "\u9999\u6e2f\u5cf6",
          "short_name": "\u9999\u6e2f\u5cf6",
          "types": [
            "administrative_area_level_1",
            "political"
          ]
        },
        {
          "long_name": "\u9999\u6e2f",
          "short_name": "HK",
          "types": [
            "country",
            "political"
          ]
        }
      ],
      "formatted_address": "\u9999\u6e2f\u5317\u89d2\u96fb\u6c23\u9053308\u865f\u865f\u5730\u4e0b",
      "geometry": {
        "location": {
          "lat": 22.2904332,
          "lng": 114.1947601
        },
        "location_type": "ROOFTOP",
        "viewport": {
          "northeast": {
            "lat": 22.2917821802915,
            "lng": 114.1961090802915
          },
          "southwest": {
            "lat": 22.2890842197085,
            "lng": 114.1934111197085
          }
        }
      },
      "partial_match": true,
      "place_id": "ChIJe3YWsgMBBDQRWslADOqtKEE",
      "plus_code": {
        "compound_code": "75RV+5W \u9999\u6e2f",
        "global_code": "7PJP75RV+5W"
      },
      "types": [
        "establishment",
        "food",
        "point_of_interest",
        "restaurant"
      ]
    }
  ],
  "licno": "2294003323",
  "timestamp": 1564975666,
  "version": "1564966095"
}
