{
  "adr_en": "HONG'S DESSERTS LIMITED, G/F, 323 LAI CHI KOK ROAD, SHAM SHUI PO, KOWLOON",
  "adr_tc": "\u4e5d\u9f8d\u6df1\u6c34\u57d7\u8354\u679d\u89d2\u9053323\u865f\u5730\u4e0b \u5eb7\u745e\u751c\u54c1\u6709\u9650\u516c\u53f8",
  "geocode_en": [
    {
      "address_components": [
        {
          "long_name": "G",
          "short_name": "G",
          "types": [
            "subpremise"
          ]
        },
        {
          "long_name": "323 Lai Chi Kok Road",
          "short_name": "323 Lai Chi Kok Road",
          "types": [
            "premise"
          ]
        },
        {
          "long_name": "323",
          "short_name": "323",
          "types": [
            "street_number"
          ]
        },
        {
          "long_name": "Lai Chi Kok Road",
          "short_name": "Lai Chi Kok Rd",
          "types": [
            "route"
          ]
        },
        {
          "long_name": "Sham Shui Po",
          "short_name": "Sham Shui Po",
          "types": [
            "neighborhood",
            "political"
          ]
        },
        {
          "long_name": "Kowloon",
          "short_name": "Kowloon",
          "types": [
            "administrative_area_level_1",
            "political"
          ]
        },
        {
          "long_name": "Hong Kong",
          "short_name": "HK",
          "types": [
            "country",
            "political"
          ]
        }
      ],
      "formatted_address": "G, 323 Lai Chi Kok Road, 323 Lai Chi Kok Rd, Sham Shui Po, Hong Kong",
      "geometry": {
        "bounds": {
          "northeast": {
            "lat": 22.328645,
            "lng": 114.160233
          },
          "southwest": {
            "lat": 22.3284669,
            "lng": 114.160075
          }
        },
        "location": {
          "lat": 22.3285555,
          "lng": 114.1601569
        },
        "location_type": "ROOFTOP",
        "viewport": {
          "northeast": {
            "lat": 22.32990493029151,
            "lng": 114.1615029802915
          },
          "southwest": {
            "lat": 22.3272069697085,
            "lng": 114.1588050197085
          }
        }
      },
      "partial_match": true,
      "place_id": "EkRHLCAzMjMgTGFpIENoaSBLb2sgUm9hZCwgMzIzIExhaSBDaGkgS29rIFJkLCBTaGFtIFNodWkgUG8sIEhvbmcgS29uZyIdGhsKFgoUChIJAahvwLMABDQRzCzXbQu4PxUSAUc",
      "types": [
        "subpremise"
      ]
    },
    {
      "address_components": [
        {
          "long_name": "F",
          "short_name": "F",
          "types": [
            "subpremise"
          ]
        },
        {
          "long_name": "323 Lai Chi Kok Road",
          "short_name": "323 Lai Chi Kok Road",
          "types": [
            "premise"
          ]
        },
        {
          "long_name": "323",
          "short_name": "323",
          "types": [
            "street_number"
          ]
        },
        {
          "long_name": "Lai Chi Kok Road",
          "short_name": "Lai Chi Kok Rd",
          "types": [
            "route"
          ]
        },
        {
          "long_name": "Sham Shui Po",
          "short_name": "Sham Shui Po",
          "types": [
            "neighborhood",
            "political"
          ]
        },
        {
          "long_name": "Kowloon",
          "short_name": "Kowloon",
          "types": [
            "administrative_area_level_1",
            "political"
          ]
        },
        {
          "long_name": "Hong Kong",
          "short_name": "HK",
          "types": [
            "country",
            "political"
          ]
        }
      ],
      "formatted_address": "F, 323 Lai Chi Kok Road, 323 Lai Chi Kok Rd, Sham Shui Po, Hong Kong",
      "geometry": {
        "bounds": {
          "northeast": {
            "lat": 22.328645,
            "lng": 114.160233
          },
          "southwest": {
            "lat": 22.3284669,
            "lng": 114.160075
          }
        },
        "location": {
          "lat": 22.3285555,
          "lng": 114.1601569
        },
        "location_type": "ROOFTOP",
        "viewport": {
          "northeast": {
            "lat": 22.32990493029151,
            "lng": 114.1615029802915
          },
          "southwest": {
            "lat": 22.3272069697085,
            "lng": 114.1588050197085
          }
        }
      },
      "partial_match": true,
      "place_id": "EkRGLCAzMjMgTGFpIENoaSBLb2sgUm9hZCwgMzIzIExhaSBDaGkgS29rIFJkLCBTaGFtIFNodWkgUG8sIEhvbmcgS29uZyIdGhsKFgoUChIJAahvwLMABDQRzCzXbQu4PxUSAUY",
      "types": [
        "subpremise"
      ]
    }
  ],
  "geocode_tc": [
    {
      "address_components": [
        {
          "long_name": "\u8354\u679d\u89d2\u9053323\u865f",
          "short_name": "\u8354\u679d\u89d2\u9053323\u865f",
          "types": [
            "premise"
          ]
        },
        {
          "long_name": "\u6842\u6797\u8857",
          "short_name": "\u6842\u6797\u8857",
          "types": [
            "route"
          ]
        },
        {
          "long_name": "\u6df1\u6c34\u57d7",
          "short_name": "\u6df1\u6c34\u57d7",
          "types": [
            "neighborhood",
            "political"
          ]
        },
        {
          "long_name": "\u4e5d\u9f8d",
          "short_name": "\u4e5d\u9f8d",
          "types": [
            "administrative_area_level_1",
            "political"
          ]
        },
        {
          "long_name": "\u9999\u6e2f",
          "short_name": "HK",
          "types": [
            "country",
            "political"
          ]
        }
      ],
      "formatted_address": "\u9999\u6e2f\u6df1\u6c34\u57d7\u6842\u6797\u8857\u8354\u679d\u89d2\u9053323\u865f",
      "geometry": {
        "location": {
          "lat": 22.3285555,
          "lng": 114.1601569
        },
        "location_type": "ROOFTOP",
        "viewport": {
          "northeast": {
            "lat": 22.3299044802915,
            "lng": 114.1615058802915
          },
          "southwest": {
            "lat": 22.3272065197085,
            "lng": 114.1588079197085
          }
        }
      },
      "place_id": "ChIJN27Hv7MABDQRfRBvHXpAXLs",
      "plus_code": {
        "compound_code": "85H6+C3 \u9999\u6e2f\u6df1\u6c34\u57d7",
        "global_code": "7PJP85H6+C3"
      },
      "types": [
        "establishment",
        "food",
        "point_of_interest"
      ]
    }
  ],
  "licno": "3163801765",
  "timestamp": 1564975666,
  "version": "1564966095"
}
