{
  "adr_en": "\u540d\u5c0f\u5eda, SHOP 28, G/F, CHEONG WAI MANSION, 39A KWONG FAI CIRCUIT, KWAI CHUNG, NEW TERRITORIES",
  "adr_tc": "\u65b0\u754c\u8475\u6d8c\u5149\u8f1d\u570d39A\u660c\u5049\u5927\u5ec8\u5730\u4e0b28\u92ea \u540d\u5c0f\u5eda",
  "geocode_en": [
    {
      "address_components": [
        {
          "long_name": "\u540d\u5c0f\u5eda, SHOP",
          "short_name": "\u540d\u5c0f\u5eda, SHOP",
          "types": [
            "subpremise"
          ]
        },
        {
          "long_name": "Cheong Wai Mansion",
          "short_name": "Cheong Wai Mansion",
          "types": [
            "premise"
          ]
        },
        {
          "long_name": "39A",
          "short_name": "39A",
          "types": [
            "street_number"
          ]
        },
        {
          "long_name": "Kwong Fai Circuit",
          "short_name": "Kwong Fai Circuit",
          "types": [
            "route"
          ]
        },
        {
          "long_name": "Kwai Chung",
          "short_name": "Kwai Chung",
          "types": [
            "neighborhood",
            "political"
          ]
        },
        {
          "long_name": "New Territories",
          "short_name": "New Territories",
          "types": [
            "administrative_area_level_1",
            "political"
          ]
        },
        {
          "long_name": "Hong Kong",
          "short_name": "HK",
          "types": [
            "country",
            "political"
          ]
        }
      ],
      "formatted_address": "\u540d\u5c0f\u5eda, SHOP, Cheong Wai Mansion, 39A Kwong Fai Circuit, Kwai Chung, Hong Kong",
      "geometry": {
        "bounds": {
          "northeast": {
            "lat": 22.3689269,
            "lng": 114.1331951
          },
          "southwest": {
            "lat": 22.368491,
            "lng": 114.132787
          }
        },
        "location": {
          "lat": 22.3686873,
          "lng": 114.1330201
        },
        "location_type": "ROOFTOP",
        "viewport": {
          "northeast": {
            "lat": 22.3700579302915,
            "lng": 114.1343400302915
          },
          "southwest": {
            "lat": 22.3673599697085,
            "lng": 114.1316420697085
          }
        }
      },
      "partial_match": true,
      "place_id": "ElHlkI3lsI_lu5osIFNIT1AsIENoZW9uZyBXYWkgTWFuc2lvbiwgMzlBIEt3b25nIEZhaSBDaXJjdWl0LCBLd2FpIENodW5nLCBIb25nIEtvbmciKxopChYKFAoSCSk-HJGa-AM0EcRboEvlvxqaEg_lkI3lsI_lu5osIFNIT1A",
      "types": [
        "subpremise"
      ]
    },
    {
      "address_components": [
        {
          "long_name": "Cheong Wai Mansion",
          "short_name": "Cheong Wai Mansion",
          "types": [
            "premise"
          ]
        },
        {
          "long_name": "39A",
          "short_name": "39A",
          "types": [
            "street_number"
          ]
        },
        {
          "long_name": "Kwong Fai Circuit",
          "short_name": "Kwong Fai Circuit",
          "types": [
            "route"
          ]
        },
        {
          "long_name": "Kwai Chung",
          "short_name": "Kwai Chung",
          "types": [
            "neighborhood",
            "political"
          ]
        },
        {
          "long_name": "New Territories",
          "short_name": "New Territories",
          "types": [
            "administrative_area_level_1",
            "political"
          ]
        },
        {
          "long_name": "Hong Kong",
          "short_name": "HK",
          "types": [
            "country",
            "political"
          ]
        }
      ],
      "formatted_address": "Cheong Wai Mansion, 39A Kwong Fai Circuit, Kwai Chung, Hong Kong",
      "geometry": {
        "bounds": {
          "northeast": {
            "lat": 22.3689269,
            "lng": 114.1331951
          },
          "southwest": {
            "lat": 22.368491,
            "lng": 114.132787
          }
        },
        "location": {
          "lat": 22.3686873,
          "lng": 114.1330201
        },
        "location_type": "ROOFTOP",
        "viewport": {
          "northeast": {
            "lat": 22.3700579302915,
            "lng": 114.1343400302915
          },
          "southwest": {
            "lat": 22.3673599697085,
            "lng": 114.1316420697085
          }
        }
      },
      "partial_match": true,
      "place_id": "ChIJKT4ckZr4AzQRxFugS-W_Gpo",
      "types": [
        "premise"
      ]
    }
  ],
  "geocode_tc": [
    {
      "address_components": [
        {
          "long_name": "39A",
          "short_name": "39A",
          "types": [
            "street_number"
          ]
        },
        {
          "long_name": "\u5149\u8f1d\u570d",
          "short_name": "\u5149\u8f1d\u570d",
          "types": [
            "route"
          ]
        },
        {
          "long_name": "\u865f",
          "short_name": "\u865f",
          "types": [
            "neighborhood",
            "political"
          ]
        },
        {
          "long_name": "\u65b0\u754c",
          "short_name": "\u65b0\u754c",
          "types": [
            "administrative_area_level_1",
            "political"
          ]
        },
        {
          "long_name": "\u9999\u6e2f",
          "short_name": "HK",
          "types": [
            "country",
            "political"
          ]
        }
      ],
      "formatted_address": "\u9999\u6e2f\u865f\u5149\u8f1d\u570d39A\u865f",
      "geometry": {
        "location": {
          "lat": 22.3685976,
          "lng": 114.1329115
        },
        "location_type": "ROOFTOP",
        "viewport": {
          "northeast": {
            "lat": 22.3699465802915,
            "lng": 114.1342604802915
          },
          "southwest": {
            "lat": 22.36724861970849,
            "lng": 114.1315625197085
          }
        }
      },
      "place_id": "ChIJ7SyzkZr4AzQR33bKYgz1jrk",
      "plus_code": {
        "compound_code": "949M+C5 \u9999\u6e2f",
        "global_code": "7PJP949M+C5"
      },
      "types": [
        "establishment",
        "food",
        "point_of_interest",
        "restaurant"
      ]
    }
  ],
  "licno": "2291802950",
  "timestamp": 1564968756,
  "version": "1564966095"
}
