{
  "adr_en": "\u516b\u65b9\u96f2\u96c6, SHOP G07, G/F., JOYSMARK, MUN TUNG ESTATE, TUNG CHUNG, LANTAU ISLAND, HONG KONG",
  "adr_tc": "\u9999\u6e2f\u5927\u5dbc\u5c71\u6771\u6d8c\u6eff\u6771\u90a8\u6eff\u6a02\u574a\u5730\u4e0bG07\u92ea \u516b\u65b9\u96f2\u96c6",
  "geocode_en": [
    {
      "address_components": [
        {
          "long_name": "Hong Kong",
          "short_name": "HK",
          "types": [
            "country",
            "political"
          ]
        }
      ],
      "formatted_address": "TUNG CHUNG, Hong Kong",
      "geometry": {
        "location": {
          "lat": 22.277346,
          "lng": 113.933519
        },
        "location_type": "GEOMETRIC_CENTER",
        "viewport": {
          "northeast": {
            "lat": 22.2786949802915,
            "lng": 113.9348679802915
          },
          "southwest": {
            "lat": 22.2759970197085,
            "lng": 113.9321700197085
          }
        }
      },
      "partial_match": true,
      "place_id": "ChIJB-raXApYATQRxX-SROgnp9s",
      "plus_code": {
        "compound_code": "7WGM+WC Hong Kong",
        "global_code": "7PJM7WGM+WC"
      },
      "types": [
        "establishment",
        "point_of_interest",
        "shopping_mall"
      ]
    },
    {
      "address_components": [
        {
          "long_name": "7",
          "short_name": "7",
          "types": [
            "street_number"
          ]
        },
        {
          "long_name": "Chung Yat Street",
          "short_name": "Chung Yat St",
          "types": [
            "route"
          ]
        },
        {
          "long_name": "Tung Chung",
          "short_name": "Tung Chung",
          "types": [
            "neighborhood",
            "political"
          ]
        },
        {
          "long_name": "New Territories",
          "short_name": "New Territories",
          "types": [
            "administrative_area_level_1",
            "political"
          ]
        },
        {
          "long_name": "Hong Kong",
          "short_name": "HK",
          "types": [
            "country",
            "political"
          ]
        }
      ],
      "formatted_address": "7 Chung Yat St, Tung Chung, Hong Kong",
      "geometry": {
        "location": {
          "lat": 22.2766156,
          "lng": 113.9324941
        },
        "location_type": "ROOFTOP",
        "viewport": {
          "northeast": {
            "lat": 22.2779645802915,
            "lng": 113.9338430802915
          },
          "southwest": {
            "lat": 22.2752666197085,
            "lng": 113.9311451197085
          }
        }
      },
      "partial_match": true,
      "place_id": "ChIJD9_k-wpYATQRiZg6KEXs-2A",
      "plus_code": {
        "compound_code": "7WGJ+JX Hong Kong",
        "global_code": "7PJM7WGJ+JX"
      },
      "types": [
        "establishment",
        "point_of_interest"
      ]
    }
  ],
  "geocode_tc": [
    {
      "address_components": [
        {
          "long_name": "7",
          "short_name": "7",
          "types": [
            "street_number"
          ]
        },
        {
          "long_name": "\u677e\u9038\u8857",
          "short_name": "\u677e\u9038\u8857",
          "types": [
            "route"
          ]
        },
        {
          "long_name": "\u6771\u6d8c",
          "short_name": "\u6771\u6d8c",
          "types": [
            "neighborhood",
            "political"
          ]
        },
        {
          "long_name": "\u65b0\u754c",
          "short_name": "\u65b0\u754c",
          "types": [
            "administrative_area_level_1",
            "political"
          ]
        },
        {
          "long_name": "\u9999\u6e2f",
          "short_name": "HK",
          "types": [
            "country",
            "political"
          ]
        }
      ],
      "formatted_address": "\u9999\u6e2f\u6771\u6d8c\u677e\u9038\u88577\u865f",
      "geometry": {
        "location": {
          "lat": 22.2766156,
          "lng": 113.9324941
        },
        "location_type": "ROOFTOP",
        "viewport": {
          "northeast": {
            "lat": 22.2779645802915,
            "lng": 113.9338430802915
          },
          "southwest": {
            "lat": 22.2752666197085,
            "lng": 113.9311451197085
          }
        }
      },
      "partial_match": true,
      "place_id": "ChIJD9_k-wpYATQRiZg6KEXs-2A",
      "plus_code": {
        "compound_code": "7WGJ+JX \u9999\u6e2f",
        "global_code": "7PJM7WGJ+JX"
      },
      "types": [
        "establishment",
        "point_of_interest"
      ]
    },
    {
      "address_components": [
        {
          "long_name": "\u9999\u6e2f",
          "short_name": "HK",
          "types": [
            "country",
            "political"
          ]
        }
      ],
      "formatted_address": "TUNG CHUNG, \u9999\u6e2f",
      "geometry": {
        "location": {
          "lat": 22.277346,
          "lng": 113.933519
        },
        "location_type": "GEOMETRIC_CENTER",
        "viewport": {
          "northeast": {
            "lat": 22.2786949802915,
            "lng": 113.9348679802915
          },
          "southwest": {
            "lat": 22.2759970197085,
            "lng": 113.9321700197085
          }
        }
      },
      "partial_match": true,
      "place_id": "ChIJB-raXApYATQRxX-SROgnp9s",
      "plus_code": {
        "compound_code": "7WGM+WC \u9999\u6e2f",
        "global_code": "7PJM7WGM+WC"
      },
      "types": [
        "establishment",
        "point_of_interest",
        "shopping_mall"
      ]
    }
  ],
  "licno": "3917801030",
  "timestamp": 1564975666,
  "version": "1564966095"
}
