{
  "adr_en": "\u76c8\u5f69\u6d77\u9bae\u706b\u934b\u9152\u5bb6, G/F (PORTION), 1/F (PORTION) & SHOP 207, KWAI CHUNG SHOPPING CENTRE, SHEUNG KOK STREET, KWAI CHUNG, NEW TERRITORIES",
  "adr_tc": "\u65b0\u754c\u8475\u6d8c\u4e0a\u89d2\u8857 \u8475\u6d8c\u5546\u5834207\u865f\u92ea 1\u5b57\u6a13(\u90e8\u4efd)\u53ca\u5730\u4e0b(\u90e8\u4efd) \u76c8\u5f69\u6d77\u9bae\u706b\u934b\u9152\u5bb6",
  "geocode_en": [
    {
      "address_components": [
        {
          "long_name": "Hong Kong",
          "short_name": "HK",
          "types": [
            "country",
            "political"
          ]
        }
      ],
      "formatted_address": "\u8475\u6d8c \u8475\u6d8c \u90a8 \u8475\u6d8c \u5546 \u57f8 2 \u6a13 207 \u865f \u8216, Hong Kong",
      "geometry": {
        "location": {
          "lat": 22.367707,
          "lng": 114.1276536
        },
        "location_type": "GEOMETRIC_CENTER",
        "viewport": {
          "northeast": {
            "lat": 22.3690559802915,
            "lng": 114.1290025802915
          },
          "southwest": {
            "lat": 22.3663580197085,
            "lng": 114.1263046197085
          }
        }
      },
      "partial_match": true,
      "place_id": "ChIJG6IkE5H4AzQRENLAwJG5UA0",
      "plus_code": {
        "compound_code": "949H+33 Hong Kong",
        "global_code": "7PJP949H+33"
      },
      "types": [
        "establishment",
        "food",
        "point_of_interest",
        "restaurant"
      ]
    },
    {
      "address_components": [
        {
          "long_name": "Sheung Kok Street",
          "short_name": "Sheung Kok St",
          "types": [
            "route"
          ]
        },
        {
          "long_name": "Sheung Kwai Chung Tsuen",
          "short_name": "Sheung Kwai Chung Tsuen",
          "types": [
            "neighborhood",
            "political"
          ]
        },
        {
          "long_name": "New Territories",
          "short_name": "New Territories",
          "types": [
            "administrative_area_level_1",
            "political"
          ]
        },
        {
          "long_name": "Hong Kong",
          "short_name": "HK",
          "types": [
            "country",
            "political"
          ]
        }
      ],
      "formatted_address": "Sheung Kok St, Sheung Kwai Chung Tsuen, Hong Kong",
      "geometry": {
        "location": {
          "lat": 22.3678217,
          "lng": 114.1279596
        },
        "location_type": "GEOMETRIC_CENTER",
        "viewport": {
          "northeast": {
            "lat": 22.3691706802915,
            "lng": 114.1293085802915
          },
          "southwest": {
            "lat": 22.3664727197085,
            "lng": 114.1266106197085
          }
        }
      },
      "partial_match": true,
      "place_id": "ChIJNZjiP5H4AzQRRO5x7Xny5dg",
      "plus_code": {
        "compound_code": "949H+45 Hong Kong",
        "global_code": "7PJP949H+45"
      },
      "types": [
        "establishment",
        "point_of_interest",
        "shopping_mall"
      ]
    }
  ],
  "geocode_tc": [
    {
      "address_components": [
        {
          "long_name": "\u9999\u6e2f",
          "short_name": "HK",
          "types": [
            "country",
            "political"
          ]
        }
      ],
      "formatted_address": "\u8475\u6d8c \u8475\u6d8c \u90a8 \u8475\u6d8c \u5546 \u57f8 2 \u6a13 207 \u865f \u8216, \u9999\u6e2f",
      "geometry": {
        "location": {
          "lat": 22.367707,
          "lng": 114.1276536
        },
        "location_type": "GEOMETRIC_CENTER",
        "viewport": {
          "northeast": {
            "lat": 22.3690559802915,
            "lng": 114.1290025802915
          },
          "southwest": {
            "lat": 22.3663580197085,
            "lng": 114.1263046197085
          }
        }
      },
      "place_id": "ChIJG6IkE5H4AzQRENLAwJG5UA0",
      "plus_code": {
        "compound_code": "949H+33 \u9999\u6e2f",
        "global_code": "7PJP949H+33"
      },
      "types": [
        "establishment",
        "food",
        "point_of_interest",
        "restaurant"
      ]
    }
  ],
  "licno": "2291800468",
  "timestamp": 1564968756,
  "version": "1564966095"
}
