{
  "adr_en": "Tin Wan Caf\u00e9, SHOP E, G/F., TAI TAK HOUSE, 27-33 KA WO STREET, TIN WAN, HONG KONG",
  "adr_tc": "\u9999\u6e2f\u7530\u7063\u5609\u79be\u885727-33\u865f\u5927\u5fb7\u6a13\u5730\u4e0bE\u92ea \u7530\u7063\u51b0\u5ba4",
  "geocode_en": [
    {
      "address_components": [
        {
          "long_name": "Tai Tak House",
          "short_name": "Tai Tak House",
          "types": [
            "premise"
          ]
        },
        {
          "long_name": "27-33B",
          "short_name": "27-33B",
          "types": [
            "street_number"
          ]
        },
        {
          "long_name": "Ka Wo Street",
          "short_name": "Ka Wo St",
          "types": [
            "route"
          ]
        },
        {
          "long_name": "Tin Wan",
          "short_name": "Tin Wan",
          "types": [
            "neighborhood",
            "political"
          ]
        },
        {
          "long_name": "Hong Kong Island",
          "short_name": "Hong Kong Island",
          "types": [
            "administrative_area_level_1",
            "political"
          ]
        },
        {
          "long_name": "Hong Kong",
          "short_name": "HK",
          "types": [
            "country",
            "political"
          ]
        }
      ],
      "formatted_address": "Tai Tak House, 27-33B Ka Wo St, Tin Wan, Hong Kong",
      "geometry": {
        "bounds": {
          "northeast": {
            "lat": 22.2499821,
            "lng": 114.1484741
          },
          "southwest": {
            "lat": 22.2497709,
            "lng": 114.1482491
          }
        },
        "location": {
          "lat": 22.2498659,
          "lng": 114.1483711
        },
        "location_type": "ROOFTOP",
        "viewport": {
          "northeast": {
            "lat": 22.2512254802915,
            "lng": 114.1497105802915
          },
          "southwest": {
            "lat": 22.2485275197085,
            "lng": 114.1470126197085
          }
        }
      },
      "partial_match": true,
      "place_id": "ChIJ565TPwEABDQRAl61H9YHs_M",
      "types": [
        "premise"
      ]
    }
  ],
  "geocode_tc": [
    {
      "address_components": [
        {
          "long_name": "22",
          "short_name": "22",
          "types": [
            "street_number"
          ]
        },
        {
          "long_name": "\u5609\u79be\u8857",
          "short_name": "\u5609\u79be\u8857",
          "types": [
            "route"
          ]
        },
        {
          "long_name": "\u7530\u7063",
          "short_name": "\u7530\u7063",
          "types": [
            "neighborhood",
            "political"
          ]
        },
        {
          "long_name": "\u9999\u6e2f\u5cf6",
          "short_name": "\u9999\u6e2f\u5cf6",
          "types": [
            "administrative_area_level_1",
            "political"
          ]
        },
        {
          "long_name": "\u9999\u6e2f",
          "short_name": "HK",
          "types": [
            "country",
            "political"
          ]
        }
      ],
      "formatted_address": "\u9999\u6e2f\u7530\u7063\u5609\u79be\u885722\u865f",
      "geometry": {
        "location": {
          "lat": 22.2497817,
          "lng": 114.1488602
        },
        "location_type": "ROOFTOP",
        "viewport": {
          "northeast": {
            "lat": 22.2511306802915,
            "lng": 114.1502091802915
          },
          "southwest": {
            "lat": 22.2484327197085,
            "lng": 114.1475112197085
          }
        }
      },
      "place_id": "ChIJkf134oIBBDQR-AiLpB9F3oQ",
      "plus_code": {
        "compound_code": "64XX+WG \u9999\u6e2f",
        "global_code": "7PJP64XX+WG"
      },
      "types": [
        "establishment",
        "point_of_interest"
      ]
    }
  ],
  "licno": "3115800266",
  "timestamp": 1564975666,
  "version": "1564966095"
}
