{
  "adr_en": "\u6797\u5712, SHOP NO 2, G/F, HO SZE HOUSE, 60 CHIK FUK STREET, TAI WAI, SHA TIN, NEW TERRITORIES",
  "adr_tc": "\u65b0\u754c\u6c99\u7530\u5927\u570d \u7a4d\u798f\u885760\u865f \u597d\u6642\u6d0b\u6a13 \u5730\u4e0b2\u865f\u92ea \u6797\u5712",
  "geocode_en": [
    {
      "address_components": [
        {
          "long_name": "\u6797\u5712, SHOP NO",
          "short_name": "\u6797\u5712, SHOP NO",
          "types": [
            "subpremise"
          ]
        },
        {
          "long_name": "Ho Sze House",
          "short_name": "Ho Sze House",
          "types": [
            "premise"
          ]
        },
        {
          "long_name": "60-62",
          "short_name": "60-62",
          "types": [
            "street_number"
          ]
        },
        {
          "long_name": "Chik Fuk Street",
          "short_name": "Chik Fuk St",
          "types": [
            "route"
          ]
        },
        {
          "long_name": "Tai Wai",
          "short_name": "Tai Wai",
          "types": [
            "neighborhood",
            "political"
          ]
        },
        {
          "long_name": "New Territories",
          "short_name": "New Territories",
          "types": [
            "administrative_area_level_1",
            "political"
          ]
        },
        {
          "long_name": "Hong Kong",
          "short_name": "HK",
          "types": [
            "country",
            "political"
          ]
        }
      ],
      "formatted_address": "\u6797\u5712, SHOP NO, Ho Sze House, 60-62 Chik Fuk St, Tai Wai, Hong Kong",
      "geometry": {
        "bounds": {
          "northeast": {
            "lat": 22.374735,
            "lng": 114.179604
          },
          "southwest": {
            "lat": 22.3745419,
            "lng": 114.179397
          }
        },
        "location": {
          "lat": 22.3746285,
          "lng": 114.1794896
        },
        "location_type": "ROOFTOP",
        "viewport": {
          "northeast": {
            "lat": 22.3759874302915,
            "lng": 114.1808494802915
          },
          "southwest": {
            "lat": 22.3732894697085,
            "lng": 114.1781515197085
          }
        }
      },
      "partial_match": true,
      "place_id": "EkTmnpflnJIsIFNIT1AgTk8sIEhvIFN6ZSBIb3VzZSwgNjAtNjIgQ2hpayBGdWsgU3QsIFRhaSBXYWksIEhvbmcgS29uZyIrGikKFgoUChIJCatB_qcHBDQRnmzZPXNsFAcSD-ael-WckiwgU0hPUCBOTw",
      "types": [
        "subpremise"
      ]
    }
  ],
  "geocode_tc": [
    {
      "address_components": [
        {
          "long_name": "\u9999\u6e2f",
          "short_name": "HK",
          "types": [
            "country",
            "political"
          ]
        }
      ],
      "formatted_address": "\u9999\u6e2f\u7a4d\u798f\u91cc60\u865f",
      "geometry": {
        "location": {
          "lat": 22.3747614,
          "lng": 114.1794746
        },
        "location_type": "GEOMETRIC_CENTER",
        "viewport": {
          "northeast": {
            "lat": 22.3761103802915,
            "lng": 114.1808235802915
          },
          "southwest": {
            "lat": 22.3734124197085,
            "lng": 114.1781256197085
          }
        }
      },
      "place_id": "ChIJGaM0_KcHBDQRaMVMvhsBksE",
      "plus_code": {
        "compound_code": "95FH+WQ \u9999\u6e2f",
        "global_code": "7PJP95FH+WQ"
      },
      "types": [
        "establishment",
        "food",
        "point_of_interest",
        "restaurant"
      ]
    }
  ],
  "licno": "2297000556",
  "timestamp": 1564975666,
  "version": "1564966095"
}
