{
  "adr_en": "GOLD GARDEN ROASTED PIG & GOOSE RESTAURANT, 4/F, 655 NATHAN ROAD, MONG KOK, KOWLOON",
  "adr_tc": "\u4e5d\u9f8d\u65fa\u89d2\u5f4c\u6566\u9053655\u865f4\u5b57\u6a13 \u91d1\u82d1\u9152\u5bb6",
  "geocode_en": [
    {
      "address_components": [
        {
          "long_name": "655",
          "short_name": "655",
          "types": [
            "street_number"
          ]
        },
        {
          "long_name": "Nathan Road",
          "short_name": "Nathan Rd",
          "types": [
            "route"
          ]
        },
        {
          "long_name": "Mong Kok",
          "short_name": "Mong Kok",
          "types": [
            "neighborhood",
            "political"
          ]
        },
        {
          "long_name": "Hong Kong",
          "short_name": "HK",
          "types": [
            "country",
            "political"
          ]
        }
      ],
      "formatted_address": "\u865f, 655 Nathan Rd, Mong Kok, Hong Kong",
      "geometry": {
        "location": {
          "lat": 22.3185385,
          "lng": 114.1692705
        },
        "location_type": "ROOFTOP",
        "viewport": {
          "northeast": {
            "lat": 22.3198874802915,
            "lng": 114.1706194802915
          },
          "southwest": {
            "lat": 22.3171895197085,
            "lng": 114.1679215197085
          }
        }
      },
      "partial_match": true,
      "place_id": "ChIJhQYWvscABDQRY8G4XBNhoKE",
      "plus_code": {
        "compound_code": "8599+CP Hong Kong",
        "global_code": "7PJP8599+CP"
      },
      "types": [
        "establishment",
        "food",
        "point_of_interest",
        "restaurant"
      ]
    },
    {
      "address_components": [
        {
          "long_name": "4",
          "short_name": "4",
          "types": [
            "subpremise"
          ]
        },
        {
          "long_name": "Wu Sang House",
          "short_name": "Wu Sang House",
          "types": [
            "premise"
          ]
        },
        {
          "long_name": "655",
          "short_name": "655",
          "types": [
            "street_number"
          ]
        },
        {
          "long_name": "Nathan Road",
          "short_name": "Nathan Rd",
          "types": [
            "route"
          ]
        },
        {
          "long_name": "Mong Kok",
          "short_name": "Mong Kok",
          "types": [
            "neighborhood",
            "political"
          ]
        },
        {
          "long_name": "Kowloon",
          "short_name": "Kowloon",
          "types": [
            "administrative_area_level_1",
            "political"
          ]
        },
        {
          "long_name": "Hong Kong",
          "short_name": "HK",
          "types": [
            "country",
            "political"
          ]
        }
      ],
      "formatted_address": "4, Wu Sang House, 655 Nathan Rd, Mong Kok, Hong Kong",
      "geometry": {
        "bounds": {
          "northeast": {
            "lat": 22.318722,
            "lng": 114.1694111
          },
          "southwest": {
            "lat": 22.318355,
            "lng": 114.16913
          }
        },
        "location": {
          "lat": 22.3185003,
          "lng": 114.1692486
        },
        "location_type": "ROOFTOP",
        "viewport": {
          "northeast": {
            "lat": 22.31988748029151,
            "lng": 114.1706195302915
          },
          "southwest": {
            "lat": 22.3171895197085,
            "lng": 114.1679215697085
          }
        }
      },
      "partial_match": true,
      "place_id": "EjQ0LCBXdSBTYW5nIEhvdXNlLCA2NTUgTmF0aGFuIFJkLCBNb25nIEtvaywgSG9uZyBLb25nIh0aGwoWChQKEgmFBha-xwAENBHEtHtpL6Ea0BIBNA",
      "types": [
        "subpremise"
      ]
    },
    {
      "address_components": [
        {
          "long_name": "F",
          "short_name": "F",
          "types": [
            "subpremise"
          ]
        },
        {
          "long_name": "Wu Sang House",
          "short_name": "Wu Sang House",
          "types": [
            "premise"
          ]
        },
        {
          "long_name": "655",
          "short_name": "655",
          "types": [
            "street_number"
          ]
        },
        {
          "long_name": "Nathan Road",
          "short_name": "Nathan Rd",
          "types": [
            "route"
          ]
        },
        {
          "long_name": "Mong Kok",
          "short_name": "Mong Kok",
          "types": [
            "neighborhood",
            "political"
          ]
        },
        {
          "long_name": "Kowloon",
          "short_name": "Kowloon",
          "types": [
            "administrative_area_level_1",
            "political"
          ]
        },
        {
          "long_name": "Hong Kong",
          "short_name": "HK",
          "types": [
            "country",
            "political"
          ]
        }
      ],
      "formatted_address": "F, Wu Sang House, 655 Nathan Rd, Mong Kok, Hong Kong",
      "geometry": {
        "bounds": {
          "northeast": {
            "lat": 22.318722,
            "lng": 114.1694111
          },
          "southwest": {
            "lat": 22.318355,
            "lng": 114.16913
          }
        },
        "location": {
          "lat": 22.3185003,
          "lng": 114.1692486
        },
        "location_type": "ROOFTOP",
        "viewport": {
          "northeast": {
            "lat": 22.31988748029151,
            "lng": 114.1706195302915
          },
          "southwest": {
            "lat": 22.3171895197085,
            "lng": 114.1679215697085
          }
        }
      },
      "partial_match": true,
      "place_id": "EjRGLCBXdSBTYW5nIEhvdXNlLCA2NTUgTmF0aGFuIFJkLCBNb25nIEtvaywgSG9uZyBLb25nIh0aGwoWChQKEgmFBha-xwAENBHEtHtpL6Ea0BIBRg",
      "types": [
        "subpremise"
      ]
    }
  ],
  "geocode_tc": [
    {
      "address_components": [
        {
          "long_name": "655",
          "short_name": "655",
          "types": [
            "street_number"
          ]
        },
        {
          "long_name": "Nathan Road",
          "short_name": "Nathan Rd",
          "types": [
            "route"
          ]
        },
        {
          "long_name": "Mong Kok",
          "short_name": "Mong Kok",
          "types": [
            "neighborhood",
            "political"
          ]
        },
        {
          "long_name": "\u9999\u6e2f",
          "short_name": "HK",
          "types": [
            "country",
            "political"
          ]
        }
      ],
      "formatted_address": "\u865f, 655 Nathan Rd, Mong Kok, \u9999\u6e2f",
      "geometry": {
        "location": {
          "lat": 22.3185385,
          "lng": 114.1692705
        },
        "location_type": "ROOFTOP",
        "viewport": {
          "northeast": {
            "lat": 22.3198874802915,
            "lng": 114.1706194802915
          },
          "southwest": {
            "lat": 22.3171895197085,
            "lng": 114.1679215197085
          }
        }
      },
      "place_id": "ChIJhQYWvscABDQRY8G4XBNhoKE",
      "plus_code": {
        "compound_code": "8599+CP \u9999\u6e2f",
        "global_code": "7PJP8599+CP"
      },
      "types": [
        "establishment",
        "food",
        "point_of_interest",
        "restaurant"
      ]
    }
  ],
  "licno": "2262811725",
  "timestamp": 1564968756,
  "version": "1564966095"
}
