{
  "adr_en": "CLUB 28, UNIT A, 2/F, KIMBERLEY HOUSE, 35-35A KIMBERLEY ROAD, TSIM SHA TSUI, KOWLOON",
  "adr_tc": "\u4e5d\u9f8d\u5c16\u6c99\u5480\u91d1\u5df4\u5229\u905335-35A\u91d1\u5df4\u5229\u4e2d\u5fc32\u6a13A\u5ba4 CLUB 28",
  "geocode_en": [
    {
      "address_components": [
        {
          "long_name": "28",
          "short_name": "28",
          "types": [
            "subpremise"
          ]
        },
        {
          "long_name": "Kimberley House",
          "short_name": "Kimberley House",
          "types": [
            "premise"
          ]
        },
        {
          "long_name": "35-35A",
          "short_name": "35-35A",
          "types": [
            "street_number"
          ]
        },
        {
          "long_name": "Kimberley Road",
          "short_name": "Kimberley Rd",
          "types": [
            "route"
          ]
        },
        {
          "long_name": "Tsim Sha Tsui",
          "short_name": "Tsim Sha Tsui",
          "types": [
            "neighborhood",
            "political"
          ]
        },
        {
          "long_name": "Kowloon",
          "short_name": "Kowloon",
          "types": [
            "administrative_area_level_1",
            "political"
          ]
        },
        {
          "long_name": "Hong Kong",
          "short_name": "HK",
          "types": [
            "country",
            "political"
          ]
        }
      ],
      "formatted_address": "28, Kimberley House, 35-35A Kimberley Rd, Tsim Sha Tsui, Hong Kong",
      "geometry": {
        "bounds": {
          "northeast": {
            "lat": 22.301049,
            "lng": 114.1737369
          },
          "southwest": {
            "lat": 22.300767,
            "lng": 114.1735749
          }
        },
        "location": {
          "lat": 22.3009142,
          "lng": 114.1736376
        },
        "location_type": "ROOFTOP",
        "viewport": {
          "northeast": {
            "lat": 22.3022569802915,
            "lng": 114.1750048802915
          },
          "southwest": {
            "lat": 22.2995590197085,
            "lng": 114.1723069197085
          }
        }
      },
      "partial_match": true,
      "place_id": "EkIyOCwgS2ltYmVybGV5IEhvdXNlLCAzNS0zNUEgS2ltYmVybGV5IFJkLCBUc2ltIFNoYSBUc3VpLCBIb25nIEtvbmciHhocChYKFAoSCRsXYifsAAQ0Ee7QmnvCfaJpEgIyOA",
      "types": [
        "subpremise"
      ]
    },
    {
      "address_components": [
        {
          "long_name": "UNIT A",
          "short_name": "UNIT A",
          "types": [
            "subpremise"
          ]
        },
        {
          "long_name": "Kimberley House",
          "short_name": "Kimberley House",
          "types": [
            "premise"
          ]
        },
        {
          "long_name": "35-35A",
          "short_name": "35-35A",
          "types": [
            "street_number"
          ]
        },
        {
          "long_name": "Kimberley Road",
          "short_name": "Kimberley Rd",
          "types": [
            "route"
          ]
        },
        {
          "long_name": "Tsim Sha Tsui",
          "short_name": "Tsim Sha Tsui",
          "types": [
            "neighborhood",
            "political"
          ]
        },
        {
          "long_name": "Kowloon",
          "short_name": "Kowloon",
          "types": [
            "administrative_area_level_1",
            "political"
          ]
        },
        {
          "long_name": "Hong Kong",
          "short_name": "HK",
          "types": [
            "country",
            "political"
          ]
        }
      ],
      "formatted_address": "UNIT A, Kimberley House, 35-35A Kimberley Rd, Tsim Sha Tsui, Hong Kong",
      "geometry": {
        "bounds": {
          "northeast": {
            "lat": 22.301049,
            "lng": 114.1737369
          },
          "southwest": {
            "lat": 22.300767,
            "lng": 114.1735749
          }
        },
        "location": {
          "lat": 22.3009142,
          "lng": 114.1736376
        },
        "location_type": "ROOFTOP",
        "viewport": {
          "northeast": {
            "lat": 22.3022569802915,
            "lng": 114.1750048802915
          },
          "southwest": {
            "lat": 22.2995590197085,
            "lng": 114.1723069197085
          }
        }
      },
      "partial_match": true,
      "place_id": "EkZVTklUIEEsIEtpbWJlcmxleSBIb3VzZSwgMzUtMzVBIEtpbWJlcmxleSBSZCwgVHNpbSBTaGEgVHN1aSwgSG9uZyBLb25nIiIaIAoWChQKEgkbF2In7AAENBHu0Jp7wn2iaRIGVU5JVCBB",
      "types": [
        "subpremise"
      ]
    },
    {
      "address_components": [
        {
          "long_name": "Kimberley House",
          "short_name": "Kimberley House",
          "types": [
            "premise"
          ]
        },
        {
          "long_name": "35-35A",
          "short_name": "35-35A",
          "types": [
            "street_number"
          ]
        },
        {
          "long_name": "Kimberley Road",
          "short_name": "Kimberley Rd",
          "types": [
            "route"
          ]
        },
        {
          "long_name": "Tsim Sha Tsui",
          "short_name": "Tsim Sha Tsui",
          "types": [
            "neighborhood",
            "political"
          ]
        },
        {
          "long_name": "Kowloon",
          "short_name": "Kowloon",
          "types": [
            "administrative_area_level_1",
            "political"
          ]
        },
        {
          "long_name": "Hong Kong",
          "short_name": "HK",
          "types": [
            "country",
            "political"
          ]
        }
      ],
      "formatted_address": "Kimberley House, 35-35A Kimberley Rd, Tsim Sha Tsui, Hong Kong",
      "geometry": {
        "bounds": {
          "northeast": {
            "lat": 22.301049,
            "lng": 114.1737369
          },
          "southwest": {
            "lat": 22.300767,
            "lng": 114.1735749
          }
        },
        "location": {
          "lat": 22.3009142,
          "lng": 114.1736376
        },
        "location_type": "ROOFTOP",
        "viewport": {
          "northeast": {
            "lat": 22.3022569802915,
            "lng": 114.1750048802915
          },
          "southwest": {
            "lat": 22.2995590197085,
            "lng": 114.1723069197085
          }
        }
      },
      "partial_match": true,
      "place_id": "ChIJGxdiJ-wABDQR7tCae8J9omk",
      "types": [
        "premise"
      ]
    }
  ],
  "geocode_tc": [
    {
      "address_components": [
        {
          "long_name": "\u91d1\u5df4\u5229\u4e2d\u5fc3",
          "short_name": "\u91d1\u5df4\u5229\u4e2d\u5fc3",
          "types": [
            "premise"
          ]
        },
        {
          "long_name": "35-35A",
          "short_name": "35-35A",
          "types": [
            "street_number"
          ]
        },
        {
          "long_name": "\u91d1\u5df4\u5229\u9053",
          "short_name": "\u91d1\u5df4\u5229\u9053",
          "types": [
            "route"
          ]
        },
        {
          "long_name": "\u5c16\u6c99\u5480",
          "short_name": "\u5c16\u6c99\u5480",
          "types": [
            "neighborhood",
            "political"
          ]
        },
        {
          "long_name": "\u4e5d\u9f8d",
          "short_name": "\u4e5d\u9f8d",
          "types": [
            "administrative_area_level_1",
            "political"
          ]
        },
        {
          "long_name": "\u9999\u6e2f",
          "short_name": "HK",
          "types": [
            "country",
            "political"
          ]
        }
      ],
      "formatted_address": "\u9999\u6e2f\u5c16\u6c99\u5480\u91d1\u5df4\u5229\u905335-35A\u865f\u91d1\u5df4\u5229\u4e2d\u5fc3",
      "geometry": {
        "bounds": {
          "northeast": {
            "lat": 22.301049,
            "lng": 114.1737369
          },
          "southwest": {
            "lat": 22.300767,
            "lng": 114.1735749
          }
        },
        "location": {
          "lat": 22.3009142,
          "lng": 114.1736376
        },
        "location_type": "ROOFTOP",
        "viewport": {
          "northeast": {
            "lat": 22.3022569802915,
            "lng": 114.1750048802915
          },
          "southwest": {
            "lat": 22.2995590197085,
            "lng": 114.1723069197085
          }
        }
      },
      "partial_match": true,
      "place_id": "ChIJGxdiJ-wABDQR7tCae8J9omk",
      "types": [
        "premise"
      ]
    },
    {
      "address_components": [
        {
          "long_name": "\u9999\u6e2f",
          "short_name": "HK",
          "types": [
            "country",
            "political"
          ]
        }
      ],
      "formatted_address": "\u9999\u6e2f\u9285\u947c\u7063\u79ae\u9813\u90538\u865f\u9285\u947c\u7063\u7687\u51a0\u5047\u65e5\u9152\u5e9728\u6a13",
      "geometry": {
        "location": {
          "lat": 22.277064,
          "lng": 114.182755
        },
        "location_type": "GEOMETRIC_CENTER",
        "viewport": {
          "northeast": {
            "lat": 22.2784129802915,
            "lng": 114.1841039802915
          },
          "southwest": {
            "lat": 22.2757150197085,
            "lng": 114.1814060197085
          }
        }
      },
      "partial_match": true,
      "place_id": "ChIJV9WcHlEABDQRDZCNw9yGA3U",
      "plus_code": {
        "compound_code": "75GM+R4 \u9999\u6e2f",
        "global_code": "7PJP75GM+R4"
      },
      "types": [
        "bar",
        "cafe",
        "establishment",
        "food",
        "point_of_interest"
      ]
    }
  ],
  "licno": "3161805657",
  "timestamp": 1564975666,
  "version": "1564966095"
}
