{
  "adr_en": "Wonderful Cafe, SHOP 45 & 48, 1/F,  WALDORF CENTRE, 170-184 SAI LAU KOK ROAD, TSUEN WAN, NEW TERRITORIES",
  "adr_tc": "\u65b0\u754c\u8343\u7063\u897f\u6a13\u89d2\u8def170-184\u865f\u83ef\u90fd\u4e2d\u5fc3\u4e00\u6a1345\u548c48\u865f\u92ea \u5e0c\u5947",
  "geocode_en": [
    {
      "address_components": [
        {
          "long_name": "Waldorf Centre",
          "short_name": "Waldorf Centre",
          "types": [
            "premise"
          ]
        },
        {
          "long_name": "Tsuen Wan",
          "short_name": "Tsuen Wan",
          "types": [
            "neighborhood",
            "political"
          ]
        },
        {
          "long_name": "Hong Kong",
          "short_name": "HK",
          "types": [
            "country",
            "political"
          ]
        }
      ],
      "formatted_address": "Shop 45, 1/F, Waldorf Centre, Tsuen Wan, Hong Kong",
      "geometry": {
        "location": {
          "lat": 22.3716266,
          "lng": 114.1195513
        },
        "location_type": "ROOFTOP",
        "viewport": {
          "northeast": {
            "lat": 22.3729755802915,
            "lng": 114.1209002802915
          },
          "southwest": {
            "lat": 22.3702776197085,
            "lng": 114.1182023197085
          }
        }
      },
      "partial_match": true,
      "place_id": "ChIJ83xFSu34AzQRStEFaXL-YCc",
      "plus_code": {
        "compound_code": "94C9+MR Hong Kong",
        "global_code": "7PJP94C9+MR"
      },
      "types": [
        "establishment",
        "food",
        "point_of_interest",
        "restaurant"
      ]
    },
    {
      "address_components": [
        {
          "long_name": "Waldorf Centre",
          "short_name": "Waldorf Centre",
          "types": [
            "premise"
          ]
        },
        {
          "long_name": "170-184",
          "short_name": "170-184",
          "types": [
            "street_number"
          ]
        },
        {
          "long_name": "Sai Lau Kok Road",
          "short_name": "Sai Lau Kok Rd",
          "types": [
            "route"
          ]
        },
        {
          "long_name": "Tsuen Wan",
          "short_name": "Tsuen Wan",
          "types": [
            "neighborhood",
            "political"
          ]
        },
        {
          "long_name": "New Territories",
          "short_name": "New Territories",
          "types": [
            "administrative_area_level_1",
            "political"
          ]
        },
        {
          "long_name": "Hong Kong",
          "short_name": "HK",
          "types": [
            "country",
            "political"
          ]
        }
      ],
      "formatted_address": "Waldorf Centre, 170-184 Sai Lau Kok Rd, Tsuen Wan, Hong Kong",
      "geometry": {
        "bounds": {
          "northeast": {
            "lat": 22.371789,
            "lng": 114.119792
          },
          "southwest": {
            "lat": 22.3714769,
            "lng": 114.119474
          }
        },
        "location": {
          "lat": 22.3716681,
          "lng": 114.1196426
        },
        "location_type": "ROOFTOP",
        "viewport": {
          "northeast": {
            "lat": 22.3729819302915,
            "lng": 114.1209819802915
          },
          "southwest": {
            "lat": 22.3702839697085,
            "lng": 114.1182840197085
          }
        }
      },
      "partial_match": true,
      "place_id": "ChIJJeTSTu34AzQR8sqO7SxObTM",
      "types": [
        "premise"
      ]
    }
  ],
  "geocode_tc": [
    {
      "address_components": [
        {
          "long_name": "\u83ef\u90fd\u4e2d\u5fc3",
          "short_name": "\u83ef\u90fd\u4e2d\u5fc3",
          "types": [
            "premise"
          ]
        },
        {
          "long_name": "170-184",
          "short_name": "170-184",
          "types": [
            "street_number"
          ]
        },
        {
          "long_name": "\u897f\u6a13\u89d2\u8def",
          "short_name": "\u897f\u6a13\u89d2\u8def",
          "types": [
            "route"
          ]
        },
        {
          "long_name": "\u8343\u7063",
          "short_name": "\u8343\u7063",
          "types": [
            "neighborhood",
            "political"
          ]
        },
        {
          "long_name": "\u65b0\u754c",
          "short_name": "\u65b0\u754c",
          "types": [
            "administrative_area_level_1",
            "political"
          ]
        },
        {
          "long_name": "\u9999\u6e2f",
          "short_name": "HK",
          "types": [
            "country",
            "political"
          ]
        }
      ],
      "formatted_address": "\u9999\u6e2f\u8343\u7063\u897f\u6a13\u89d2\u8def170-184\u865f\u83ef\u90fd\u4e2d\u5fc3",
      "geometry": {
        "bounds": {
          "northeast": {
            "lat": 22.371789,
            "lng": 114.119792
          },
          "southwest": {
            "lat": 22.3714769,
            "lng": 114.119474
          }
        },
        "location": {
          "lat": 22.3716681,
          "lng": 114.1196426
        },
        "location_type": "ROOFTOP",
        "viewport": {
          "northeast": {
            "lat": 22.3729819302915,
            "lng": 114.1209819802915
          },
          "southwest": {
            "lat": 22.3702839697085,
            "lng": 114.1182840197085
          }
        }
      },
      "partial_match": true,
      "place_id": "ChIJJeTSTu34AzQR8sqO7SxObTM",
      "types": [
        "premise"
      ]
    }
  ],
  "licno": "3192802265",
  "timestamp": 1564975666,
  "version": "1564966095"
}
