{
  "adr_en": "\u5c0f\u6797\u672d\u5e4c\u62c9\u9eb5, SHOP 16A, G/F, WEST BLOCK, PEONY HOUSE, 11 POK MAN STREET, TAI KOK TSUI, KOWLOON",
  "adr_tc": "\u4e5d\u9f8d\u5927\u89d2\u5480\u535a\u6587\u885711\u865f\u5bcc\u8cb4\u5927\u5ec8\u897f\u5ea7\u5730\u4e0b16A\u8216 \u5c0f\u6797\u672d\u5e4c\u62c9\u9eb5",
  "geocode_en": [
    {
      "address_components": [
        {
          "long_name": "Hong Kong",
          "short_name": "HK",
          "types": [
            "country",
            "political"
          ]
        }
      ],
      "formatted_address": "Hong Kong, \u5927\u89d2\u5480\u535a\u6587\u885711\u865f\u5bcc\u8cb4\u5927\u5ec8\u897f\u5ea7\u5730\u4e0b16\u865f\u92ea",
      "geometry": {
        "location": {
          "lat": 22.3194334,
          "lng": 114.1614884
        },
        "location_type": "GEOMETRIC_CENTER",
        "viewport": {
          "northeast": {
            "lat": 22.3207823802915,
            "lng": 114.1628373802915
          },
          "southwest": {
            "lat": 22.31808441970849,
            "lng": 114.1601394197085
          }
        }
      },
      "partial_match": true,
      "place_id": "ChIJLce7JboABDQRfaPEPioyqHI",
      "plus_code": {
        "compound_code": "8596+QH Hong Kong",
        "global_code": "7PJP8596+QH"
      },
      "types": [
        "establishment",
        "food",
        "point_of_interest",
        "restaurant"
      ]
    },
    {
      "address_components": [
        {
          "long_name": "Peony House Block \u00a6\u00e8\u00aey Peony House West Block",
          "short_name": "Peony House Block \u00a6\u00e8\u00aey Peony House West Block",
          "types": [
            "premise"
          ]
        },
        {
          "long_name": "Hoi King Street",
          "short_name": "Hoi King St",
          "types": [
            "route"
          ]
        },
        {
          "long_name": "Tai Kok Tsui",
          "short_name": "Tai Kok Tsui",
          "types": [
            "neighborhood",
            "political"
          ]
        },
        {
          "long_name": "Kowloon",
          "short_name": "Kowloon",
          "types": [
            "administrative_area_level_1",
            "political"
          ]
        },
        {
          "long_name": "Hong Kong",
          "short_name": "HK",
          "types": [
            "country",
            "political"
          ]
        }
      ],
      "formatted_address": "Peony House Block \u00a6\u00e8\u00aey Peony House West Block, Hoi King St, Tai Kok Tsui, Hong Kong",
      "geometry": {
        "location": {
          "lat": 22.31932,
          "lng": 114.161378
        },
        "location_type": "ROOFTOP",
        "viewport": {
          "northeast": {
            "lat": 22.3206689802915,
            "lng": 114.1627269802915
          },
          "southwest": {
            "lat": 22.31797101970849,
            "lng": 114.1600290197085
          }
        }
      },
      "partial_match": true,
      "place_id": "ChIJddxTL7oABDQRgxt1MpozEwI",
      "plus_code": {
        "compound_code": "8596+PH Hong Kong",
        "global_code": "7PJP8596+PH"
      },
      "types": [
        "establishment",
        "lodging",
        "point_of_interest"
      ]
    },
    {
      "address_components": [
        {
          "long_name": "11",
          "short_name": "11",
          "types": [
            "street_number"
          ]
        },
        {
          "long_name": "Pok Man Street",
          "short_name": "Pok Man St",
          "types": [
            "route"
          ]
        },
        {
          "long_name": "Tai Kok Tsui",
          "short_name": "Tai Kok Tsui",
          "types": [
            "neighborhood",
            "political"
          ]
        },
        {
          "long_name": "Kowloon",
          "short_name": "Kowloon",
          "types": [
            "administrative_area_level_1",
            "political"
          ]
        },
        {
          "long_name": "Hong Kong",
          "short_name": "HK",
          "types": [
            "country",
            "political"
          ]
        }
      ],
      "formatted_address": "11 Pok Man St, Tai Kok Tsui, Hong Kong",
      "geometry": {
        "location": {
          "lat": 22.3193288,
          "lng": 114.1617207
        },
        "location_type": "RANGE_INTERPOLATED",
        "viewport": {
          "northeast": {
            "lat": 22.3206777802915,
            "lng": 114.1630696802915
          },
          "southwest": {
            "lat": 22.3179798197085,
            "lng": 114.1603717197085
          }
        }
      },
      "partial_match": true,
      "place_id": "EiYxMSBQb2sgTWFuIFN0LCBUYWkgS29rIFRzdWksIEhvbmcgS29uZyIaEhgKFAoSCbvyZia6AAQ0ESaPzrUW63-9EAs",
      "types": [
        "street_address"
      ]
    }
  ],
  "geocode_tc": [
    {
      "address_components": [
        {
          "long_name": "\u9999\u6e2f",
          "short_name": "HK",
          "types": [
            "country",
            "political"
          ]
        }
      ],
      "formatted_address": "\u9999\u6e2f\u5927\u89d2\u5480\u535a\u6587\u885711\u865f\u5bcc\u8cb4\u5927\u5ec8\u897f\u5ea7\u5730\u4e0b16\u865f\u92ea",
      "geometry": {
        "location": {
          "lat": 22.3194334,
          "lng": 114.1614884
        },
        "location_type": "GEOMETRIC_CENTER",
        "viewport": {
          "northeast": {
            "lat": 22.3207823802915,
            "lng": 114.1628373802915
          },
          "southwest": {
            "lat": 22.31808441970849,
            "lng": 114.1601394197085
          }
        }
      },
      "place_id": "ChIJLce7JboABDQRfaPEPioyqHI",
      "plus_code": {
        "compound_code": "8596+QH \u9999\u6e2f",
        "global_code": "7PJP8596+QH"
      },
      "types": [
        "establishment",
        "food",
        "point_of_interest",
        "restaurant"
      ]
    }
  ],
  "licno": "2262807528",
  "timestamp": 1564968756,
  "version": "1564966095"
}
