{
  "adr_en": "Starbucks Coffee, G/F., LE CACHET, NO. 69 SING WOO ROAD, HAPPY VALLEY, WAN CHAI, HONG KONG",
  "adr_tc": "\u9999\u6e2f\u7063\u4ed4\u8dd1\u99ac\u5730\u6210\u548c\u905369\u865f\u5609\u9038\u8ed2\u5730\u4e0b Starbucks Coffee",
  "geocode_en": [
    {
      "address_components": [
        {
          "long_name": "Le Cachet",
          "short_name": "Le Cachet",
          "types": [
            "premise"
          ]
        },
        {
          "long_name": "69A-69B",
          "short_name": "69A-69B",
          "types": [
            "street_number"
          ]
        },
        {
          "long_name": "Sing Woo Road",
          "short_name": "Sing Woo Rd",
          "types": [
            "route"
          ]
        },
        {
          "long_name": "Happy Valley",
          "short_name": "Happy Valley",
          "types": [
            "neighborhood",
            "political"
          ]
        },
        {
          "long_name": "Hong Kong Island",
          "short_name": "Hong Kong Island",
          "types": [
            "administrative_area_level_1",
            "political"
          ]
        },
        {
          "long_name": "Hong Kong",
          "short_name": "HK",
          "types": [
            "country",
            "political"
          ]
        }
      ],
      "formatted_address": "Le Cachet, 69A-69B Sing Woo Rd, Happy Valley, Hong Kong",
      "geometry": {
        "bounds": {
          "northeast": {
            "lat": 22.267759,
            "lng": 114.187366
          },
          "southwest": {
            "lat": 22.2675151,
            "lng": 114.187052
          }
        },
        "location": {
          "lat": 22.26765,
          "lng": 114.1871992
        },
        "location_type": "ROOFTOP",
        "viewport": {
          "northeast": {
            "lat": 22.2689860302915,
            "lng": 114.1885579802915
          },
          "southwest": {
            "lat": 22.2662880697085,
            "lng": 114.1858600197085
          }
        }
      },
      "partial_match": true,
      "place_id": "ChIJZ1YGc0wABDQRrK3SwxbwEsg",
      "types": [
        "premise"
      ]
    }
  ],
  "geocode_tc": [
    {
      "address_components": [
        {
          "long_name": "\u5609\u9038\u8ed2",
          "short_name": "\u5609\u9038\u8ed2",
          "types": [
            "premise"
          ]
        },
        {
          "long_name": "69A-69B",
          "short_name": "69A-69B",
          "types": [
            "street_number"
          ]
        },
        {
          "long_name": "\u6210\u548c\u9053",
          "short_name": "\u6210\u548c\u9053",
          "types": [
            "route"
          ]
        },
        {
          "long_name": "\u8dd1\u99ac\u5730",
          "short_name": "\u8dd1\u99ac\u5730",
          "types": [
            "neighborhood",
            "political"
          ]
        },
        {
          "long_name": "\u9999\u6e2f\u5cf6",
          "short_name": "\u9999\u6e2f\u5cf6",
          "types": [
            "administrative_area_level_1",
            "political"
          ]
        },
        {
          "long_name": "\u9999\u6e2f",
          "short_name": "HK",
          "types": [
            "country",
            "political"
          ]
        }
      ],
      "formatted_address": "\u9999\u6e2f\u8dd1\u99ac\u5730\u6210\u548c\u905369A-69B\u865f\u5609\u9038\u8ed2",
      "geometry": {
        "bounds": {
          "northeast": {
            "lat": 22.267759,
            "lng": 114.187366
          },
          "southwest": {
            "lat": 22.2675151,
            "lng": 114.187052
          }
        },
        "location": {
          "lat": 22.26765,
          "lng": 114.1871992
        },
        "location_type": "ROOFTOP",
        "viewport": {
          "northeast": {
            "lat": 22.2689860302915,
            "lng": 114.1885579802915
          },
          "southwest": {
            "lat": 22.2662880697085,
            "lng": 114.1858600197085
          }
        }
      },
      "partial_match": true,
      "place_id": "ChIJZ1YGc0wABDQRrK3SwxbwEsg",
      "types": [
        "premise"
      ]
    }
  ],
  "licno": "3112804832",
  "timestamp": 1564975666,
  "version": "1564966095"
}
