{
  "adr_en": "\u7965\u69ae\u9910\u5ef3, SHOP G7A, G7B & G7D, G/F, SITE 1, WHAMPOA GARDEN, HUNGHOM, KOWLOON CITY, KOWLOON",
  "adr_tc": "\u4e5d\u9f8d\u7d05\u78e1\u9ec3\u57d4\u82b1\u5712\u7b2c1\u671f\u5730\u4e0bG7A, G7B \u53caG7D\u8216 \u7965\u69ae\u9910\u5ef3",
  "geocode_en": [
    {
      "address_components": [
        {
          "long_name": "Hong Kong",
          "short_name": "HK",
          "types": [
            "country",
            "political"
          ]
        }
      ],
      "formatted_address": "\u7d05\u78e1 \u9ec3\u57d4 \u82b1\u5712 \u7b2c \u4e00 \u671f \u5730\u4e0b 7 \u865f A,B \u8216 \u99ac \u6703 \u9644\u8fd1, Hong Kong",
      "geometry": {
        "location": {
          "lat": 22.3052091,
          "lng": 114.1880728
        },
        "location_type": "GEOMETRIC_CENTER",
        "viewport": {
          "northeast": {
            "lat": 22.3065580802915,
            "lng": 114.1894217802915
          },
          "southwest": {
            "lat": 22.3038601197085,
            "lng": 114.1867238197085
          }
        }
      },
      "partial_match": true,
      "place_id": "ChIJn44OkeAABDQRFVrdLWZKfZU",
      "plus_code": {
        "compound_code": "854Q+36 Hong Kong",
        "global_code": "7PJP854Q+36"
      },
      "types": [
        "establishment",
        "food",
        "point_of_interest",
        "restaurant"
      ]
    },
    {
      "address_components": [
        {
          "long_name": "G/F, SITE",
          "short_name": "G/F, SITE",
          "types": [
            "subpremise"
          ]
        },
        {
          "long_name": "1",
          "short_name": "1",
          "types": [
            "street_number"
          ]
        },
        {
          "long_name": "Whampoa Street",
          "short_name": "Whampoa St",
          "types": [
            "route"
          ]
        },
        {
          "long_name": "Hung Hom",
          "short_name": "Hung Hom",
          "types": [
            "neighborhood",
            "political"
          ]
        },
        {
          "long_name": "Kowloon",
          "short_name": "Kowloon",
          "types": [
            "administrative_area_level_1",
            "political"
          ]
        },
        {
          "long_name": "Hong Kong",
          "short_name": "HK",
          "types": [
            "country",
            "political"
          ]
        }
      ],
      "formatted_address": "G/F, SITE, 1 Whampoa St, Hung Hom, Hong Kong",
      "geometry": {
        "location": {
          "lat": 22.305924,
          "lng": 114.184301
        },
        "location_type": "ROOFTOP",
        "viewport": {
          "northeast": {
            "lat": 22.3072729802915,
            "lng": 114.1856499802915
          },
          "southwest": {
            "lat": 22.3045750197085,
            "lng": 114.1829520197085
          }
        }
      },
      "partial_match": true,
      "place_id": "EixHL0YsIFNJVEUsIDEgV2hhbXBvYSBTdCwgSHVuZyBIb20sIEhvbmcgS29uZyIlGiMKFgoUChIJUaE6Q-cABDQRqg4PlNP7vzISCUcvRiwgU0lURQ",
      "types": [
        "subpremise"
      ]
    }
  ],
  "geocode_tc": [
    {
      "address_components": [
        {
          "long_name": "\u9999\u6e2f",
          "short_name": "HK",
          "types": [
            "country",
            "political"
          ]
        }
      ],
      "formatted_address": "\u7d05\u78e1 \u9ec3\u57d4 \u82b1\u5712 \u7b2c \u4e00 \u671f \u5730\u4e0b 7 \u865f A,B \u8216 \u99ac \u6703 \u9644\u8fd1, \u9999\u6e2f",
      "geometry": {
        "location": {
          "lat": 22.3052091,
          "lng": 114.1880728
        },
        "location_type": "GEOMETRIC_CENTER",
        "viewport": {
          "northeast": {
            "lat": 22.3065580802915,
            "lng": 114.1894217802915
          },
          "southwest": {
            "lat": 22.3038601197085,
            "lng": 114.1867238197085
          }
        }
      },
      "place_id": "ChIJn44OkeAABDQRFVrdLWZKfZU",
      "plus_code": {
        "compound_code": "854Q+36 \u9999\u6e2f",
        "global_code": "7PJP854Q+36"
      },
      "types": [
        "establishment",
        "food",
        "point_of_interest",
        "restaurant"
      ]
    }
  ],
  "licno": "2252132724",
  "timestamp": 1564968756,
  "version": "1564966095"
}
