{
  "adr_en": "TIN YUEN CHUN CHE NICE FOOD RESTAURANT, SHOP F & G, G/F., SOUTH VIEW GARDEN, NO. 80 SHEK PAI WAN ROAD, ABERDEEN, HONG KONG",
  "adr_tc": "\u9999\u6e2f\u9999\u6e2f\u4ed4\u77f3\u6392\u7063\u905380\u865f\u5357\u666f\u82b1\u5712\u5730\u4e0bF\u548cG\u865f\u92ea \u7530\u82d1\u73cd\u59d0\u7f8e\u98df\u9910\u5ef3",
  "geocode_en": [
    {
      "address_components": [
        {
          "long_name": "South View Garden",
          "short_name": "South View Garden",
          "types": [
            "premise"
          ]
        },
        {
          "long_name": "80",
          "short_name": "80",
          "types": [
            "street_number"
          ]
        },
        {
          "long_name": "Shek Pai Wan Road",
          "short_name": "Shek Pai Wan Rd",
          "types": [
            "route"
          ]
        },
        {
          "long_name": "Tin Wan",
          "short_name": "Tin Wan",
          "types": [
            "neighborhood",
            "political"
          ]
        },
        {
          "long_name": "Hong Kong Island",
          "short_name": "Hong Kong Island",
          "types": [
            "administrative_area_level_1",
            "political"
          ]
        },
        {
          "long_name": "Hong Kong",
          "short_name": "HK",
          "types": [
            "country",
            "political"
          ]
        }
      ],
      "formatted_address": "South View Garden, 80 Shek Pai Wan Rd, Tin Wan, Hong Kong",
      "geometry": {
        "bounds": {
          "northeast": {
            "lat": 22.2492161,
            "lng": 114.1486831
          },
          "southwest": {
            "lat": 22.24903,
            "lng": 114.1484399
          }
        },
        "location": {
          "lat": 22.249139,
          "lng": 114.1485569
        },
        "location_type": "ROOFTOP",
        "viewport": {
          "northeast": {
            "lat": 22.2504720302915,
            "lng": 114.1499104802915
          },
          "southwest": {
            "lat": 22.24777406970849,
            "lng": 114.1472125197085
          }
        }
      },
      "partial_match": true,
      "place_id": "ChIJ7WuGbAEABDQRUBHAvkdfH9Y",
      "types": [
        "premise"
      ]
    }
  ],
  "geocode_tc": [
    {
      "address_components": [
        {
          "long_name": "\u9999\u6e2f",
          "short_name": "HK",
          "types": [
            "country",
            "political"
          ]
        }
      ],
      "formatted_address": "Shop D, G/F., 80 Shek Pai Wan Rd, Tin Wan,, Aberdeen, \u9999\u6e2f",
      "geometry": {
        "location": {
          "lat": 22.2491849,
          "lng": 114.1485413
        },
        "location_type": "GEOMETRIC_CENTER",
        "viewport": {
          "northeast": {
            "lat": 22.2505338802915,
            "lng": 114.1498902802915
          },
          "southwest": {
            "lat": 22.2478359197085,
            "lng": 114.1471923197085
          }
        }
      },
      "partial_match": true,
      "place_id": "ChIJ3ZRXaQEABDQRvHhcwedmhQE",
      "plus_code": {
        "compound_code": "64XX+MC \u9999\u6e2f",
        "global_code": "7PJP64XX+MC"
      },
      "types": [
        "establishment",
        "food",
        "point_of_interest",
        "restaurant"
      ]
    }
  ],
  "licno": "2215800611",
  "timestamp": 1564968756,
  "version": "1564966095"
}
