{
  "adr_en": "\u6a02\u8a18\u8eca\u4ed4\u9eb5, SHOP 5, G/F, GREENLAND GARDEN, 15 SHEK PAI TAU ROAD, TUEN MUN, NEW TERRITORIES",
  "adr_tc": "\u65b0\u754c\u5c6f\u9580\u77f3\u6392\u982d\u8def15\u865f\u7fe0\u6797\u82b1\u5712\u5730\u4e0b5\u865f\u92ea \u6a02\u8a18\u8eca\u4ed4\u9eb5",
  "geocode_en": [
    {
      "address_components": [
        {
          "long_name": "Tuen Mun",
          "short_name": "Tuen Mun",
          "types": [
            "neighborhood",
            "political"
          ]
        },
        {
          "long_name": "New Territories",
          "short_name": "New Territories",
          "types": [
            "administrative_area_level_1",
            "political"
          ]
        },
        {
          "long_name": "Hong Kong",
          "short_name": "HK",
          "types": [
            "country",
            "political"
          ]
        }
      ],
      "formatted_address": "Tuen Mun, Hong Kong",
      "geometry": {
        "location": {
          "lat": 22.4010906,
          "lng": 113.9718932
        },
        "location_type": "GEOMETRIC_CENTER",
        "viewport": {
          "northeast": {
            "lat": 22.4024395802915,
            "lng": 113.9732421802915
          },
          "southwest": {
            "lat": 22.3997416197085,
            "lng": 113.9705442197085
          }
        }
      },
      "partial_match": true,
      "place_id": "ChIJ3drY1xn7AzQRjqdaxXRuqnU",
      "plus_code": {
        "compound_code": "CX2C+CQ Hong Kong",
        "global_code": "7PJMCX2C+CQ"
      },
      "types": [
        "establishment",
        "food",
        "point_of_interest",
        "restaurant"
      ]
    }
  ],
  "geocode_tc": [
    {
      "address_components": [
        {
          "long_name": "\u865f\u92ea",
          "short_name": "\u865f\u92ea",
          "types": [
            "subpremise"
          ]
        },
        {
          "long_name": "\u7fe0\u6797\u82b1\u5712C\u5ea7",
          "short_name": "\u7fe0\u6797\u82b1\u5712C\u5ea7",
          "types": [
            "premise"
          ]
        },
        {
          "long_name": "15",
          "short_name": "15",
          "types": [
            "street_number"
          ]
        },
        {
          "long_name": "\u77f3\u6392\u982d\u8def",
          "short_name": "\u77f3\u6392\u982d\u8def",
          "types": [
            "route"
          ]
        },
        {
          "long_name": "\u5c6f\u9580",
          "short_name": "\u5c6f\u9580",
          "types": [
            "neighborhood",
            "political"
          ]
        },
        {
          "long_name": "\u65b0\u754c",
          "short_name": "\u65b0\u754c",
          "types": [
            "administrative_area_level_1",
            "political"
          ]
        },
        {
          "long_name": "\u9999\u6e2f",
          "short_name": "HK",
          "types": [
            "country",
            "political"
          ]
        }
      ],
      "formatted_address": "\u9999\u6e2f\u5c6f\u9580\u77f3\u6392\u982d\u8def15\u865f\u7fe0\u6797\u82b1\u5712C\u5ea7\u865f\u92ea",
      "geometry": {
        "bounds": {
          "northeast": {
            "lat": 22.400704,
            "lng": 113.9723221
          },
          "southwest": {
            "lat": 22.4004129,
            "lng": 113.9720041
          }
        },
        "location": {
          "lat": 22.4005341,
          "lng": 113.9721632
        },
        "location_type": "ROOFTOP",
        "viewport": {
          "northeast": {
            "lat": 22.4019074302915,
            "lng": 113.9735120802915
          },
          "southwest": {
            "lat": 22.3992094697085,
            "lng": 113.9708141197085
          }
        }
      },
      "partial_match": true,
      "place_id": "EknomZ_pi6osIEdyZWVubGFuZCBHYXJkZW4gQmxvY2sgQywgMTUgU2hlayBQYWkgVGF1IFJkLCBUdWVuIE11biwgSG9uZyBLb25nIiIaIAoWChQKEgkFqDTwI_sDNBEKV3WDL7FF_BIG6Jmf6Yuq",
      "types": [
        "subpremise"
      ]
    },
    {
      "address_components": [
        {
          "long_name": "\u5c6f\u9580",
          "short_name": "\u5c6f\u9580",
          "types": [
            "neighborhood",
            "political"
          ]
        },
        {
          "long_name": "\u65b0\u754c",
          "short_name": "\u65b0\u754c",
          "types": [
            "administrative_area_level_1",
            "political"
          ]
        },
        {
          "long_name": "\u9999\u6e2f",
          "short_name": "HK",
          "types": [
            "country",
            "political"
          ]
        }
      ],
      "formatted_address": "\u9999\u6e2f\u5c6f\u9580",
      "geometry": {
        "location": {
          "lat": 22.4010906,
          "lng": 113.9718932
        },
        "location_type": "GEOMETRIC_CENTER",
        "viewport": {
          "northeast": {
            "lat": 22.4024395802915,
            "lng": 113.9732421802915
          },
          "southwest": {
            "lat": 22.3997416197085,
            "lng": 113.9705442197085
          }
        }
      },
      "partial_match": true,
      "place_id": "ChIJ3drY1xn7AzQRjqdaxXRuqnU",
      "plus_code": {
        "compound_code": "CX2C+CQ \u9999\u6e2f",
        "global_code": "7PJMCX2C+CQ"
      },
      "types": [
        "establishment",
        "food",
        "point_of_interest",
        "restaurant"
      ]
    }
  ],
  "licno": "3193801366",
  "timestamp": 1564975666,
  "version": "1564966095"
}
