{
  "adr_en": "KOMUNE, PORTION OF 3/F. & PORTION OF 4/F., 64 WONG CHUK HANG ROAD, ABERDEEN, HONG KONG",
  "adr_tc": "\u9999\u6e2f\u9999\u6e2f\u4ed4\u9ec3\u7af9\u5751\u905364\u865f3\u6a13\u90e8\u4efd\u53ca4\u6a13\u90e8\u4efd KOMUNE",
  "geocode_en": [
    {
      "address_components": [
        {
          "long_name": "64",
          "short_name": "64",
          "types": [
            "street_number"
          ]
        },
        {
          "long_name": "Wong Chuk Hang Road",
          "short_name": "Wong Chuk Hang Rd",
          "types": [
            "route"
          ]
        },
        {
          "long_name": "Aberdeen",
          "short_name": "Aberdeen",
          "types": [
            "neighborhood",
            "political"
          ]
        },
        {
          "long_name": "Hong Kong Island",
          "short_name": "Hong Kong Island",
          "types": [
            "administrative_area_level_1",
            "political"
          ]
        },
        {
          "long_name": "Hong Kong",
          "short_name": "HK",
          "types": [
            "country",
            "political"
          ]
        }
      ],
      "formatted_address": "64 Wong Chuk Hang Rd, Aberdeen, Hong Kong",
      "geometry": {
        "location": {
          "lat": 22.249577,
          "lng": 114.169031
        },
        "location_type": "ROOFTOP",
        "viewport": {
          "northeast": {
            "lat": 22.2509259802915,
            "lng": 114.1703799802915
          },
          "southwest": {
            "lat": 22.2482280197085,
            "lng": 114.1676820197085
          }
        }
      },
      "partial_match": true,
      "place_id": "ChIJhxKpaSIABDQRC9hkT8iRVFA",
      "plus_code": {
        "compound_code": "65X9+RJ Aberdeen, Hong Kong",
        "global_code": "7PJP65X9+RJ"
      },
      "types": [
        "establishment",
        "food",
        "point_of_interest",
        "restaurant"
      ]
    },
    {
      "address_components": [
        {
          "long_name": "3/F. & PORTION",
          "short_name": "3/F. & PORTION",
          "types": [
            "subpremise"
          ]
        },
        {
          "long_name": "Ovolo Southside",
          "short_name": "Ovolo Southside",
          "types": [
            "premise"
          ]
        },
        {
          "long_name": "64",
          "short_name": "64",
          "types": [
            "street_number"
          ]
        },
        {
          "long_name": "Wong Chuk Hang Road",
          "short_name": "Wong Chuk Hang Rd",
          "types": [
            "route"
          ]
        },
        {
          "long_name": "Hong Kong Island",
          "short_name": "Hong Kong Island",
          "types": [
            "administrative_area_level_1",
            "political"
          ]
        },
        {
          "long_name": "Hong Kong",
          "short_name": "HK",
          "types": [
            "country",
            "political"
          ]
        }
      ],
      "formatted_address": "3/F. & PORTION, Ovolo Southside, 64 Wong Chuk Hang Rd, Hong Kong",
      "geometry": {
        "bounds": {
          "northeast": {
            "lat": 22.249717,
            "lng": 114.1691921
          },
          "southwest": {
            "lat": 22.249441,
            "lng": 114.168872
          }
        },
        "location": {
          "lat": 22.2495563,
          "lng": 114.1690628
        },
        "location_type": "ROOFTOP",
        "viewport": {
          "northeast": {
            "lat": 22.2509279802915,
            "lng": 114.1703810302915
          },
          "southwest": {
            "lat": 22.2482300197085,
            "lng": 114.1676830697085
          }
        }
      },
      "partial_match": true,
      "place_id": "EkAzL0YuICYgUE9SVElPTiwgT3ZvbG8gU291dGhzaWRlLCA2NCBXb25nIENodWsgSGFuZyBSZCwgSG9uZyBLb25nIioaKAoWChQKEgmjbqlpIgAENBGiy4sotYmmWRIOMy9GLiAmIFBPUlRJT04",
      "types": [
        "subpremise"
      ]
    }
  ],
  "geocode_tc": [
    {
      "address_components": [
        {
          "long_name": "64",
          "short_name": "64",
          "types": [
            "street_number"
          ]
        },
        {
          "long_name": "\u9ec3\u7af9\u5751\u9053",
          "short_name": "\u9ec3\u7af9\u5751\u9053",
          "types": [
            "route"
          ]
        },
        {
          "long_name": "\u9999\u6e2f\u4ed4",
          "short_name": "\u9999\u6e2f\u4ed4",
          "types": [
            "neighborhood",
            "political"
          ]
        },
        {
          "long_name": "\u9999\u6e2f\u5cf6",
          "short_name": "\u9999\u6e2f\u5cf6",
          "types": [
            "administrative_area_level_1",
            "political"
          ]
        },
        {
          "long_name": "\u9999\u6e2f",
          "short_name": "HK",
          "types": [
            "country",
            "political"
          ]
        }
      ],
      "formatted_address": "\u9999\u6e2f\u9999\u6e2f\u4ed4\u9ec3\u7af9\u5751\u905364\u865f",
      "geometry": {
        "location": {
          "lat": 22.249577,
          "lng": 114.169031
        },
        "location_type": "ROOFTOP",
        "viewport": {
          "northeast": {
            "lat": 22.2509259802915,
            "lng": 114.1703799802915
          },
          "southwest": {
            "lat": 22.2482280197085,
            "lng": 114.1676820197085
          }
        }
      },
      "partial_match": true,
      "place_id": "ChIJhxKpaSIABDQRC9hkT8iRVFA",
      "plus_code": {
        "compound_code": "65X9+RJ \u9999\u6e2f\u9999\u6e2f\u4ed4",
        "global_code": "7PJP65X9+RJ"
      },
      "types": [
        "establishment",
        "food",
        "point_of_interest",
        "restaurant"
      ]
    },
    {
      "address_components": [
        {
          "long_name": "\u6a13\u90e8\u4efd\u53ca",
          "short_name": "\u6a13\u90e8\u4efd\u53ca",
          "types": [
            "subpremise"
          ]
        },
        {
          "long_name": "Ovolo Southside",
          "short_name": "Ovolo Southside",
          "types": [
            "premise"
          ]
        },
        {
          "long_name": "64",
          "short_name": "64",
          "types": [
            "street_number"
          ]
        },
        {
          "long_name": "Wong Chuk Hang Road",
          "short_name": "Wong Chuk Hang Rd",
          "types": [
            "route"
          ]
        },
        {
          "long_name": "Hong Kong Island",
          "short_name": "Hong Kong Island",
          "types": [
            "administrative_area_level_1",
            "political"
          ]
        },
        {
          "long_name": "\u9999\u6e2f",
          "short_name": "HK",
          "types": [
            "country",
            "political"
          ]
        }
      ],
      "formatted_address": "\u6a13\u90e8\u4efd\u53ca, Ovolo Southside, 64 Wong Chuk Hang Rd, \u9999\u6e2f",
      "geometry": {
        "bounds": {
          "northeast": {
            "lat": 22.249717,
            "lng": 114.1691921
          },
          "southwest": {
            "lat": 22.249441,
            "lng": 114.168872
          }
        },
        "location": {
          "lat": 22.2495563,
          "lng": 114.1690628
        },
        "location_type": "ROOFTOP",
        "viewport": {
          "northeast": {
            "lat": 22.2509279802915,
            "lng": 114.1703810302915
          },
          "southwest": {
            "lat": 22.2482300197085,
            "lng": 114.1676830697085
          }
        }
      },
      "partial_match": true,
      "place_id": "Ej7mqJPpg6jku73lj4osIE92b2xvIFNvdXRoc2lkZSwgNjQgV29uZyBDaHVrIEhhbmcgUmQsIEhvbmcgS29uZyIoGiYKFgoUChIJo26paSIABDQRosuLKLWJplkSDOaok-mDqOS7veWPig",
      "types": [
        "subpremise"
      ]
    }
  ],
  "licno": "2215802103",
  "timestamp": 1564968756,
  "version": "1564966095"
}
