{
  "adr_en": "\u5bcc\u90fd\u8336\u9910\u5ef3, G/F, TAK YAN MANSION, 57 TAI PA STREET, TSUEN WAN, NEW TERRITORIES",
  "adr_tc": "\u65b0\u754c\u8343\u7063\u5927\u9738\u885757\u865f\u5fb7\u4ec1\u6a13\u5730\u4e0b \u5bcc\u90fd\u8336\u9910\u5ef3",
  "geocode_en": [
    {
      "address_components": [
        {
          "long_name": "Tak Yan House",
          "short_name": "Tak Yan House",
          "types": [
            "premise"
          ]
        },
        {
          "long_name": "14-18",
          "short_name": "14-18",
          "types": [
            "street_number"
          ]
        },
        {
          "long_name": "Lo Tak Court",
          "short_name": "Lo Tak Ct",
          "types": [
            "route"
          ]
        },
        {
          "long_name": "Tsuen Wan",
          "short_name": "Tsuen Wan",
          "types": [
            "neighborhood",
            "political"
          ]
        },
        {
          "long_name": "New Territories",
          "short_name": "New Territories",
          "types": [
            "administrative_area_level_1",
            "political"
          ]
        },
        {
          "long_name": "Hong Kong",
          "short_name": "HK",
          "types": [
            "country",
            "political"
          ]
        }
      ],
      "formatted_address": "Tak Yan House, 14-18 Lo Tak Ct, Tsuen Wan, Hong Kong",
      "geometry": {
        "bounds": {
          "northeast": {
            "lat": 22.372666,
            "lng": 114.1153609
          },
          "southwest": {
            "lat": 22.372493,
            "lng": 114.1151499
          }
        },
        "location": {
          "lat": 22.3725997,
          "lng": 114.1152531
        },
        "location_type": "ROOFTOP",
        "viewport": {
          "northeast": {
            "lat": 22.3739284802915,
            "lng": 114.1166043802915
          },
          "southwest": {
            "lat": 22.37123051970849,
            "lng": 114.1139064197085
          }
        }
      },
      "partial_match": true,
      "place_id": "ChIJs1ET7u34AzQRIvRG2g0pUv8",
      "types": [
        "premise"
      ]
    },
    {
      "address_components": [
        {
          "long_name": "5-7",
          "short_name": "5-7",
          "types": [
            "street_number"
          ]
        },
        {
          "long_name": "Tai Pa Street",
          "short_name": "Tai Pa St",
          "types": [
            "route"
          ]
        },
        {
          "long_name": "Tsuen Wan",
          "short_name": "Tsuen Wan",
          "types": [
            "neighborhood",
            "political"
          ]
        },
        {
          "long_name": "New Territories",
          "short_name": "New Territories",
          "types": [
            "administrative_area_level_1",
            "political"
          ]
        },
        {
          "long_name": "Hong Kong",
          "short_name": "HK",
          "types": [
            "country",
            "political"
          ]
        }
      ],
      "formatted_address": "5-7 Tai Pa St, Tsuen Wan, Hong Kong",
      "geometry": {
        "location": {
          "lat": 22.3720011,
          "lng": 114.1107473
        },
        "location_type": "ROOFTOP",
        "viewport": {
          "northeast": {
            "lat": 22.3733500802915,
            "lng": 114.1120962802915
          },
          "southwest": {
            "lat": 22.3706521197085,
            "lng": 114.1093983197085
          }
        }
      },
      "partial_match": true,
      "place_id": "ChIJ96nZse_4AzQRRODGricrS7o",
      "plus_code": {
        "compound_code": "94C6+R7 Hong Kong",
        "global_code": "7PJP94C6+R7"
      },
      "types": [
        "street_address"
      ]
    }
  ],
  "geocode_tc": [
    {
      "address_components": [
        {
          "long_name": "57",
          "short_name": "57",
          "types": [
            "street_number"
          ]
        },
        {
          "long_name": "Hoi Pa Street",
          "short_name": "Hoi Pa St",
          "types": [
            "route"
          ]
        },
        {
          "long_name": "\u9999\u6e2f",
          "short_name": "HK",
          "types": [
            "country",
            "political"
          ]
        }
      ],
      "formatted_address": "\u865f, 57 Hoi Pa St, \u9999\u6e2f",
      "geometry": {
        "location": {
          "lat": 22.3712806,
          "lng": 114.1116301
        },
        "location_type": "ROOFTOP",
        "viewport": {
          "northeast": {
            "lat": 22.3726295802915,
            "lng": 114.1129790802915
          },
          "southwest": {
            "lat": 22.3699316197085,
            "lng": 114.1102811197085
          }
        }
      },
      "partial_match": true,
      "place_id": "ChIJndMyVO74AzQR48xjy6pejWA",
      "plus_code": {
        "compound_code": "94C6+GM \u9999\u6e2f",
        "global_code": "7PJP94C6+GM"
      },
      "types": [
        "establishment",
        "food",
        "point_of_interest",
        "restaurant"
      ]
    }
  ],
  "licno": "2292801936",
  "timestamp": 1564968756,
  "version": "1564966095"
}
