{
  "adr_en": "Starliner Diner, TL-302 (PORTION), TOMORROWLAND, HONG KONG DISNEYLAND RESORT, LANTAU ISLAND, NEW TERRITORIES",
  "adr_tc": "\u65b0\u754c\u5927\u5dbc\u5c71\u9999\u6e2f\u8fea\u58eb\u5c3c\u6a02\u5712\u5ea6\u5047\u5340 \u660e\u65e5\u4e16\u754cTL-302(\u90e8\u4efd) \u706b\u7bad\u9910\u5ef3",
  "geocode_en": [
    {
      "address_components": [
        {
          "long_name": "Hong Kong",
          "short_name": "HK",
          "types": [
            "country",
            "political"
          ]
        }
      ],
      "formatted_address": "Hong Kong, \u5927\u5dbc\u5c71\u9999\u6e2f\u8fea\u58eb\u5c3c\u6a02\u5712\u660e\u65e5\u4e16\u754c\u5340",
      "geometry": {
        "location": {
          "lat": 22.313244,
          "lng": 114.042051
        },
        "location_type": "GEOMETRIC_CENTER",
        "viewport": {
          "northeast": {
            "lat": 22.3145929802915,
            "lng": 114.0433999802915
          },
          "southwest": {
            "lat": 22.3118950197085,
            "lng": 114.0407020197085
          }
        }
      },
      "partial_match": true,
      "place_id": "ChIJr507ty78AzQRH-nXZXxtg4E",
      "plus_code": {
        "compound_code": "827R+7R Hong Kong",
        "global_code": "7PJP827R+7R"
      },
      "types": [
        "establishment",
        "food",
        "point_of_interest",
        "restaurant"
      ]
    }
  ],
  "geocode_tc": [
    {
      "address_components": [
        {
          "long_name": "\u9999\u6e2f",
          "short_name": "HK",
          "types": [
            "country",
            "political"
          ]
        }
      ],
      "formatted_address": "\u9999\u6e2f\u5927\u5dbc\u5c71\u9999\u6e2f\u8fea\u58eb\u5c3c\u6a02\u5712\u660e\u65e5\u4e16\u754c\u5340",
      "geometry": {
        "location": {
          "lat": 22.313244,
          "lng": 114.042051
        },
        "location_type": "GEOMETRIC_CENTER",
        "viewport": {
          "northeast": {
            "lat": 22.3145929802915,
            "lng": 114.0433999802915
          },
          "southwest": {
            "lat": 22.3118950197085,
            "lng": 114.0407020197085
          }
        }
      },
      "partial_match": true,
      "place_id": "ChIJr507ty78AzQRH-nXZXxtg4E",
      "plus_code": {
        "compound_code": "827R+7R \u9999\u6e2f",
        "global_code": "7PJP827R+7R"
      },
      "types": [
        "establishment",
        "food",
        "point_of_interest",
        "restaurant"
      ]
    },
    {
      "address_components": [
        {
          "long_name": "\u9999\u6e2f\u8fea\u58eb\u5c3c\u6a02\u5712\u5ea6\u5047\u5340",
          "short_name": "\u9999\u6e2f\u8fea\u58eb\u5c3c\u6a02\u5712\u5ea6\u5047\u5340",
          "types": [
            "neighborhood",
            "political"
          ]
        },
        {
          "long_name": "\u65b0\u754c",
          "short_name": "\u65b0\u754c",
          "types": [
            "administrative_area_level_1",
            "political"
          ]
        },
        {
          "long_name": "\u9999\u6e2f",
          "short_name": "HK",
          "types": [
            "country",
            "political"
          ]
        }
      ],
      "formatted_address": "\u9999\u6e2f\u9999\u6e2f\u8fea\u58eb\u5c3c\u6a02\u5712\u5ea6\u5047\u5340",
      "geometry": {
        "location": {
          "lat": 22.3132677,
          "lng": 114.0418622
        },
        "location_type": "GEOMETRIC_CENTER",
        "viewport": {
          "northeast": {
            "lat": 22.3146166802915,
            "lng": 114.0432111802915
          },
          "southwest": {
            "lat": 22.3119187197085,
            "lng": 114.0405132197085
          }
        }
      },
      "partial_match": true,
      "place_id": "ChIJMeKWuS78AzQRTnqgGLs3qW8",
      "plus_code": {
        "compound_code": "827R+8P \u9999\u6e2f",
        "global_code": "7PJP827R+8P"
      },
      "types": [
        "amusement_park",
        "establishment",
        "point_of_interest"
      ]
    }
  ],
  "licno": "2292800261",
  "timestamp": 1564968756,
  "version": "1564966095"
}
