{
  "adr_en": "TORA TETSU TEPPAN YAKI, 12/F., MACAU YAT YUEN CENTRE, 525 HENNESSY ROAD, CAUSEWAY BAY, HONG KONG",
  "adr_tc": "\u9999\u6e2f\u9285\u947c\u7063\u8ed2\u5c3c\u8a69\u9053525\u865f\u6fb3\u9580\u9038\u5712\u4e2d\u5fc312\u6a13 \u864e\u9435\u9435\u677f\u71d2",
  "geocode_en": [
    {
      "address_components": [
        {
          "long_name": "Macau Yat Yuen Centre",
          "short_name": "Macau Yat Yuen Centre",
          "types": [
            "premise"
          ]
        },
        {
          "long_name": "523-527",
          "short_name": "523-527",
          "types": [
            "street_number"
          ]
        },
        {
          "long_name": "Hennessy Road",
          "short_name": "Hennessy Rd",
          "types": [
            "route"
          ]
        },
        {
          "long_name": "Causeway Bay",
          "short_name": "Causeway Bay",
          "types": [
            "neighborhood",
            "political"
          ]
        },
        {
          "long_name": "Hong Kong Island",
          "short_name": "Hong Kong Island",
          "types": [
            "administrative_area_level_1",
            "political"
          ]
        },
        {
          "long_name": "Hong Kong",
          "short_name": "HK",
          "types": [
            "country",
            "political"
          ]
        }
      ],
      "formatted_address": "Macau Yat Yuen Centre, 523-527 Hennessy Rd, Causeway Bay, Hong Kong",
      "geometry": {
        "bounds": {
          "northeast": {
            "lat": 22.2803889,
            "lng": 114.1838539
          },
          "southwest": {
            "lat": 22.2802721,
            "lng": 114.183679
          }
        },
        "location": {
          "lat": 22.2803108,
          "lng": 114.1837624
        },
        "location_type": "ROOFTOP",
        "viewport": {
          "northeast": {
            "lat": 22.2816794802915,
            "lng": 114.1851154302915
          },
          "southwest": {
            "lat": 22.27898151970849,
            "lng": 114.1824174697085
          }
        }
      },
      "partial_match": true,
      "place_id": "ChIJTfEV6lYABDQRcOrLEOXfzuM",
      "types": [
        "premise"
      ]
    }
  ],
  "geocode_tc": [
    {
      "address_components": [
        {
          "long_name": "\u6fb3\u9580\u9038\u5712\u4e2d\u5fc3",
          "short_name": "\u6fb3\u9580\u9038\u5712\u4e2d\u5fc3",
          "types": [
            "premise"
          ]
        },
        {
          "long_name": "523-527",
          "short_name": "523-527",
          "types": [
            "street_number"
          ]
        },
        {
          "long_name": "\u8ed2\u5c3c\u8a69\u9053",
          "short_name": "\u8ed2\u5c3c\u8a69\u9053",
          "types": [
            "route"
          ]
        },
        {
          "long_name": "\u9285\u947c\u7063",
          "short_name": "\u9285\u947c\u7063",
          "types": [
            "neighborhood",
            "political"
          ]
        },
        {
          "long_name": "\u9999\u6e2f\u5cf6",
          "short_name": "\u9999\u6e2f\u5cf6",
          "types": [
            "administrative_area_level_1",
            "political"
          ]
        },
        {
          "long_name": "\u9999\u6e2f",
          "short_name": "HK",
          "types": [
            "country",
            "political"
          ]
        }
      ],
      "formatted_address": "\u9999\u6e2f\u9285\u947c\u7063\u8ed2\u5c3c\u8a69\u9053523-527\u865f\u6fb3\u9580\u9038\u5712\u4e2d\u5fc3",
      "geometry": {
        "bounds": {
          "northeast": {
            "lat": 22.2803889,
            "lng": 114.1838539
          },
          "southwest": {
            "lat": 22.2802721,
            "lng": 114.183679
          }
        },
        "location": {
          "lat": 22.2803108,
          "lng": 114.1837624
        },
        "location_type": "ROOFTOP",
        "viewport": {
          "northeast": {
            "lat": 22.2816794802915,
            "lng": 114.1851154302915
          },
          "southwest": {
            "lat": 22.27898151970849,
            "lng": 114.1824174697085
          }
        }
      },
      "partial_match": true,
      "place_id": "ChIJTfEV6lYABDQRcOrLEOXfzuM",
      "types": [
        "premise"
      ]
    }
  ],
  "licno": "2212809370",
  "timestamp": 1564966180,
  "version": "1564966095"
}
