{
  "adr_en": "THE NEST, FLAT/RM C, G/F, LEE SHING MANSION, 43-43A & 43B JORDAN ROAD, 11-19 WAI CHING STREET, YAU MA TEI, KOWLOON",
  "adr_tc": "\u4e5d\u9f8d\u6cb9\u9ebb\u5730\u5049\u6674\u885711-19\u865f\u4f50\u6566\u905343-43A&43B\u865f \u5229\u6210\u5927\u5ec8\u5730\u4e0bC\u92ea THE NEST",
  "geocode_en": [
    {
      "address_components": [
        {
          "long_name": "Lee Shing Mansion",
          "short_name": "Lee Shing Mansion",
          "types": [
            "premise"
          ]
        },
        {
          "long_name": "43-43B",
          "short_name": "43-43B",
          "types": [
            "street_number"
          ]
        },
        {
          "long_name": "Jordan Road",
          "short_name": "Jordan Rd",
          "types": [
            "route"
          ]
        },
        {
          "long_name": "Yau Ma Tei",
          "short_name": "Yau Ma Tei",
          "types": [
            "neighborhood",
            "political"
          ]
        },
        {
          "long_name": "Kowloon",
          "short_name": "Kowloon",
          "types": [
            "administrative_area_level_1",
            "political"
          ]
        },
        {
          "long_name": "Hong Kong",
          "short_name": "HK",
          "types": [
            "country",
            "political"
          ]
        }
      ],
      "formatted_address": "Lee Shing Mansion, 43-43B Jordan Rd, Yau Ma Tei, Hong Kong",
      "geometry": {
        "bounds": {
          "northeast": {
            "lat": 22.3063869,
            "lng": 114.167841
          },
          "southwest": {
            "lat": 22.305941,
            "lng": 114.1676021
          }
        },
        "location": {
          "lat": 22.3061599,
          "lng": 114.1677391
        },
        "location_type": "ROOFTOP",
        "viewport": {
          "northeast": {
            "lat": 22.3075129302915,
            "lng": 114.1690705302915
          },
          "southwest": {
            "lat": 22.3048149697085,
            "lng": 114.1663725697085
          }
        }
      },
      "partial_match": true,
      "place_id": "ChIJD15TK-sABDQRRkEyltyfPrw",
      "types": [
        "premise"
      ]
    }
  ],
  "geocode_tc": [
    {
      "address_components": [
        {
          "long_name": "Yau Ma Tei",
          "short_name": "Yau Ma Tei",
          "types": [
            "neighborhood",
            "political"
          ]
        },
        {
          "long_name": "Kowloon",
          "short_name": "Kowloon",
          "types": [
            "administrative_area_level_1",
            "political"
          ]
        },
        {
          "long_name": "\u9999\u6e2f",
          "short_name": "HK",
          "types": [
            "country",
            "political"
          ]
        }
      ],
      "formatted_address": "G/F, Lee Shing Mansion, No 43, 43A & 43B Jordan Road 11-19 Wai Ching Street, Yau Ma Tei, \u9999\u6e2f",
      "geometry": {
        "location": {
          "lat": 22.305965,
          "lng": 114.1675858
        },
        "location_type": "GEOMETRIC_CENTER",
        "viewport": {
          "northeast": {
            "lat": 22.3073139802915,
            "lng": 114.1689347802915
          },
          "southwest": {
            "lat": 22.3046160197085,
            "lng": 114.1662368197085
          }
        }
      },
      "place_id": "ChIJ53pb0pQABDQRwhFPGnIcfZA",
      "plus_code": {
        "compound_code": "8549+92 \u9999\u6e2f\u6cb9\u9ebb\u5730",
        "global_code": "7PJP8549+92"
      },
      "types": [
        "bar",
        "establishment",
        "food",
        "point_of_interest",
        "restaurant"
      ]
    }
  ],
  "licno": "2261814286",
  "timestamp": 1564968756,
  "version": "1564966095"
}
