{
  "adr_en": "SIXTY ONE RESTAURANT LIMITED, G/F & 1/F, SEA PANORAMA COURT, NO. 561 FUK WA STREET, CHEUNG SHA WAN, KOWLOON",
  "adr_tc": "\u4e5d\u9f8d\u9577\u6c99\u7063\u798f\u83ef\u8857561\u865f\u541b\u51f1\u8c6a\u5ead\u5730\u4e0b\u53ca\u58f9\u6a13 61\u9910\u5ef3\u6709\u9650\u516c\u53f8",
  "geocode_en": [
    {
      "address_components": [
        {
          "long_name": "Sea Panorama Court",
          "short_name": "Sea Panorama Court",
          "types": [
            "premise"
          ]
        },
        {
          "long_name": "561",
          "short_name": "561",
          "types": [
            "street_number"
          ]
        },
        {
          "long_name": "Fuk Wa Street",
          "short_name": "Fuk Wa St",
          "types": [
            "route"
          ]
        },
        {
          "long_name": "Cheung Sha Wan",
          "short_name": "Cheung Sha Wan",
          "types": [
            "neighborhood",
            "political"
          ]
        },
        {
          "long_name": "Kowloon",
          "short_name": "Kowloon",
          "types": [
            "administrative_area_level_1",
            "political"
          ]
        },
        {
          "long_name": "Hong Kong",
          "short_name": "HK",
          "types": [
            "country",
            "political"
          ]
        }
      ],
      "formatted_address": "Sea Panorama Court, 561 Fuk Wa St, Cheung Sha Wan, Hong Kong",
      "geometry": {
        "bounds": {
          "northeast": {
            "lat": 22.3386841,
            "lng": 114.1529611
          },
          "southwest": {
            "lat": 22.3385831,
            "lng": 114.152823
          }
        },
        "location": {
          "lat": 22.3386398,
          "lng": 114.1528881
        },
        "location_type": "ROOFTOP",
        "viewport": {
          "northeast": {
            "lat": 22.3399825802915,
            "lng": 114.1542410302915
          },
          "southwest": {
            "lat": 22.3372846197085,
            "lng": 114.1515430697085
          }
        }
      },
      "partial_match": true,
      "place_id": "ChIJbcIoM1IHBDQRtGMSstoTglo",
      "types": [
        "premise"
      ]
    }
  ],
  "geocode_tc": [
    {
      "address_components": [
        {
          "long_name": "\u541b\u51f1\u8c6a\u5ead",
          "short_name": "\u541b\u51f1\u8c6a\u5ead",
          "types": [
            "premise"
          ]
        },
        {
          "long_name": "561",
          "short_name": "561",
          "types": [
            "street_number"
          ]
        },
        {
          "long_name": "\u798f\u83ef\u8857",
          "short_name": "\u798f\u83ef\u8857",
          "types": [
            "route"
          ]
        },
        {
          "long_name": "\u9577\u6c99\u7063",
          "short_name": "\u9577\u6c99\u7063",
          "types": [
            "neighborhood",
            "political"
          ]
        },
        {
          "long_name": "\u4e5d\u9f8d",
          "short_name": "\u4e5d\u9f8d",
          "types": [
            "administrative_area_level_1",
            "political"
          ]
        },
        {
          "long_name": "\u9999\u6e2f",
          "short_name": "HK",
          "types": [
            "country",
            "political"
          ]
        }
      ],
      "formatted_address": "\u9999\u6e2f\u9577\u6c99\u7063\u798f\u83ef\u8857561\u865f\u541b\u51f1\u8c6a\u5ead",
      "geometry": {
        "bounds": {
          "northeast": {
            "lat": 22.3386841,
            "lng": 114.1529611
          },
          "southwest": {
            "lat": 22.3385831,
            "lng": 114.152823
          }
        },
        "location": {
          "lat": 22.3386398,
          "lng": 114.1528881
        },
        "location_type": "ROOFTOP",
        "viewport": {
          "northeast": {
            "lat": 22.3399825802915,
            "lng": 114.1542410302915
          },
          "southwest": {
            "lat": 22.3372846197085,
            "lng": 114.1515430697085
          }
        }
      },
      "partial_match": true,
      "place_id": "ChIJbcIoM1IHBDQRtGMSstoTglo",
      "types": [
        "premise"
      ]
    }
  ],
  "licno": "2263806276",
  "timestamp": 1564968756,
  "version": "1564966095"
}
