{
  "adr_en": "\u5225\u5929\u795e, SHOP 2A, G/F., ON LING BUILDING, 22 SHU KUK STREET, NORTH POINT, HONG KONG",
  "adr_tc": "\u9999\u6e2f\u5317\u89d2\u66f8\u5c40\u885722\u865f\u5b89\u5be7\u5927\u5ec8\u5730\u4e0b2A\u92ea \u5225\u5929\u795e",
  "geocode_en": [
    {
      "address_components": [
        {
          "long_name": "425-431\u865f",
          "short_name": "425-431\u865f",
          "types": [
            "street_number"
          ]
        },
        {
          "long_name": "King's Road",
          "short_name": "King's Rd",
          "types": [
            "route"
          ]
        },
        {
          "long_name": "North Point",
          "short_name": "North Point",
          "types": [
            "neighborhood",
            "political"
          ]
        },
        {
          "long_name": "Hong Kong Island",
          "short_name": "Hong Kong Island",
          "types": [
            "administrative_area_level_1",
            "political"
          ]
        },
        {
          "long_name": "Hong Kong",
          "short_name": "HK",
          "types": [
            "country",
            "political"
          ]
        }
      ],
      "formatted_address": "425-431\u865f King's Rd, North Point, Hong Kong",
      "geometry": {
        "location": {
          "lat": 22.291406,
          "lng": 114.20044
        },
        "location_type": "ROOFTOP",
        "viewport": {
          "northeast": {
            "lat": 22.2927549802915,
            "lng": 114.2017889802915
          },
          "southwest": {
            "lat": 22.2900570197085,
            "lng": 114.1990910197085
          }
        }
      },
      "partial_match": true,
      "place_id": "ChIJH5fTHwUBBDQR_RXa0YlFKaw",
      "plus_code": {
        "compound_code": "76R2+H5 Hong Kong",
        "global_code": "7PJP76R2+H5"
      },
      "types": [
        "establishment",
        "lodging",
        "point_of_interest"
      ]
    },
    {
      "address_components": [
        {
          "long_name": "On Ning Building",
          "short_name": "On Ning Building",
          "types": [
            "premise"
          ]
        },
        {
          "long_name": "22",
          "short_name": "22",
          "types": [
            "street_number"
          ]
        },
        {
          "long_name": "Shu Kuk Street",
          "short_name": "Shu Kuk St",
          "types": [
            "route"
          ]
        },
        {
          "long_name": "North Point",
          "short_name": "North Point",
          "types": [
            "neighborhood",
            "political"
          ]
        },
        {
          "long_name": "Hong Kong Island",
          "short_name": "Hong Kong Island",
          "types": [
            "administrative_area_level_1",
            "political"
          ]
        },
        {
          "long_name": "Hong Kong",
          "short_name": "HK",
          "types": [
            "country",
            "political"
          ]
        }
      ],
      "formatted_address": "On Ning Building, 22 Shu Kuk St, North Point, Hong Kong",
      "geometry": {
        "bounds": {
          "northeast": {
            "lat": 22.291531,
            "lng": 114.200593
          },
          "southwest": {
            "lat": 22.2913211,
            "lng": 114.200331
          }
        },
        "location": {
          "lat": 22.2914324,
          "lng": 114.2004585
        },
        "location_type": "ROOFTOP",
        "viewport": {
          "northeast": {
            "lat": 22.2927750302915,
            "lng": 114.2018109802915
          },
          "southwest": {
            "lat": 22.2900770697085,
            "lng": 114.1991130197085
          }
        }
      },
      "partial_match": true,
      "place_id": "ChIJ88LPHwUBBDQRepDLjturGfY",
      "types": [
        "premise"
      ]
    }
  ],
  "geocode_tc": [
    {
      "address_components": [
        {
          "long_name": "\u5730\u4e0b2A\u92ea \u5225",
          "short_name": "\u5730\u4e0b2A\u92ea \u5225",
          "types": [
            "subpremise"
          ]
        },
        {
          "long_name": "\u5b89\u5be7\u5927\u5ec8",
          "short_name": "\u5b89\u5be7\u5927\u5ec8",
          "types": [
            "premise"
          ]
        },
        {
          "long_name": "22",
          "short_name": "22",
          "types": [
            "street_number"
          ]
        },
        {
          "long_name": "\u66f8\u5c40\u8857",
          "short_name": "\u66f8\u5c40\u8857",
          "types": [
            "route"
          ]
        },
        {
          "long_name": "\u5317\u89d2",
          "short_name": "\u5317\u89d2",
          "types": [
            "neighborhood",
            "political"
          ]
        },
        {
          "long_name": "\u9999\u6e2f\u5cf6",
          "short_name": "\u9999\u6e2f\u5cf6",
          "types": [
            "administrative_area_level_1",
            "political"
          ]
        },
        {
          "long_name": "\u9999\u6e2f",
          "short_name": "HK",
          "types": [
            "country",
            "political"
          ]
        }
      ],
      "formatted_address": "\u9999\u6e2f\u5317\u89d2\u66f8\u5c40\u885722\u865f\u5b89\u5be7\u5927\u5ec8\u5730\u4e0b2A\u92ea \u5225",
      "geometry": {
        "bounds": {
          "northeast": {
            "lat": 22.291531,
            "lng": 114.200593
          },
          "southwest": {
            "lat": 22.2913211,
            "lng": 114.200331
          }
        },
        "location": {
          "lat": 22.2914324,
          "lng": 114.2004585
        },
        "location_type": "ROOFTOP",
        "viewport": {
          "northeast": {
            "lat": 22.2927750302915,
            "lng": 114.2018109802915
          },
          "southwest": {
            "lat": 22.2900770697085,
            "lng": 114.1991130197085
          }
        }
      },
      "partial_match": true,
      "place_id": "EkjlnLDkuIsyQemLqiDliKUsIE9uIE5pbmcgQnVpbGRpbmcsIDIyIFNodSBLdWsgU3QsIE5vcnRoIFBvaW50LCBIb25nIEtvbmciKxopChYKFAoSCfPCzx8FAQQ0EXqQy47bqxn2Eg_lnLDkuIsyQemLqiDliKU",
      "types": [
        "subpremise"
      ]
    }
  ],
  "licno": "3111803683",
  "timestamp": 1564975666,
  "version": "1564966095"
}
