{
  "adr_en": "SOL, SHOP A, G/F, IAU KEUNG BUILDING, 38-42 HAU TEI SQUARE, TSUEN WAN, NEW TERRITORIES",
  "adr_tc": "\u65b0\u754c\u8343\u7063\u9c5f\u5730\u574a38\u81f342\u865f\u7950\u5f37\u6a13\u5730\u4e0bA\u8216 SOL",
  "geocode_en": [
    {
      "address_components": [
        {
          "long_name": "Iau Keung Building",
          "short_name": "Iau Keung Building",
          "types": [
            "premise"
          ]
        },
        {
          "long_name": "38-46",
          "short_name": "38-46",
          "types": [
            "street_number"
          ]
        },
        {
          "long_name": "Hau Tei Square",
          "short_name": "Hau Tei Square",
          "types": [
            "route"
          ]
        },
        {
          "long_name": "Tsuen Wan",
          "short_name": "Tsuen Wan",
          "types": [
            "neighborhood",
            "political"
          ]
        },
        {
          "long_name": "New Territories",
          "short_name": "New Territories",
          "types": [
            "administrative_area_level_1",
            "political"
          ]
        },
        {
          "long_name": "Hong Kong",
          "short_name": "HK",
          "types": [
            "country",
            "political"
          ]
        }
      ],
      "formatted_address": "Iau Keung Building, 38-46 Hau Tei Square, Tsuen Wan, Hong Kong",
      "geometry": {
        "bounds": {
          "northeast": {
            "lat": 22.3712999,
            "lng": 114.115785
          },
          "southwest": {
            "lat": 22.3711321,
            "lng": 114.115621
          }
        },
        "location": {
          "lat": 22.3712181,
          "lng": 114.1157176
        },
        "location_type": "ROOFTOP",
        "viewport": {
          "northeast": {
            "lat": 22.3725649802915,
            "lng": 114.1170519802915
          },
          "southwest": {
            "lat": 22.3698670197085,
            "lng": 114.1143540197085
          }
        }
      },
      "partial_match": true,
      "place_id": "ChIJS8MAuO34AzQRTmst85QU4cs",
      "types": [
        "premise"
      ]
    }
  ],
  "geocode_tc": [],
  "licno": "3192801031",
  "timestamp": 1564975666,
  "version": "1564966095"
}
