{
  "adr_en": "SHANXI PRIVATE KITCHEN, SHOP G, G/F, FLORENCE MANSION, 6 TSING LING PATH, TUEN MUN, NEW TERRITORIES",
  "adr_tc": "\u65b0\u754c\u5c6f\u9580\u9752\u83f1\u5f916\u865f\u5bcc\u9e97\u5927\u5ec8\u5730\u4e0bG\u865f\u92ea \u5c71\u897f\u79c1\u623f\u83dc",
  "geocode_en": [
    {
      "address_components": [
        {
          "long_name": "Shanxi",
          "short_name": "Shanxi",
          "types": [
            "administrative_area_level_1",
            "political"
          ]
        },
        {
          "long_name": "China",
          "short_name": "CN",
          "types": [
            "country",
            "political"
          ]
        }
      ],
      "formatted_address": "Shanxi, China",
      "geometry": {
        "bounds": {
          "northeast": {
            "lat": 40.7373522,
            "lng": 114.5689221
          },
          "southwest": {
            "lat": 34.5819347,
            "lng": 110.2302478
          }
        },
        "location": {
          "lat": 37.2425649,
          "lng": 111.8568586
        },
        "location_type": "APPROXIMATE",
        "viewport": {
          "northeast": {
            "lat": 40.7373522,
            "lng": 114.5689221
          },
          "southwest": {
            "lat": 34.5819347,
            "lng": 110.2302478
          }
        }
      },
      "partial_match": true,
      "place_id": "ChIJAZbireuoCjYRL-LvlMM8zpw",
      "types": [
        "administrative_area_level_1",
        "political"
      ]
    },
    {
      "address_components": [
        {
          "long_name": "Florence Mansion",
          "short_name": "Florence Mansion",
          "types": [
            "premise"
          ]
        },
        {
          "long_name": "6",
          "short_name": "6",
          "types": [
            "street_number"
          ]
        },
        {
          "long_name": "Tsing Ling Path",
          "short_name": "Tsing Ling Path",
          "types": [
            "route"
          ]
        },
        {
          "long_name": "San Hui",
          "short_name": "San Hui",
          "types": [
            "neighborhood",
            "political"
          ]
        },
        {
          "long_name": "New Territories",
          "short_name": "New Territories",
          "types": [
            "administrative_area_level_1",
            "political"
          ]
        },
        {
          "long_name": "Hong Kong",
          "short_name": "HK",
          "types": [
            "country",
            "political"
          ]
        }
      ],
      "formatted_address": "Florence Mansion, 6 Tsing Ling Path, San Hui, Hong Kong",
      "geometry": {
        "bounds": {
          "northeast": {
            "lat": 22.4022859,
            "lng": 113.9779949
          },
          "southwest": {
            "lat": 22.4020689,
            "lng": 113.9777561
          }
        },
        "location": {
          "lat": 22.40217,
          "lng": 113.9778783
        },
        "location_type": "ROOFTOP",
        "viewport": {
          "northeast": {
            "lat": 22.4035263802915,
            "lng": 113.9792244802915
          },
          "southwest": {
            "lat": 22.4008284197085,
            "lng": 113.9765265197085
          }
        }
      },
      "partial_match": true,
      "place_id": "ChIJWc_GZh_7AzQRFGacaeySN8M",
      "types": [
        "premise"
      ]
    }
  ],
  "geocode_tc": [
    {
      "address_components": [
        {
          "long_name": "\u5bcc\u9e97\u5927\u5ec8",
          "short_name": "\u5bcc\u9e97\u5927\u5ec8",
          "types": [
            "premise"
          ]
        },
        {
          "long_name": "6",
          "short_name": "6",
          "types": [
            "street_number"
          ]
        },
        {
          "long_name": "\u9752\u83f1\u5f91",
          "short_name": "\u9752\u83f1\u5f91",
          "types": [
            "route"
          ]
        },
        {
          "long_name": "\u65b0\u589f",
          "short_name": "\u65b0\u589f",
          "types": [
            "neighborhood",
            "political"
          ]
        },
        {
          "long_name": "\u65b0\u754c",
          "short_name": "\u65b0\u754c",
          "types": [
            "administrative_area_level_1",
            "political"
          ]
        },
        {
          "long_name": "\u9999\u6e2f",
          "short_name": "HK",
          "types": [
            "country",
            "political"
          ]
        }
      ],
      "formatted_address": "\u9999\u6e2f\u65b0\u589f\u9752\u83f1\u5f916\u865f\u5bcc\u9e97\u5927\u5ec8",
      "geometry": {
        "bounds": {
          "northeast": {
            "lat": 22.4022859,
            "lng": 113.9779949
          },
          "southwest": {
            "lat": 22.4020689,
            "lng": 113.9777561
          }
        },
        "location": {
          "lat": 22.40217,
          "lng": 113.9778783
        },
        "location_type": "ROOFTOP",
        "viewport": {
          "northeast": {
            "lat": 22.4035263802915,
            "lng": 113.9792244802915
          },
          "southwest": {
            "lat": 22.4008284197085,
            "lng": 113.9765265197085
          }
        }
      },
      "partial_match": true,
      "place_id": "ChIJWc_GZh_7AzQRFGacaeySN8M",
      "types": [
        "premise"
      ]
    },
    {
      "address_components": [
        {
          "long_name": "\u5c6f\u9580",
          "short_name": "\u5c6f\u9580",
          "types": [
            "neighborhood",
            "political"
          ]
        },
        {
          "long_name": "\u65b0\u754c",
          "short_name": "\u65b0\u754c",
          "types": [
            "administrative_area_level_1",
            "political"
          ]
        },
        {
          "long_name": "\u9999\u6e2f",
          "short_name": "HK",
          "types": [
            "country",
            "political"
          ]
        }
      ],
      "formatted_address": "\u9999\u6e2f\u5c6f\u95809",
      "geometry": {
        "location": {
          "lat": 22.402185,
          "lng": 113.9776521
        },
        "location_type": "GEOMETRIC_CENTER",
        "viewport": {
          "northeast": {
            "lat": 22.4035339802915,
            "lng": 113.9790010802915
          },
          "southwest": {
            "lat": 22.4008360197085,
            "lng": 113.9763031197085
          }
        }
      },
      "partial_match": true,
      "place_id": "ChIJyWuw2ir7AzQRZdZbkinrZl0",
      "plus_code": {
        "compound_code": "CX2H+V3 \u9999\u6e2f",
        "global_code": "7PJMCX2H+V3"
      },
      "types": [
        "establishment",
        "food",
        "point_of_interest",
        "restaurant"
      ]
    }
  ],
  "licno": "2293805005",
  "timestamp": 1564975666,
  "version": "1564966095"
}
