{
  "adr_en": "McDonald's, SHOP NO. G2, CINEMA BLOCK, PROSPEROUS GARDEN, 3 PUBLIC SQUARE STREET, YAU MA TEI, KOWLOON",
  "adr_tc": "\u4e5d\u9f8d\u6cb9\u9ebb\u5730\u8846\u574a\u88573\u865f \u99ff\u767c\u82b1\u5712\u6232\u9662\u6a13\u5730\u4e0bG2\u8216 McDonald's",
  "geocode_en": [
    {
      "address_components": [
        {
          "long_name": "Prosperous Garden Block 3",
          "short_name": "Prosperous Garden Block 3",
          "types": [
            "premise"
          ]
        },
        {
          "long_name": "3",
          "short_name": "3",
          "types": [
            "street_number"
          ]
        },
        {
          "long_name": "Public Square Street",
          "short_name": "Public Square St",
          "types": [
            "route"
          ]
        },
        {
          "long_name": "Yau Ma Tei",
          "short_name": "Yau Ma Tei",
          "types": [
            "neighborhood",
            "political"
          ]
        },
        {
          "long_name": "Kowloon",
          "short_name": "Kowloon",
          "types": [
            "administrative_area_level_1",
            "political"
          ]
        },
        {
          "long_name": "Hong Kong",
          "short_name": "HK",
          "types": [
            "country",
            "political"
          ]
        }
      ],
      "formatted_address": "Prosperous Garden Block 3, 3 Public Square St, Yau Ma Tei, Hong Kong",
      "geometry": {
        "bounds": {
          "northeast": {
            "lat": 22.310902,
            "lng": 114.1681081
          },
          "southwest": {
            "lat": 22.3106201,
            "lng": 114.1678111
          }
        },
        "location": {
          "lat": 22.3107703,
          "lng": 114.1679481
        },
        "location_type": "ROOFTOP",
        "viewport": {
          "northeast": {
            "lat": 22.3121100302915,
            "lng": 114.1693085802915
          },
          "southwest": {
            "lat": 22.3094120697085,
            "lng": 114.1666106197085
          }
        }
      },
      "partial_match": true,
      "place_id": "ChIJ2bLvdMAABDQRyO3Ps06cLEU",
      "types": [
        "premise"
      ]
    }
  ],
  "geocode_tc": [
    {
      "address_components": [
        {
          "long_name": "3",
          "short_name": "3",
          "types": [
            "street_number"
          ]
        },
        {
          "long_name": "Public Square Street",
          "short_name": "Public Square St",
          "types": [
            "route"
          ]
        },
        {
          "long_name": "Yau Ma Tei",
          "short_name": "Yau Ma Tei",
          "types": [
            "neighborhood",
            "political"
          ]
        },
        {
          "long_name": "\u9999\u6e2f",
          "short_name": "HK",
          "types": [
            "country",
            "political"
          ]
        }
      ],
      "formatted_address": "Prosperous Garden, 3 Public Square St, Yau Ma Tei, \u9999\u6e2f",
      "geometry": {
        "location": {
          "lat": 22.3104037,
          "lng": 114.1690356
        },
        "location_type": "ROOFTOP",
        "viewport": {
          "northeast": {
            "lat": 22.3117526802915,
            "lng": 114.1703845802915
          },
          "southwest": {
            "lat": 22.3090547197085,
            "lng": 114.1676866197085
          }
        }
      },
      "place_id": "ChIJpfLeFMAABDQRSB7mJrSMj24",
      "plus_code": {
        "compound_code": "8569+5J \u9999\u6e2f\u6cb9\u9ebb\u5730",
        "global_code": "7PJP8569+5J"
      },
      "types": [
        "establishment",
        "food",
        "point_of_interest",
        "restaurant"
      ]
    }
  ],
  "licno": "2261200632",
  "timestamp": 1564968756,
  "version": "1564966095"
}
