{
  "adr_en": "No Record, SHOP A, B & C, G/F., UNIVERSAL HOUSE, NOS. 229-230 GLOUCESTER ROAD, HONG KONG",
  "adr_tc": "\u9999\u6e2f\u544a\u58eb\u6253\u9053229-230\u865f\u5b87\u5b99\u5546\u696d\u5927\u5ec8\u5730\u4e0bA,B\u53caC\u865f\u8216 \u6c92\u6709\u8a18\u9304",
  "geocode_en": [
    {
      "address_components": [
        {
          "long_name": "229",
          "short_name": "229",
          "types": [
            "street_number"
          ]
        },
        {
          "long_name": "Gloucester Road",
          "short_name": "Gloucester Rd",
          "types": [
            "route"
          ]
        },
        {
          "long_name": "Wan Chai",
          "short_name": "Wan Chai",
          "types": [
            "neighborhood",
            "political"
          ]
        },
        {
          "long_name": "Hong Kong Island",
          "short_name": "Hong Kong Island",
          "types": [
            "administrative_area_level_1",
            "political"
          ]
        },
        {
          "long_name": "Hong Kong",
          "short_name": "HK",
          "types": [
            "country",
            "political"
          ]
        }
      ],
      "formatted_address": "229 Gloucester Rd, Wan Chai, Hong Kong",
      "geometry": {
        "location": {
          "lat": 22.2805039,
          "lng": 114.180243
        },
        "location_type": "ROOFTOP",
        "viewport": {
          "northeast": {
            "lat": 22.2818528802915,
            "lng": 114.1815919802915
          },
          "southwest": {
            "lat": 22.2791549197085,
            "lng": 114.1788940197085
          }
        }
      },
      "partial_match": true,
      "place_id": "ChIJowaXXFcABDQRUoZfm9q9pRs",
      "plus_code": {
        "compound_code": "75JJ+63 Hong Kong",
        "global_code": "7PJP75JJ+63"
      },
      "types": [
        "establishment",
        "point_of_interest"
      ]
    }
  ],
  "geocode_tc": [
    {
      "address_components": [
        {
          "long_name": "\u5b87\u5b99\u5546\u696d\u5927\u5ec8",
          "short_name": "\u5b87\u5b99\u5546\u696d\u5927\u5ec8",
          "types": [
            "premise"
          ]
        },
        {
          "long_name": "\u9285\u947c\u7063",
          "short_name": "\u9285\u947c\u7063",
          "types": [
            "neighborhood",
            "political"
          ]
        },
        {
          "long_name": "\u9999\u6e2f\u5cf6",
          "short_name": "\u9999\u6e2f\u5cf6",
          "types": [
            "administrative_area_level_1",
            "political"
          ]
        },
        {
          "long_name": "\u9999\u6e2f",
          "short_name": "HK",
          "types": [
            "country",
            "political"
          ]
        }
      ],
      "formatted_address": "\u9999\u6e2f\u9285\u947c\u7063\u5b87\u5b99\u5546\u696d\u5927\u5ec8",
      "geometry": {
        "bounds": {
          "northeast": {
            "lat": 22.2807951,
            "lng": 114.1811977
          },
          "southwest": {
            "lat": 22.2804739,
            "lng": 114.1808993
          }
        },
        "location": {
          "lat": 22.2806298,
          "lng": 114.1810454
        },
        "location_type": "ROOFTOP",
        "viewport": {
          "northeast": {
            "lat": 22.2819834802915,
            "lng": 114.1823974802915
          },
          "southwest": {
            "lat": 22.2792855197085,
            "lng": 114.1796995197085
          }
        }
      },
      "partial_match": true,
      "place_id": "ChIJJ2ScXFcABDQRhrxCtlwS-G0",
      "types": [
        "premise"
      ]
    },
    {
      "address_components": [
        {
          "long_name": "229-230",
          "short_name": "229-230",
          "types": [
            "street_number"
          ]
        },
        {
          "long_name": "\u544a\u58eb\u6253\u9053",
          "short_name": "\u544a\u58eb\u6253\u9053",
          "types": [
            "route"
          ]
        },
        {
          "long_name": "\u9d5d\u9838",
          "short_name": "\u9d5d\u9838",
          "types": [
            "neighborhood",
            "political"
          ]
        },
        {
          "long_name": "\u9999\u6e2f\u5cf6",
          "short_name": "\u9999\u6e2f\u5cf6",
          "types": [
            "administrative_area_level_1",
            "political"
          ]
        },
        {
          "long_name": "\u9999\u6e2f",
          "short_name": "HK",
          "types": [
            "country",
            "political"
          ]
        }
      ],
      "formatted_address": "\u9999\u6e2f\u9d5d\u9838\u544a\u58eb\u6253\u9053229-230\u865f",
      "geometry": {
        "location": {
          "lat": 22.2804828,
          "lng": 114.1802222
        },
        "location_type": "ROOFTOP",
        "viewport": {
          "northeast": {
            "lat": 22.2818317802915,
            "lng": 114.1815711802915
          },
          "southwest": {
            "lat": 22.27913381970849,
            "lng": 114.1788732197085
          }
        }
      },
      "partial_match": true,
      "place_id": "ChIJc0UgXVcABDQRGsyVtFLUmjk",
      "plus_code": {
        "compound_code": "75JJ+53 \u9999\u6e2f",
        "global_code": "7PJP75JJ+53"
      },
      "types": [
        "establishment",
        "point_of_interest",
        "premise"
      ]
    }
  ],
  "licno": "3112805482",
  "timestamp": 1564975666,
  "version": "1564966095"
}
