{
  "adr_en": "Country Laser Club, SHOP 2, G/F, 117 LOCKHART ROAD, WAN CHAI, HONG KONG",
  "adr_tc": "\u9999\u6e2f\u7063\u4ed4\u99f1\u514b\u9053117\u865f\u5730\u4e0b2\u865f\u8216 Country Laser Club",
  "geocode_en": [
    {
      "address_components": [
        {
          "long_name": "SHOP 2, G/F",
          "short_name": "SHOP 2, G/F",
          "types": [
            "subpremise"
          ]
        },
        {
          "long_name": "Hing Bong Mansion",
          "short_name": "Hing Bong Mansion",
          "types": [
            "premise"
          ]
        },
        {
          "long_name": "117",
          "short_name": "117",
          "types": [
            "street_number"
          ]
        },
        {
          "long_name": "Lockhart Road",
          "short_name": "Lockhart Rd",
          "types": [
            "route"
          ]
        },
        {
          "long_name": "Wan Chai",
          "short_name": "Wan Chai",
          "types": [
            "neighborhood",
            "political"
          ]
        },
        {
          "long_name": "Hong Kong Island",
          "short_name": "Hong Kong Island",
          "types": [
            "administrative_area_level_1",
            "political"
          ]
        },
        {
          "long_name": "Hong Kong",
          "short_name": "HK",
          "types": [
            "country",
            "political"
          ]
        }
      ],
      "formatted_address": "SHOP 2, G/F, Hing Bong Mansion, 117 Lockhart Rd, Wan Chai, Hong Kong",
      "geometry": {
        "bounds": {
          "northeast": {
            "lat": 22.2783561,
            "lng": 114.172652
          },
          "southwest": {
            "lat": 22.2782209,
            "lng": 114.172414
          }
        },
        "location": {
          "lat": 22.2782881,
          "lng": 114.1725229
        },
        "location_type": "ROOFTOP",
        "viewport": {
          "northeast": {
            "lat": 22.2796374802915,
            "lng": 114.1738819802915
          },
          "southwest": {
            "lat": 22.2769395197085,
            "lng": 114.1711840197085
          }
        }
      },
      "partial_match": true,
      "place_id": "EkRTSE9QIDIsIEcvRiwgSGluZyBCb25nIE1hbnNpb24sIDExNyBMb2NraGFydCBSZCwgV2FuIENoYWksIEhvbmcgS29uZyInGiUKFgoUChIJhS6cZlwABDQRoMcVKGdBaKMSC1NIT1AgMiwgRy9G",
      "types": [
        "subpremise"
      ]
    }
  ],
  "geocode_tc": [
    {
      "address_components": [
        {
          "long_name": "\u5730\u4e0b2\u865f\u8216",
          "short_name": "\u5730\u4e0b2\u865f\u8216",
          "types": [
            "subpremise"
          ]
        },
        {
          "long_name": "\u8208\u90a6\u5927\u5ec8",
          "short_name": "\u8208\u90a6\u5927\u5ec8",
          "types": [
            "premise"
          ]
        },
        {
          "long_name": "117",
          "short_name": "117",
          "types": [
            "street_number"
          ]
        },
        {
          "long_name": "\u99f1\u514b\u9053",
          "short_name": "\u99f1\u514b\u9053",
          "types": [
            "route"
          ]
        },
        {
          "long_name": "\u7063\u4ed4",
          "short_name": "\u7063\u4ed4",
          "types": [
            "neighborhood",
            "political"
          ]
        },
        {
          "long_name": "\u9999\u6e2f\u5cf6",
          "short_name": "\u9999\u6e2f\u5cf6",
          "types": [
            "administrative_area_level_1",
            "political"
          ]
        },
        {
          "long_name": "\u9999\u6e2f",
          "short_name": "HK",
          "types": [
            "country",
            "political"
          ]
        }
      ],
      "formatted_address": "\u9999\u6e2f\u7063\u4ed4\u99f1\u514b\u9053117\u865f\u8208\u90a6\u5927\u5ec8\u5730\u4e0b2\u865f\u8216",
      "geometry": {
        "bounds": {
          "northeast": {
            "lat": 22.2783561,
            "lng": 114.172652
          },
          "southwest": {
            "lat": 22.2782209,
            "lng": 114.172414
          }
        },
        "location": {
          "lat": 22.2782881,
          "lng": 114.1725229
        },
        "location_type": "ROOFTOP",
        "viewport": {
          "northeast": {
            "lat": 22.2796374802915,
            "lng": 114.1738819802915
          },
          "southwest": {
            "lat": 22.2769395197085,
            "lng": 114.1711840197085
          }
        }
      },
      "partial_match": true,
      "place_id": "EkblnLDkuIsy6Jmf6IiWLCBIaW5nIEJvbmcgTWFuc2lvbiwgMTE3IExvY2toYXJ0IFJkLCBXYW4gQ2hhaSwgSG9uZyBLb25nIikaJwoWChQKEgmFLpxmXAAENBGgxxUoZ0FooxIN5Zyw5LiLMuiZn-iIlg",
      "types": [
        "subpremise"
      ]
    }
  ],
  "licno": "3112066425",
  "timestamp": 1564975666,
  "version": "1564966095"
}
