{
  "adr_en": "\u9b5a\u6ed1, SHOP G08, FULLER GARDENS, 8 CHUI LOK STREET, TAI PO, NEW TERRITORIES",
  "adr_tc": "\u65b0\u754c\u5927\u57d4\u7fe0\u6a02\u88578\u865f\u5bcc\u840a\u82b1\u5712G08\u865f\u8216 \u9b5a\u6ed1",
  "geocode_en": [
    {
      "address_components": [
        {
          "long_name": "Hong Kong",
          "short_name": "HK",
          "types": [
            "country",
            "political"
          ]
        }
      ],
      "formatted_address": "Hong Kong, \u592a\u548c\u7f8e\u65b0\u91cc8\u865f\u5bcc\u840a\u82b1\u5712\u5730\u4e0b",
      "geometry": {
        "location": {
          "lat": 22.4534324,
          "lng": 114.1646604
        },
        "location_type": "GEOMETRIC_CENTER",
        "viewport": {
          "northeast": {
            "lat": 22.4547813802915,
            "lng": 114.1660093802915
          },
          "southwest": {
            "lat": 22.4520834197085,
            "lng": 114.1633114197085
          }
        }
      },
      "partial_match": true,
      "place_id": "ChIJm-FGMzgIBDQRW1ILVCkWqqs",
      "plus_code": {
        "compound_code": "F537+9V Hong Kong",
        "global_code": "7PJPF537+9V"
      },
      "types": [
        "establishment",
        "food",
        "point_of_interest",
        "restaurant"
      ]
    },
    {
      "address_components": [
        {
          "long_name": "8",
          "short_name": "8",
          "types": [
            "street_number"
          ]
        },
        {
          "long_name": "Chui Lok Street",
          "short_name": "Chui Lok St",
          "types": [
            "route"
          ]
        },
        {
          "long_name": "Tai Po",
          "short_name": "Tai Po",
          "types": [
            "neighborhood",
            "political"
          ]
        },
        {
          "long_name": "New Territories",
          "short_name": "New Territories",
          "types": [
            "administrative_area_level_1",
            "political"
          ]
        },
        {
          "long_name": "Hong Kong",
          "short_name": "HK",
          "types": [
            "country",
            "political"
          ]
        }
      ],
      "formatted_address": "8 Chui Lok St, Tai Po, Hong Kong",
      "geometry": {
        "location": {
          "lat": 22.453866,
          "lng": 114.16481
        },
        "location_type": "ROOFTOP",
        "viewport": {
          "northeast": {
            "lat": 22.4552149802915,
            "lng": 114.1661589802915
          },
          "southwest": {
            "lat": 22.45251701970849,
            "lng": 114.1634610197085
          }
        }
      },
      "partial_match": true,
      "place_id": "ChIJIQZEMzgIBDQRehe50wZ44TY",
      "plus_code": {
        "compound_code": "F537+GW Hong Kong",
        "global_code": "7PJPF537+GW"
      },
      "types": [
        "establishment",
        "point_of_interest"
      ]
    }
  ],
  "geocode_tc": [
    {
      "address_components": [
        {
          "long_name": "G08\u865f\u8216 \u9b5a",
          "short_name": "G08\u865f\u8216 \u9b5a",
          "types": [
            "subpremise"
          ]
        },
        {
          "long_name": "8",
          "short_name": "8",
          "types": [
            "street_number"
          ]
        },
        {
          "long_name": "\u7fe0\u6a02\u8857",
          "short_name": "\u7fe0\u6a02\u8857",
          "types": [
            "route"
          ]
        },
        {
          "long_name": "\u5927\u57d4",
          "short_name": "\u5927\u57d4",
          "types": [
            "neighborhood",
            "political"
          ]
        },
        {
          "long_name": "\u65b0\u754c",
          "short_name": "\u65b0\u754c",
          "types": [
            "administrative_area_level_1",
            "political"
          ]
        },
        {
          "long_name": "\u9999\u6e2f",
          "short_name": "HK",
          "types": [
            "country",
            "political"
          ]
        }
      ],
      "formatted_address": "\u9999\u6e2f\u5927\u57d4\u7fe0\u6a02\u88578\u865fG08\u865f\u8216 \u9b5a",
      "geometry": {
        "location": {
          "lat": 22.4539139,
          "lng": 114.1647757
        },
        "location_type": "ROOFTOP",
        "viewport": {
          "northeast": {
            "lat": 22.4552628802915,
            "lng": 114.1661246802915
          },
          "southwest": {
            "lat": 22.4525649197085,
            "lng": 114.1634267197085
          }
        }
      },
      "partial_match": true,
      "place_id": "Ei9HMDjomZ_oiJYg6a2aLCA4IENodWkgTG9rIFN0LCBUYWkgUG8sIEhvbmcgS29uZyIpGicKFgoUChIJpwnryjkIBDQRGJt4EyZkCCASDUcwOOiZn-iIliDprZo",
      "types": [
        "subpremise"
      ]
    },
    {
      "address_components": [
        {
          "long_name": "\u9999\u6e2f",
          "short_name": "HK",
          "types": [
            "country",
            "political"
          ]
        }
      ],
      "formatted_address": "\u9999\u6e2f\u820a\u589f\u76f4\u885723\u865f",
      "geometry": {
        "location": {
          "lat": 22.454057,
          "lng": 114.164746
        },
        "location_type": "GEOMETRIC_CENTER",
        "viewport": {
          "northeast": {
            "lat": 22.4554059802915,
            "lng": 114.1660949802915
          },
          "southwest": {
            "lat": 22.4527080197085,
            "lng": 114.1633970197085
          }
        }
      },
      "partial_match": true,
      "place_id": "ChIJ9_VTMzgIBDQRAQhaZwmf9w8",
      "plus_code": {
        "compound_code": "F537+JV \u9999\u6e2f",
        "global_code": "7PJPF537+JV"
      },
      "types": [
        "establishment",
        "parking",
        "point_of_interest"
      ]
    }
  ],
  "licno": "2295001476",
  "timestamp": 1564975666,
  "version": "1564966095"
}
