{
  "adr_en": "KFC, FLAT A1 ON G/F., 1/F. & 2/F., EAST SOUTH BUILDING, 479 & 481 HENNESSY ROAD, 29 PERCIVAL STREET, CAUSEWAY BAY, HONG KONG",
  "adr_tc": "\u9999\u6e2f\u9285\u947c\u7063\u6ce2\u65af\u5bcc\u885729\u865f\u53ca\u8ed2\u5c3c\u8a69\u9053479&481\u865f\u6771\u5357\u5927\u5ec8 \u5730\u4e0bA1\u865f\u8216,1\u6a13\u53ca2\u6a13 \u80af\u5fb7\u57fa",
  "geocode_en": [
    {
      "address_components": [
        {
          "long_name": "East South Building",
          "short_name": "East South Building",
          "types": [
            "premise"
          ]
        },
        {
          "long_name": "475-481",
          "short_name": "475-481",
          "types": [
            "street_number"
          ]
        },
        {
          "long_name": "Hennessy Road",
          "short_name": "Hennessy Rd",
          "types": [
            "route"
          ]
        },
        {
          "long_name": "Bowrington",
          "short_name": "Bowrington",
          "types": [
            "neighborhood",
            "political"
          ]
        },
        {
          "long_name": "Hong Kong Island",
          "short_name": "Hong Kong Island",
          "types": [
            "administrative_area_level_1",
            "political"
          ]
        },
        {
          "long_name": "Hong Kong",
          "short_name": "HK",
          "types": [
            "country",
            "political"
          ]
        }
      ],
      "formatted_address": "East South Building, 475-481 Hennessy Rd, Bowrington, Hong Kong",
      "geometry": {
        "bounds": {
          "northeast": {
            "lat": 22.2801491,
            "lng": 114.18251
          },
          "southwest": {
            "lat": 22.279946,
            "lng": 114.1822841
          }
        },
        "location": {
          "lat": 22.2800434,
          "lng": 114.1824155
        },
        "location_type": "ROOFTOP",
        "viewport": {
          "northeast": {
            "lat": 22.2813965302915,
            "lng": 114.1837460302915
          },
          "southwest": {
            "lat": 22.2786985697085,
            "lng": 114.1810480697085
          }
        }
      },
      "partial_match": true,
      "place_id": "ChIJ6UsnJ1cABDQRto8dsvXf-ZU",
      "types": [
        "premise"
      ]
    }
  ],
  "geocode_tc": [
    {
      "address_components": [
        {
          "long_name": "\u6771\u5357\u5927\u5ec8",
          "short_name": "\u6771\u5357\u5927\u5ec8",
          "types": [
            "premise"
          ]
        },
        {
          "long_name": "475-481",
          "short_name": "475-481",
          "types": [
            "street_number"
          ]
        },
        {
          "long_name": "\u8ed2\u5c3c\u8a69\u9053",
          "short_name": "\u8ed2\u5c3c\u8a69\u9053",
          "types": [
            "route"
          ]
        },
        {
          "long_name": "\u9d5d\u9838",
          "short_name": "\u9d5d\u9838",
          "types": [
            "neighborhood",
            "political"
          ]
        },
        {
          "long_name": "\u9999\u6e2f\u5cf6",
          "short_name": "\u9999\u6e2f\u5cf6",
          "types": [
            "administrative_area_level_1",
            "political"
          ]
        },
        {
          "long_name": "\u9999\u6e2f",
          "short_name": "HK",
          "types": [
            "country",
            "political"
          ]
        }
      ],
      "formatted_address": "\u9999\u6e2f\u9d5d\u9838\u8ed2\u5c3c\u8a69\u9053475-481\u865f\u6771\u5357\u5927\u5ec8",
      "geometry": {
        "bounds": {
          "northeast": {
            "lat": 22.2801491,
            "lng": 114.18251
          },
          "southwest": {
            "lat": 22.279946,
            "lng": 114.1822841
          }
        },
        "location": {
          "lat": 22.2800434,
          "lng": 114.1824155
        },
        "location_type": "ROOFTOP",
        "viewport": {
          "northeast": {
            "lat": 22.2813965302915,
            "lng": 114.1837460302915
          },
          "southwest": {
            "lat": 22.2786985697085,
            "lng": 114.1810480697085
          }
        }
      },
      "partial_match": true,
      "place_id": "ChIJ6UsnJ1cABDQRto8dsvXf-ZU",
      "types": [
        "premise"
      ]
    }
  ],
  "licno": "3812817918",
  "timestamp": 1564975666,
  "version": "1564966095"
}
