{
  "adr_en": "LE CAFE, SHOP 4, G/F, WAH BO BUILDING, 33-41 BULKELEY STREET, HUNG HOM, KOWLOON",
  "adr_tc": "\u4e5d\u9f8d\u7d05\u78e1\u5bf6\u5176\u5229\u885733-41\u865f\u83ef\u5bf6\u5927\u5ec8\u5730\u4e0b4\u865f\u8216 LE CAFE",
  "geocode_en": [
    {
      "address_components": [
        {
          "long_name": "Wah Bo Building",
          "short_name": "Wah Bo Building",
          "types": [
            "premise"
          ]
        },
        {
          "long_name": "33-41",
          "short_name": "33-41",
          "types": [
            "street_number"
          ]
        },
        {
          "long_name": "Bulkeley Street",
          "short_name": "Bulkeley St",
          "types": [
            "route"
          ]
        },
        {
          "long_name": "Hung Hom",
          "short_name": "Hung Hom",
          "types": [
            "neighborhood",
            "political"
          ]
        },
        {
          "long_name": "Hong Kong",
          "short_name": "HK",
          "types": [
            "country",
            "political"
          ]
        }
      ],
      "formatted_address": "G/F, 35,, Wah Bo Building, 33-41 Bulkeley St, Hung Hom, Hong Kong",
      "geometry": {
        "location": {
          "lat": 22.306392,
          "lng": 114.186726
        },
        "location_type": "ROOFTOP",
        "viewport": {
          "northeast": {
            "lat": 22.3077409802915,
            "lng": 114.1880749802915
          },
          "southwest": {
            "lat": 22.3050430197085,
            "lng": 114.1853770197085
          }
        }
      },
      "partial_match": true,
      "place_id": "ChIJnShsHt4ABDQRFN7I_qNgSds",
      "plus_code": {
        "compound_code": "854P+HM Hong Kong",
        "global_code": "7PJP854P+HM"
      },
      "types": [
        "establishment",
        "food",
        "point_of_interest",
        "restaurant"
      ]
    }
  ],
  "geocode_tc": [
    {
      "address_components": [
        {
          "long_name": "Wah Bo Building",
          "short_name": "Wah Bo Building",
          "types": [
            "premise"
          ]
        },
        {
          "long_name": "33-41",
          "short_name": "33-41",
          "types": [
            "street_number"
          ]
        },
        {
          "long_name": "Bulkeley Street",
          "short_name": "Bulkeley St",
          "types": [
            "route"
          ]
        },
        {
          "long_name": "Hung Hom",
          "short_name": "Hung Hom",
          "types": [
            "neighborhood",
            "political"
          ]
        },
        {
          "long_name": "\u9999\u6e2f",
          "short_name": "HK",
          "types": [
            "country",
            "political"
          ]
        }
      ],
      "formatted_address": "G/F, 35,, Wah Bo Building, 33-41 Bulkeley St, Hung Hom, \u9999\u6e2f",
      "geometry": {
        "location": {
          "lat": 22.306392,
          "lng": 114.186726
        },
        "location_type": "ROOFTOP",
        "viewport": {
          "northeast": {
            "lat": 22.3077409802915,
            "lng": 114.1880749802915
          },
          "southwest": {
            "lat": 22.3050430197085,
            "lng": 114.1853770197085
          }
        }
      },
      "partial_match": true,
      "place_id": "ChIJnShsHt4ABDQRFN7I_qNgSds",
      "plus_code": {
        "compound_code": "854P+HM \u9999\u6e2f",
        "global_code": "7PJP854P+HM"
      },
      "types": [
        "establishment",
        "food",
        "point_of_interest",
        "restaurant"
      ]
    },
    {
      "address_components": [
        {
          "long_name": "\u83ef\u5bf6\u5927\u5ec8",
          "short_name": "\u83ef\u5bf6\u5927\u5ec8",
          "types": [
            "premise"
          ]
        },
        {
          "long_name": "33-41",
          "short_name": "33-41",
          "types": [
            "street_number"
          ]
        },
        {
          "long_name": "\u5bf6\u5176\u5229\u8857",
          "short_name": "\u5bf6\u5176\u5229\u8857",
          "types": [
            "route"
          ]
        },
        {
          "long_name": "\u7d05\u78e1",
          "short_name": "\u7d05\u78e1",
          "types": [
            "neighborhood",
            "political"
          ]
        },
        {
          "long_name": "\u4e5d\u9f8d",
          "short_name": "\u4e5d\u9f8d",
          "types": [
            "administrative_area_level_1",
            "political"
          ]
        },
        {
          "long_name": "\u9999\u6e2f",
          "short_name": "HK",
          "types": [
            "country",
            "political"
          ]
        }
      ],
      "formatted_address": "\u9999\u6e2f\u7d05\u78e1\u5bf6\u5176\u5229\u885733-41\u865f\u83ef\u5bf6\u5927\u5ec8",
      "geometry": {
        "bounds": {
          "northeast": {
            "lat": 22.306495,
            "lng": 114.186843
          },
          "southwest": {
            "lat": 22.3062891,
            "lng": 114.1866089
          }
        },
        "location": {
          "lat": 22.3063915,
          "lng": 114.1867348
        },
        "location_type": "ROOFTOP",
        "viewport": {
          "northeast": {
            "lat": 22.3077410302915,
            "lng": 114.1880749302915
          },
          "southwest": {
            "lat": 22.3050430697085,
            "lng": 114.1853769697085
          }
        }
      },
      "partial_match": true,
      "place_id": "ChIJnShsHt4ABDQRlKx_VdZ7mII",
      "types": [
        "premise"
      ]
    },
    {
      "address_components": [
        {
          "long_name": "\u865f\u8216",
          "short_name": "\u865f\u8216",
          "types": [
            "subpremise"
          ]
        },
        {
          "long_name": "\u83ef\u5bf6\u5927\u5ec8",
          "short_name": "\u83ef\u5bf6\u5927\u5ec8",
          "types": [
            "premise"
          ]
        },
        {
          "long_name": "33-41",
          "short_name": "33-41",
          "types": [
            "street_number"
          ]
        },
        {
          "long_name": "\u5bf6\u5176\u5229\u8857",
          "short_name": "\u5bf6\u5176\u5229\u8857",
          "types": [
            "route"
          ]
        },
        {
          "long_name": "\u7d05\u78e1",
          "short_name": "\u7d05\u78e1",
          "types": [
            "neighborhood",
            "political"
          ]
        },
        {
          "long_name": "\u4e5d\u9f8d",
          "short_name": "\u4e5d\u9f8d",
          "types": [
            "administrative_area_level_1",
            "political"
          ]
        },
        {
          "long_name": "\u9999\u6e2f",
          "short_name": "HK",
          "types": [
            "country",
            "political"
          ]
        }
      ],
      "formatted_address": "\u9999\u6e2f\u7d05\u78e1\u5bf6\u5176\u5229\u885733-41\u865f\u83ef\u5bf6\u5927\u5ec8\u865f\u8216",
      "geometry": {
        "bounds": {
          "northeast": {
            "lat": 22.306495,
            "lng": 114.186843
          },
          "southwest": {
            "lat": 22.3062891,
            "lng": 114.1866089
          }
        },
        "location": {
          "lat": 22.3063915,
          "lng": 114.1867348
        },
        "location_type": "ROOFTOP",
        "viewport": {
          "northeast": {
            "lat": 22.3077410302915,
            "lng": 114.1880749302915
          },
          "southwest": {
            "lat": 22.3050430697085,
            "lng": 114.1853769697085
          }
        }
      },
      "partial_match": true,
      "place_id": "Ej_omZ_oiJYsIFdhaCBCbyBCdWlsZGluZywgMzMtNDEgQnVsa2VsZXkgU3QsIEh1bmcgSG9tLCBIb25nIEtvbmciIhogChYKFAoSCZ0obB7eAAQ0EZSsf1XWe5iCEgbomZ_oiJY",
      "types": [
        "subpremise"
      ]
    }
  ],
  "licno": "3152802333",
  "timestamp": 1564975666,
  "version": "1564966095"
}
