{
  "adr_en": "Bar Pacific, SHOP 2, G/F, 16-26 TAM KUNG ROAD, TOKWAWAN, KOWLOON CITY, KOWLOON",
  "adr_tc": "\u4e5d\u9f8d\u8b5a\u516c\u905316-26\u865f\u5730\u4e0b2\u865f\u8216 \u592a\u5e73\u6d0b\u9152\u5427",
  "geocode_en": [
    {
      "address_components": [
        {
          "long_name": "G",
          "short_name": "G",
          "types": [
            "subpremise"
          ]
        },
        {
          "long_name": "Great Wall Building",
          "short_name": "Great Wall Building",
          "types": [
            "premise"
          ]
        },
        {
          "long_name": "16-26",
          "short_name": "16-26",
          "types": [
            "street_number"
          ]
        },
        {
          "long_name": "Tam Kung Road",
          "short_name": "Tam Kung Rd",
          "types": [
            "route"
          ]
        },
        {
          "long_name": "To Kwa Wan",
          "short_name": "To Kwa Wan",
          "types": [
            "neighborhood",
            "political"
          ]
        },
        {
          "long_name": "Kowloon",
          "short_name": "Kowloon",
          "types": [
            "administrative_area_level_1",
            "political"
          ]
        },
        {
          "long_name": "Hong Kong",
          "short_name": "HK",
          "types": [
            "country",
            "political"
          ]
        }
      ],
      "formatted_address": "G, Great Wall Building, 16-26 Tam Kung Rd, To Kwa Wan, Hong Kong",
      "geometry": {
        "bounds": {
          "northeast": {
            "lat": 22.3213309,
            "lng": 114.1881131
          },
          "southwest": {
            "lat": 22.320986,
            "lng": 114.187846
          }
        },
        "location": {
          "lat": 22.3211465,
          "lng": 114.1879887
        },
        "location_type": "ROOFTOP",
        "viewport": {
          "northeast": {
            "lat": 22.3225074302915,
            "lng": 114.1893285302915
          },
          "southwest": {
            "lat": 22.3198094697085,
            "lng": 114.1866305697085
          }
        }
      },
      "partial_match": true,
      "place_id": "EkBHLCBHcmVhdCBXYWxsIEJ1aWxkaW5nLCAxNi0yNiBUYW0gS3VuZyBSZCwgVG8gS3dhIFdhbiwgSG9uZyBLb25nIh0aGwoWChQKEgkXrcvz1gAENBGUcX0fV533BhIBRw",
      "types": [
        "subpremise"
      ]
    },
    {
      "address_components": [
        {
          "long_name": "F",
          "short_name": "F",
          "types": [
            "subpremise"
          ]
        },
        {
          "long_name": "Great Wall Building",
          "short_name": "Great Wall Building",
          "types": [
            "premise"
          ]
        },
        {
          "long_name": "16-26",
          "short_name": "16-26",
          "types": [
            "street_number"
          ]
        },
        {
          "long_name": "Tam Kung Road",
          "short_name": "Tam Kung Rd",
          "types": [
            "route"
          ]
        },
        {
          "long_name": "To Kwa Wan",
          "short_name": "To Kwa Wan",
          "types": [
            "neighborhood",
            "political"
          ]
        },
        {
          "long_name": "Kowloon",
          "short_name": "Kowloon",
          "types": [
            "administrative_area_level_1",
            "political"
          ]
        },
        {
          "long_name": "Hong Kong",
          "short_name": "HK",
          "types": [
            "country",
            "political"
          ]
        }
      ],
      "formatted_address": "F, Great Wall Building, 16-26 Tam Kung Rd, To Kwa Wan, Hong Kong",
      "geometry": {
        "bounds": {
          "northeast": {
            "lat": 22.3213309,
            "lng": 114.1881131
          },
          "southwest": {
            "lat": 22.320986,
            "lng": 114.187846
          }
        },
        "location": {
          "lat": 22.3211465,
          "lng": 114.1879887
        },
        "location_type": "ROOFTOP",
        "viewport": {
          "northeast": {
            "lat": 22.3225074302915,
            "lng": 114.1893285302915
          },
          "southwest": {
            "lat": 22.3198094697085,
            "lng": 114.1866305697085
          }
        }
      },
      "partial_match": true,
      "place_id": "EkBGLCBHcmVhdCBXYWxsIEJ1aWxkaW5nLCAxNi0yNiBUYW0gS3VuZyBSZCwgVG8gS3dhIFdhbiwgSG9uZyBLb25nIh0aGwoWChQKEgkXrcvz1gAENBGUcX0fV533BhIBRg",
      "types": [
        "subpremise"
      ]
    }
  ],
  "geocode_tc": [
    {
      "address_components": [
        {
          "long_name": "26",
          "short_name": "26",
          "types": [
            "street_number"
          ]
        },
        {
          "long_name": "\u8b5a\u516c\u9053",
          "short_name": "\u8b5a\u516c\u9053",
          "types": [
            "route"
          ]
        },
        {
          "long_name": "\u571f\u74dc\u7063",
          "short_name": "\u571f\u74dc\u7063",
          "types": [
            "neighborhood",
            "political"
          ]
        },
        {
          "long_name": "\u4e5d\u9f8d",
          "short_name": "\u4e5d\u9f8d",
          "types": [
            "administrative_area_level_1",
            "political"
          ]
        },
        {
          "long_name": "\u9999\u6e2f",
          "short_name": "HK",
          "types": [
            "country",
            "political"
          ]
        }
      ],
      "formatted_address": "\u9999\u6e2f\u571f\u74dc\u7063\u8b5a\u516c\u905326\u865f",
      "geometry": {
        "location": {
          "lat": 22.3211833,
          "lng": 114.1879027
        },
        "location_type": "ROOFTOP",
        "viewport": {
          "northeast": {
            "lat": 22.3225322802915,
            "lng": 114.1892516802915
          },
          "southwest": {
            "lat": 22.31983431970849,
            "lng": 114.1865537197085
          }
        }
      },
      "place_id": "ChIJmdosjdYABDQRhre6S6moKyU",
      "plus_code": {
        "compound_code": "85CQ+F5 \u9999\u6e2f",
        "global_code": "7PJP85CQ+F5"
      },
      "types": [
        "bar",
        "establishment",
        "point_of_interest"
      ]
    }
  ],
  "licno": "3152283172",
  "timestamp": 1564975666,
  "version": "1564966095"
}
