{
  "adr_en": "No Record, PORTION B, SHOP A ON THE GROUND FLOOR OF LYTON BUILDING, NOS.32-48 MODY ROAD & NO.1 BLENHEIM AVENUE, TSIM SHA TSUI, KOWLOON",
  "adr_tc": "\u4e5d\u9f8d\u5c16\u6c99\u5480\u9ebc\u5730\u905332-48\u865f & \u767d\u862d\u8ed2\u90531\u865f \u9e97\u6771\u5927\u5ec8\u5730\u4e0bA\u8216B\u90e8\u4efd \u6c92\u6709\u8a18\u9304",
  "geocode_en": [
    {
      "address_components": [
        {
          "long_name": "Lyton Building",
          "short_name": "Lyton Building",
          "types": [
            "premise"
          ]
        },
        {
          "long_name": "32-48",
          "short_name": "32-48",
          "types": [
            "street_number"
          ]
        },
        {
          "long_name": "Mody Road",
          "short_name": "Mody Rd",
          "types": [
            "route"
          ]
        },
        {
          "long_name": "Tsim Sha Tsui",
          "short_name": "Tsim Sha Tsui",
          "types": [
            "neighborhood",
            "political"
          ]
        },
        {
          "long_name": "Kowloon",
          "short_name": "Kowloon",
          "types": [
            "administrative_area_level_1",
            "political"
          ]
        },
        {
          "long_name": "Hong Kong",
          "short_name": "HK",
          "types": [
            "country",
            "political"
          ]
        }
      ],
      "formatted_address": "Lyton Building, 32-48 Mody Rd, Tsim Sha Tsui, Hong Kong",
      "geometry": {
        "bounds": {
          "northeast": {
            "lat": 22.2971887,
            "lng": 114.174971
          },
          "southwest": {
            "lat": 22.296983,
            "lng": 114.1746009
          }
        },
        "location": {
          "lat": 22.2970436,
          "lng": 114.1748219
        },
        "location_type": "ROOFTOP",
        "viewport": {
          "northeast": {
            "lat": 22.2984348302915,
            "lng": 114.1761349302915
          },
          "southwest": {
            "lat": 22.2957368697085,
            "lng": 114.1734369697085
          }
        }
      },
      "partial_match": true,
      "place_id": "ChIJeQgTHu4ABDQRFB-_VVyMVno",
      "types": [
        "premise"
      ]
    }
  ],
  "geocode_tc": [
    {
      "address_components": [
        {
          "long_name": "\u9e97\u6771\u5927\u5ec8",
          "short_name": "\u9e97\u6771\u5927\u5ec8",
          "types": [
            "premise"
          ]
        },
        {
          "long_name": "32-48",
          "short_name": "32-48",
          "types": [
            "street_number"
          ]
        },
        {
          "long_name": "\u9ebc\u5730\u9053",
          "short_name": "\u9ebc\u5730\u9053",
          "types": [
            "route"
          ]
        },
        {
          "long_name": "\u5c16\u6c99\u5480",
          "short_name": "\u5c16\u6c99\u5480",
          "types": [
            "neighborhood",
            "political"
          ]
        },
        {
          "long_name": "\u4e5d\u9f8d",
          "short_name": "\u4e5d\u9f8d",
          "types": [
            "administrative_area_level_1",
            "political"
          ]
        },
        {
          "long_name": "\u9999\u6e2f",
          "short_name": "HK",
          "types": [
            "country",
            "political"
          ]
        }
      ],
      "formatted_address": "\u9999\u6e2f\u5c16\u6c99\u5480\u9ebc\u5730\u905332-48\u865f\u9e97\u6771\u5927\u5ec8",
      "geometry": {
        "bounds": {
          "northeast": {
            "lat": 22.2971887,
            "lng": 114.174971
          },
          "southwest": {
            "lat": 22.296983,
            "lng": 114.1746009
          }
        },
        "location": {
          "lat": 22.2970436,
          "lng": 114.1748219
        },
        "location_type": "ROOFTOP",
        "viewport": {
          "northeast": {
            "lat": 22.2984348302915,
            "lng": 114.1761349302915
          },
          "southwest": {
            "lat": 22.2957368697085,
            "lng": 114.1734369697085
          }
        }
      },
      "partial_match": true,
      "place_id": "ChIJeQgTHu4ABDQRFB-_VVyMVno",
      "types": [
        "premise"
      ]
    }
  ],
  "licno": "3161806003",
  "timestamp": 1564975666,
  "version": "1564966095"
}
