{
  "adr_en": "MAHALo by JIt, SHOP NO. 217, G/F, KAM YUCK BUILDING, 2 WAI CHI LANE, SHAM SHUI PO, KOWLOON",
  "adr_tc": "\u4e5d\u9f8d\u6df1\u6c34\u57d7\u5049\u667a\u91cc2\u865f\u91d1\u7389\u5927\u5ec8\u5730\u4e0b217\u865f\u8216 MAHALo by JIt",
  "geocode_en": [
    {
      "address_components": [
        {
          "long_name": "Kam Yuck Building",
          "short_name": "Kam Yuck Building",
          "types": [
            "premise"
          ]
        },
        {
          "long_name": "2",
          "short_name": "2",
          "types": [
            "street_number"
          ]
        },
        {
          "long_name": "Wai Chi Lane",
          "short_name": "Wai Chi Ln",
          "types": [
            "route"
          ]
        },
        {
          "long_name": "Shek Kip Mei",
          "short_name": "Shek Kip Mei",
          "types": [
            "neighborhood",
            "political"
          ]
        },
        {
          "long_name": "Kowloon",
          "short_name": "Kowloon",
          "types": [
            "administrative_area_level_1",
            "political"
          ]
        },
        {
          "long_name": "Hong Kong",
          "short_name": "HK",
          "types": [
            "country",
            "political"
          ]
        }
      ],
      "formatted_address": "Kam Yuck Building, 2 Wai Chi Ln, Shek Kip Mei, Hong Kong",
      "geometry": {
        "bounds": {
          "northeast": {
            "lat": 22.3348101,
            "lng": 114.167294
          },
          "southwest": {
            "lat": 22.3343481,
            "lng": 114.1667319
          }
        },
        "location": {
          "lat": 22.3346493,
          "lng": 114.1669263
        },
        "location_type": "ROOFTOP",
        "viewport": {
          "northeast": {
            "lat": 22.3359280802915,
            "lng": 114.1683619302915
          },
          "southwest": {
            "lat": 22.3332301197085,
            "lng": 114.1656639697085
          }
        }
      },
      "partial_match": true,
      "place_id": "ChIJl_RIfUoHBDQRmJMQPUKa_VY",
      "types": [
        "premise"
      ]
    }
  ],
  "geocode_tc": [
    {
      "address_components": [
        {
          "long_name": "\u91d1\u7389\u5927\u5ec8",
          "short_name": "\u91d1\u7389\u5927\u5ec8",
          "types": [
            "premise"
          ]
        },
        {
          "long_name": "2",
          "short_name": "2",
          "types": [
            "street_number"
          ]
        },
        {
          "long_name": "\u5049\u667a\u91cc",
          "short_name": "\u5049\u667a\u91cc",
          "types": [
            "route"
          ]
        },
        {
          "long_name": "\u77f3\u7864\u5c3e",
          "short_name": "\u77f3\u7864\u5c3e",
          "types": [
            "neighborhood",
            "political"
          ]
        },
        {
          "long_name": "\u4e5d\u9f8d",
          "short_name": "\u4e5d\u9f8d",
          "types": [
            "administrative_area_level_1",
            "political"
          ]
        },
        {
          "long_name": "\u9999\u6e2f",
          "short_name": "HK",
          "types": [
            "country",
            "political"
          ]
        }
      ],
      "formatted_address": "\u9999\u6e2f\u77f3\u7864\u5c3e\u5049\u667a\u91cc2\u865f\u91d1\u7389\u5927\u5ec8",
      "geometry": {
        "bounds": {
          "northeast": {
            "lat": 22.3348101,
            "lng": 114.167294
          },
          "southwest": {
            "lat": 22.3343481,
            "lng": 114.1667319
          }
        },
        "location": {
          "lat": 22.3346493,
          "lng": 114.1669263
        },
        "location_type": "ROOFTOP",
        "viewport": {
          "northeast": {
            "lat": 22.3359280802915,
            "lng": 114.1683619302915
          },
          "southwest": {
            "lat": 22.3332301197085,
            "lng": 114.1656639697085
          }
        }
      },
      "partial_match": true,
      "place_id": "ChIJl_RIfUoHBDQRmJMQPUKa_VY",
      "types": [
        "premise"
      ]
    },
    {
      "address_components": [
        {
          "long_name": "217\u5730\u8216",
          "short_name": "217\u5730\u8216",
          "types": [
            "subpremise"
          ]
        },
        {
          "long_name": "\u91d1\u7389\u5927\u5ec8",
          "short_name": "\u91d1\u7389\u5927\u5ec8",
          "types": [
            "premise"
          ]
        },
        {
          "long_name": "2\u865f",
          "short_name": "2\u865f",
          "types": [
            "street_number"
          ]
        },
        {
          "long_name": "\u5049\u667a\u91cc",
          "short_name": "\u5049\u667a\u91cc",
          "types": [
            "route"
          ]
        },
        {
          "long_name": "\u77f3\u7864\u5c3e",
          "short_name": "\u77f3\u7864\u5c3e",
          "types": [
            "neighborhood",
            "political"
          ]
        },
        {
          "long_name": "\u4e5d\u9f8d",
          "short_name": "\u4e5d\u9f8d",
          "types": [
            "administrative_area_level_1",
            "political"
          ]
        },
        {
          "long_name": "\u9999\u6e2f",
          "short_name": "HK",
          "types": [
            "country",
            "political"
          ]
        }
      ],
      "formatted_address": "\u9999\u6e2f\u77f3\u7864\u5c3e\u5049\u667a\u91cc2\u865f\u91d1\u7389\u5927\u5ec8217\u5730\u8216",
      "geometry": {
        "location": {
          "lat": 22.3347484,
          "lng": 114.1669233
        },
        "location_type": "ROOFTOP",
        "viewport": {
          "northeast": {
            "lat": 22.33609738029151,
            "lng": 114.1682722802915
          },
          "southwest": {
            "lat": 22.3333994197085,
            "lng": 114.1655743197085
          }
        }
      },
      "partial_match": true,
      "place_id": "ChIJmb9lH4oHBDQRU1cK9X7DW9A",
      "plus_code": {
        "compound_code": "85M8+VQ \u9999\u6e2f\u77f3\u7864\u5c3e",
        "global_code": "7PJP85M8+VQ"
      },
      "types": [
        "establishment",
        "food",
        "point_of_interest",
        "restaurant"
      ]
    }
  ],
  "licno": "3163800735",
  "timestamp": 1564975666,
  "version": "1564966095"
}
