{
  "adr_en": "No Record, 6/F., TERN PLAZA, NO.5 CAMERON ROAD, KOWLOON",
  "adr_tc": "\u4e5d\u9f8d\u91d1\u99ac\u502b\u90535\u865f\u592a\u8208\u5ee3\u5834\u516d\u5b57\u6a13 \u6c92\u6709\u8a18\u9304",
  "geocode_en": [
    {
      "address_components": [
        {
          "long_name": "Tern Plaza",
          "short_name": "Tern Plaza",
          "types": [
            "premise"
          ]
        },
        {
          "long_name": "3A-3C",
          "short_name": "3A-3C",
          "types": [
            "street_number"
          ]
        },
        {
          "long_name": "Cameron Road",
          "short_name": "Cameron Rd",
          "types": [
            "route"
          ]
        },
        {
          "long_name": "Tsim Sha Tsui",
          "short_name": "Tsim Sha Tsui",
          "types": [
            "neighborhood",
            "political"
          ]
        },
        {
          "long_name": "Kowloon",
          "short_name": "Kowloon",
          "types": [
            "administrative_area_level_1",
            "political"
          ]
        },
        {
          "long_name": "Hong Kong",
          "short_name": "HK",
          "types": [
            "country",
            "political"
          ]
        }
      ],
      "formatted_address": "Tern Plaza, 3A-3C Cameron Rd, Tsim Sha Tsui, Hong Kong",
      "geometry": {
        "bounds": {
          "northeast": {
            "lat": 22.298945,
            "lng": 114.1728821
          },
          "southwest": {
            "lat": 22.29879,
            "lng": 114.172676
          }
        },
        "location": {
          "lat": 22.2988661,
          "lng": 114.1728016
        },
        "location_type": "ROOFTOP",
        "viewport": {
          "northeast": {
            "lat": 22.3002164802915,
            "lng": 114.1741280302915
          },
          "southwest": {
            "lat": 22.2975185197085,
            "lng": 114.1714300697085
          }
        }
      },
      "partial_match": true,
      "place_id": "ChIJA63kwu0ABDQRthAq9dWLi4w",
      "types": [
        "premise"
      ]
    }
  ],
  "geocode_tc": [
    {
      "address_components": [
        {
          "long_name": "\u592a\u8208\u5ee3\u5834",
          "short_name": "\u592a\u8208\u5ee3\u5834",
          "types": [
            "premise"
          ]
        },
        {
          "long_name": "3A-3C",
          "short_name": "3A-3C",
          "types": [
            "street_number"
          ]
        },
        {
          "long_name": "\u91d1\u99ac\u502b\u9053",
          "short_name": "\u91d1\u99ac\u502b\u9053",
          "types": [
            "route"
          ]
        },
        {
          "long_name": "\u5c16\u6c99\u5480",
          "short_name": "\u5c16\u6c99\u5480",
          "types": [
            "neighborhood",
            "political"
          ]
        },
        {
          "long_name": "\u4e5d\u9f8d",
          "short_name": "\u4e5d\u9f8d",
          "types": [
            "administrative_area_level_1",
            "political"
          ]
        },
        {
          "long_name": "\u9999\u6e2f",
          "short_name": "HK",
          "types": [
            "country",
            "political"
          ]
        }
      ],
      "formatted_address": "\u9999\u6e2f\u5c16\u6c99\u5480\u91d1\u99ac\u502b\u90533A-3C\u865f\u592a\u8208\u5ee3\u5834",
      "geometry": {
        "bounds": {
          "northeast": {
            "lat": 22.298945,
            "lng": 114.1728821
          },
          "southwest": {
            "lat": 22.29879,
            "lng": 114.172676
          }
        },
        "location": {
          "lat": 22.2988661,
          "lng": 114.1728016
        },
        "location_type": "ROOFTOP",
        "viewport": {
          "northeast": {
            "lat": 22.3002164802915,
            "lng": 114.1741280302915
          },
          "southwest": {
            "lat": 22.2975185197085,
            "lng": 114.1714300697085
          }
        }
      },
      "partial_match": true,
      "place_id": "ChIJA63kwu0ABDQRthAq9dWLi4w",
      "types": [
        "premise"
      ]
    }
  ],
  "licno": "2261800609",
  "timestamp": 1564968756,
  "version": "1564966095"
}
