{
  "adr_en": "\u6587\u8208\u8a18\u8c6c\u9aa8\u6e6f\u7c73\u7dda, SHOP 14A, G/F, TAI ON SHOPPING CTR, 57-87 SHAU KEI WAN ROAD, HONG KONG",
  "adr_tc": "\u9999\u6e2f\u7b72\u7b95\u7063 \u7b72\u7b95\u7063\u905357-87\u865f \u592a\u5b89\u6a13\u5546\u5834\u5730\u4e0b14\u865fA\u92ea \u6587\u8208\u8a18\u8c6c\u9aa8\u6e6f\u7c73\u7dda",
  "geocode_en": [
    {
      "address_components": [
        {
          "long_name": "Tai On Building",
          "short_name": "Tai On Building",
          "types": [
            "premise"
          ]
        },
        {
          "long_name": "Sai Wan Ho",
          "short_name": "Sai Wan Ho",
          "types": [
            "neighborhood",
            "political"
          ]
        },
        {
          "long_name": "Hong Kong",
          "short_name": "HK",
          "types": [
            "country",
            "political"
          ]
        }
      ],
      "formatted_address": "Hong Kong, Sai Wan Ho, Tai On Building, G/F",
      "geometry": {
        "location": {
          "lat": 22.2828549,
          "lng": 114.222113
        },
        "location_type": "ROOFTOP",
        "viewport": {
          "northeast": {
            "lat": 22.2842038802915,
            "lng": 114.2234619802915
          },
          "southwest": {
            "lat": 22.2815059197085,
            "lng": 114.2207640197085
          }
        }
      },
      "partial_match": true,
      "place_id": "ChIJcYyOvHYBBDQR9Ud08Pv4qMo",
      "plus_code": {
        "compound_code": "76MC+4R Hong Kong",
        "global_code": "7PJP76MC+4R"
      },
      "types": [
        "establishment",
        "food",
        "point_of_interest",
        "restaurant"
      ]
    },
    {
      "address_components": [
        {
          "long_name": "Tai On Building",
          "short_name": "Tai On Building",
          "types": [
            "premise"
          ]
        },
        {
          "long_name": "57-87",
          "short_name": "57-87",
          "types": [
            "street_number"
          ]
        },
        {
          "long_name": "Shau Kei Wan Road",
          "short_name": "Shau Kei Wan Rd",
          "types": [
            "route"
          ]
        },
        {
          "long_name": "Sai Wan Ho",
          "short_name": "Sai Wan Ho",
          "types": [
            "neighborhood",
            "political"
          ]
        },
        {
          "long_name": "Hong Kong Island",
          "short_name": "Hong Kong Island",
          "types": [
            "administrative_area_level_1",
            "political"
          ]
        },
        {
          "long_name": "Hong Kong",
          "short_name": "HK",
          "types": [
            "country",
            "political"
          ]
        }
      ],
      "formatted_address": "Tai On Building, 57-87 Shau Kei Wan Rd, Sai Wan Ho, Hong Kong",
      "geometry": {
        "bounds": {
          "northeast": {
            "lat": 22.2832599,
            "lng": 114.222471
          },
          "southwest": {
            "lat": 22.282266,
            "lng": 114.221517
          }
        },
        "location": {
          "lat": 22.2828742,
          "lng": 114.2220997
        },
        "location_type": "ROOFTOP",
        "viewport": {
          "northeast": {
            "lat": 22.2841119302915,
            "lng": 114.2233429802915
          },
          "southwest": {
            "lat": 22.2814139697085,
            "lng": 114.2206450197085
          }
        }
      },
      "partial_match": true,
      "place_id": "ChIJETLWvHYBBDQRRmmiGbZU-Nc",
      "types": [
        "premise"
      ]
    }
  ],
  "geocode_tc": [
    {
      "address_components": [
        {
          "long_name": "Tai On Building",
          "short_name": "Tai On Building",
          "types": [
            "premise"
          ]
        },
        {
          "long_name": "57-87",
          "short_name": "57-87",
          "types": [
            "street_number"
          ]
        },
        {
          "long_name": "Shau Kei Wan Road",
          "short_name": "Shau Kei Wan Rd",
          "types": [
            "route"
          ]
        },
        {
          "long_name": "Sai Wan Ho",
          "short_name": "Sai Wan Ho",
          "types": [
            "neighborhood",
            "political"
          ]
        },
        {
          "long_name": "\u9999\u6e2f",
          "short_name": "HK",
          "types": [
            "country",
            "political"
          ]
        }
      ],
      "formatted_address": "\u865f, Tai On Building, 57-87 Shau Kei Wan Rd, Sai Wan Ho, \u9999\u6e2f",
      "geometry": {
        "location": {
          "lat": 22.2827629,
          "lng": 114.221994
        },
        "location_type": "ROOFTOP",
        "viewport": {
          "northeast": {
            "lat": 22.2841118802915,
            "lng": 114.2233429802915
          },
          "southwest": {
            "lat": 22.2814139197085,
            "lng": 114.2206450197085
          }
        }
      },
      "partial_match": true,
      "place_id": "ChIJCTLWvHYBBDQRb0aHK5TUMNw",
      "plus_code": {
        "compound_code": "76MC+4Q \u9999\u6e2f",
        "global_code": "7PJP76MC+4Q"
      },
      "types": [
        "establishment",
        "point_of_interest",
        "shopping_mall"
      ]
    },
    {
      "address_components": [
        {
          "long_name": "\u592a\u5b89\u6a13",
          "short_name": "\u592a\u5b89\u6a13",
          "types": [
            "premise"
          ]
        },
        {
          "long_name": "57-87",
          "short_name": "57-87",
          "types": [
            "street_number"
          ]
        },
        {
          "long_name": "\u7b72\u7b95\u7063\u9053",
          "short_name": "\u7b72\u7b95\u7063\u9053",
          "types": [
            "route"
          ]
        },
        {
          "long_name": "\u897f\u7063\u6cb3",
          "short_name": "\u897f\u7063\u6cb3",
          "types": [
            "neighborhood",
            "political"
          ]
        },
        {
          "long_name": "\u9999\u6e2f\u5cf6",
          "short_name": "\u9999\u6e2f\u5cf6",
          "types": [
            "administrative_area_level_1",
            "political"
          ]
        },
        {
          "long_name": "\u9999\u6e2f",
          "short_name": "HK",
          "types": [
            "country",
            "political"
          ]
        }
      ],
      "formatted_address": "\u9999\u6e2f\u897f\u7063\u6cb3\u7b72\u7b95\u7063\u905357-87\u865f\u592a\u5b89\u6a13",
      "geometry": {
        "bounds": {
          "northeast": {
            "lat": 22.2832599,
            "lng": 114.222471
          },
          "southwest": {
            "lat": 22.282266,
            "lng": 114.221517
          }
        },
        "location": {
          "lat": 22.2828742,
          "lng": 114.2220997
        },
        "location_type": "ROOFTOP",
        "viewport": {
          "northeast": {
            "lat": 22.2841119302915,
            "lng": 114.2233429802915
          },
          "southwest": {
            "lat": 22.2814139697085,
            "lng": 114.2206450197085
          }
        }
      },
      "partial_match": true,
      "place_id": "ChIJETLWvHYBBDQRRmmiGbZU-Nc",
      "types": [
        "premise"
      ]
    },
    {
      "address_components": [
        {
          "long_name": "\u592a\u5b89\u6a13",
          "short_name": "\u592a\u5b89\u6a13",
          "types": [
            "premise"
          ]
        },
        {
          "long_name": "\u897f\u7063\u6cb3",
          "short_name": "\u897f\u7063\u6cb3",
          "types": [
            "neighborhood",
            "political"
          ]
        },
        {
          "long_name": "\u9999\u6e2f",
          "short_name": "HK",
          "types": [
            "country",
            "political"
          ]
        }
      ],
      "formatted_address": "\u9999\u6e2f\u897f\u7063\u6cb3\u592a\u5b89\u6a13G/F",
      "geometry": {
        "location": {
          "lat": 22.2828549,
          "lng": 114.222113
        },
        "location_type": "ROOFTOP",
        "viewport": {
          "northeast": {
            "lat": 22.2842038802915,
            "lng": 114.2234619802915
          },
          "southwest": {
            "lat": 22.2815059197085,
            "lng": 114.2207640197085
          }
        }
      },
      "partial_match": true,
      "place_id": "ChIJcYyOvHYBBDQR9Ud08Pv4qMo",
      "plus_code": {
        "compound_code": "76MC+4R \u9999\u6e2f",
        "global_code": "7PJP76MC+4R"
      },
      "types": [
        "establishment",
        "food",
        "point_of_interest",
        "restaurant"
      ]
    }
  ],
  "licno": "2211087780",
  "timestamp": 1564966180,
  "version": "1564966095"
}
