{
  "adr_en": "SPREADSHEET, G/F., BAY VIEW MANSION, 25 MORETON TERRACE, CAUSEWAY BAY, HONG KONG",
  "adr_tc": "\u9999\u6e2f\u9285\u947c\u7063\u6469\u9813\u81fa25\u865f\u7063\u666f\u6a13\u5730\u4e0b SPREADSHEET",
  "geocode_en": [
    {
      "address_components": [
        {
          "long_name": "Bay View Mansion",
          "short_name": "Bay View Mansion",
          "types": [
            "premise"
          ]
        },
        {
          "long_name": "24-36",
          "short_name": "24-36",
          "types": [
            "street_number"
          ]
        },
        {
          "long_name": "Causeway Road",
          "short_name": "Causeway Rd",
          "types": [
            "route"
          ]
        },
        {
          "long_name": "Causeway Bay",
          "short_name": "Causeway Bay",
          "types": [
            "neighborhood",
            "political"
          ]
        },
        {
          "long_name": "Hong Kong Island",
          "short_name": "Hong Kong Island",
          "types": [
            "administrative_area_level_1",
            "political"
          ]
        },
        {
          "long_name": "Hong Kong",
          "short_name": "HK",
          "types": [
            "country",
            "political"
          ]
        }
      ],
      "formatted_address": "Bay View Mansion, 24-36 Causeway Rd, Causeway Bay, Hong Kong",
      "geometry": {
        "bounds": {
          "northeast": {
            "lat": 22.2798671,
            "lng": 114.188981
          },
          "southwest": {
            "lat": 22.279176,
            "lng": 114.188475
          }
        },
        "location": {
          "lat": 22.2795895,
          "lng": 114.188755
        },
        "location_type": "ROOFTOP",
        "viewport": {
          "northeast": {
            "lat": 22.2808705302915,
            "lng": 114.1900769802915
          },
          "southwest": {
            "lat": 22.2781725697085,
            "lng": 114.1873790197085
          }
        }
      },
      "partial_match": true,
      "place_id": "ChIJ027Z9FQABDQRVq6s_Sqc6ik",
      "types": [
        "premise"
      ]
    },
    {
      "address_components": [
        {
          "long_name": "25",
          "short_name": "25",
          "types": [
            "street_number"
          ]
        },
        {
          "long_name": "Moreton Terrace",
          "short_name": "Moreton Terrace",
          "types": [
            "route"
          ]
        },
        {
          "long_name": "Causeway Bay",
          "short_name": "Causeway Bay",
          "types": [
            "neighborhood",
            "political"
          ]
        },
        {
          "long_name": "Hong Kong Island",
          "short_name": "Hong Kong Island",
          "types": [
            "administrative_area_level_1",
            "political"
          ]
        },
        {
          "long_name": "Hong Kong",
          "short_name": "HK",
          "types": [
            "country",
            "political"
          ]
        }
      ],
      "formatted_address": "25 Moreton Terrace, Causeway Bay, Hong Kong",
      "geometry": {
        "location": {
          "lat": 22.279482,
          "lng": 114.188864
        },
        "location_type": "RANGE_INTERPOLATED",
        "viewport": {
          "northeast": {
            "lat": 22.2808309802915,
            "lng": 114.1902129802915
          },
          "southwest": {
            "lat": 22.27813301970849,
            "lng": 114.1875150197085
          }
        }
      },
      "partial_match": true,
      "place_id": "EisyNSBNb3JldG9uIFRlcnJhY2UsIENhdXNld2F5IEJheSwgSG9uZyBLb25nIhoSGAoUChIJbQsd9FQABDQRYg9dyvyW5IAQGQ",
      "types": [
        "street_address"
      ]
    }
  ],
  "geocode_tc": [
    {
      "address_components": [
        {
          "long_name": "Causeway Bay",
          "short_name": "Causeway Bay",
          "types": [
            "neighborhood",
            "political"
          ]
        },
        {
          "long_name": "Hong Kong Island",
          "short_name": "Hong Kong Island",
          "types": [
            "administrative_area_level_1",
            "political"
          ]
        },
        {
          "long_name": "\u9999\u6e2f",
          "short_name": "HK",
          "types": [
            "country",
            "political"
          ]
        }
      ],
      "formatted_address": "Floor 5, Flat No. B2 11-33 Moreton Terrace, Bay View Mansion, Causeway Bay, \u9999\u6e2f",
      "geometry": {
        "location": {
          "lat": 22.2795895,
          "lng": 114.188755
        },
        "location_type": "GEOMETRIC_CENTER",
        "viewport": {
          "northeast": {
            "lat": 22.2809384802915,
            "lng": 114.1901039802915
          },
          "southwest": {
            "lat": 22.2782405197085,
            "lng": 114.1874060197085
          }
        }
      },
      "place_id": "ChIJH4RhX1QABDQRHxBZVaWZR4k",
      "plus_code": {
        "compound_code": "75HQ+RG \u9999\u6e2f",
        "global_code": "7PJP75HQ+RG"
      },
      "types": [
        "establishment",
        "point_of_interest"
      ]
    }
  ],
  "licno": "2212813197",
  "timestamp": 1564966180,
  "version": "1564966095"
}
