{
  "adr_en": "BAR PACIFIC, SHOP 4 & 9, G/F, CHUN CHU HOUSE, 1 CASTLE PEAK ROAD, YUEN LONG, NEW TERRITORIES",
  "adr_tc": "\u65b0\u754c\u5143\u6717\u9752\u5c71\u516c\u8def1\u865f\u73cd\u73e0\u6a13\u5730\u4e0b4&9\u865f\u92ea \u592a\u5e73\u6d0b\u9152\u5427",
  "geocode_en": [
    {
      "address_components": [
        {
          "long_name": "Hong Kong",
          "short_name": "HK",
          "types": [
            "country",
            "political"
          ]
        }
      ],
      "formatted_address": "Hong Kong, \u65b0\u754c\u5143\u6717\u9752\u5c71\u516c\u8def\u5143\u6717\u6bb51\u865f\u73cd\u73e0\u6a13\u5730\u4e0b",
      "geometry": {
        "location": {
          "lat": 22.444768,
          "lng": 114.03182
        },
        "location_type": "GEOMETRIC_CENTER",
        "viewport": {
          "northeast": {
            "lat": 22.4461169802915,
            "lng": 114.0331689802915
          },
          "southwest": {
            "lat": 22.4434190197085,
            "lng": 114.0304710197085
          }
        }
      },
      "partial_match": true,
      "place_id": "ChIJIyvfJafwAzQRhregs482mJ4",
      "plus_code": {
        "compound_code": "C2VJ+WP Hong Kong",
        "global_code": "7PJPC2VJ+WP"
      },
      "types": [
        "establishment",
        "point_of_interest"
      ]
    },
    {
      "address_components": [
        {
          "long_name": "SHOP 4",
          "short_name": "SHOP 4",
          "types": [
            "subpremise"
          ]
        },
        {
          "long_name": "Chun Chu House",
          "short_name": "Chun Chu House",
          "types": [
            "premise"
          ]
        },
        {
          "long_name": "1-15",
          "short_name": "1-15",
          "types": [
            "street_number"
          ]
        },
        {
          "long_name": "Castle Peak Road (Yuen Long)",
          "short_name": "Castle Peak Road (Yuen Long)",
          "types": [
            "route"
          ]
        },
        {
          "long_name": "Yuen Long",
          "short_name": "Yuen Long",
          "types": [
            "neighborhood",
            "political"
          ]
        },
        {
          "long_name": "New Territories",
          "short_name": "New Territories",
          "types": [
            "administrative_area_level_1",
            "political"
          ]
        },
        {
          "long_name": "Hong Kong",
          "short_name": "HK",
          "types": [
            "country",
            "political"
          ]
        }
      ],
      "formatted_address": "SHOP 4, Chun Chu House, 1-15 Castle Peak Road (Yuen Long), Yuen Long, Hong Kong",
      "geometry": {
        "bounds": {
          "northeast": {
            "lat": 22.4448502,
            "lng": 114.0319231
          },
          "southwest": {
            "lat": 22.4445492,
            "lng": 114.0315639
          }
        },
        "location": {
          "lat": 22.4447307,
          "lng": 114.0318435
        },
        "location_type": "ROOFTOP",
        "viewport": {
          "northeast": {
            "lat": 22.4460486802915,
            "lng": 114.0330924802915
          },
          "southwest": {
            "lat": 22.44335071970849,
            "lng": 114.0303945197085
          }
        }
      },
      "partial_match": true,
      "place_id": "Ek9TSE9QIDQsIENodW4gQ2h1IEhvdXNlLCAxLTE1IENhc3RsZSBQZWFrIFJvYWQgKFl1ZW4gTG9uZyksIFl1ZW4gTG9uZywgSG9uZyBLb25nIiIaIAoWChQKEgnZfOMlp_ADNBGgtEvc_lRw8BIGU0hPUCA0",
      "types": [
        "subpremise"
      ]
    }
  ],
  "geocode_tc": [
    {
      "address_components": [
        {
          "long_name": "\u9999\u6e2f",
          "short_name": "HK",
          "types": [
            "country",
            "political"
          ]
        }
      ],
      "formatted_address": "\u9999\u6e2f\u65b0\u754c\u5143\u6717\u9752\u5c71\u516c\u8def\u5143\u6717\u6bb51\u865f\u73cd\u73e0\u6a13\u5730\u4e0b",
      "geometry": {
        "location": {
          "lat": 22.444768,
          "lng": 114.03182
        },
        "location_type": "GEOMETRIC_CENTER",
        "viewport": {
          "northeast": {
            "lat": 22.4461169802915,
            "lng": 114.0331689802915
          },
          "southwest": {
            "lat": 22.4434190197085,
            "lng": 114.0304710197085
          }
        }
      },
      "place_id": "ChIJIyvfJafwAzQRhregs482mJ4",
      "plus_code": {
        "compound_code": "C2VJ+WP \u9999\u6e2f",
        "global_code": "7PJPC2VJ+WP"
      },
      "types": [
        "establishment",
        "point_of_interest"
      ]
    }
  ],
  "licno": "3194802816",
  "timestamp": 1564975666,
  "version": "1564966095"
}
