{
  "adr_en": "\u4e0a\u6d77\u98fd\u5e97, SHOP NO 1, G/F, COMFORT COURT, 2A LUEN CHEONG STREET, FANLING, NEW TERRITORIES",
  "adr_tc": "\u65b0\u754c\u7c89\u5dba \u806f\u660c\u88572\u865fA\u9326\u798f\u5927\u5ec8 \u5730\u4e0b1\u865f\u8216 \u4e0a\u6d77\u98fd\u5e97",
  "geocode_en": [
    {
      "address_components": [
        {
          "long_name": "Shanghai",
          "short_name": "Shanghai",
          "types": [
            "locality",
            "political"
          ]
        },
        {
          "long_name": "Shanghai",
          "short_name": "Shanghai",
          "types": [
            "administrative_area_level_1",
            "political"
          ]
        },
        {
          "long_name": "China",
          "short_name": "CN",
          "types": [
            "country",
            "political"
          ]
        }
      ],
      "formatted_address": "Shanghai, China",
      "geometry": {
        "bounds": {
          "northeast": {
            "lat": 31.8727163,
            "lng": 122.2471487
          },
          "southwest": {
            "lat": 30.6755933,
            "lng": 120.8568044
          }
        },
        "location": {
          "lat": 31.230416,
          "lng": 121.473701
        },
        "location_type": "APPROXIMATE",
        "viewport": {
          "northeast": {
            "lat": 31.6688967,
            "lng": 122.1137989
          },
          "southwest": {
            "lat": 30.7798012,
            "lng": 120.8397067
          }
        }
      },
      "partial_match": true,
      "place_id": "ChIJMzz1sUBwsjURoWTDI5QSlQI",
      "types": [
        "locality",
        "political"
      ]
    },
    {
      "address_components": [
        {
          "long_name": "Comfort Court",
          "short_name": "Comfort Court",
          "types": [
            "premise"
          ]
        },
        {
          "long_name": "65-73",
          "short_name": "65-73",
          "types": [
            "street_number"
          ]
        },
        {
          "long_name": "Luen Wo Road",
          "short_name": "Luen Wo Rd",
          "types": [
            "route"
          ]
        },
        {
          "long_name": "Fanling",
          "short_name": "Fanling",
          "types": [
            "neighborhood",
            "political"
          ]
        },
        {
          "long_name": "New Territories",
          "short_name": "New Territories",
          "types": [
            "administrative_area_level_1",
            "political"
          ]
        },
        {
          "long_name": "Hong Kong",
          "short_name": "HK",
          "types": [
            "country",
            "political"
          ]
        }
      ],
      "formatted_address": "Comfort Court, 65-73 Luen Wo Rd, Fanling, Hong Kong",
      "geometry": {
        "bounds": {
          "northeast": {
            "lat": 22.4991009,
            "lng": 114.143954
          },
          "southwest": {
            "lat": 22.498923,
            "lng": 114.1437751
          }
        },
        "location": {
          "lat": 22.4990197,
          "lng": 114.1438773
        },
        "location_type": "ROOFTOP",
        "viewport": {
          "northeast": {
            "lat": 22.5003609302915,
            "lng": 114.1452135302915
          },
          "southwest": {
            "lat": 22.4976629697085,
            "lng": 114.1425155697085
          }
        }
      },
      "partial_match": true,
      "place_id": "ChIJu_7tiR32AzQRJnsBB0xJe1s",
      "types": [
        "premise"
      ]
    },
    {
      "address_components": [
        {
          "long_name": "2",
          "short_name": "2",
          "types": [
            "street_number"
          ]
        },
        {
          "long_name": "Luen Cheong Street",
          "short_name": "Luen Cheong St",
          "types": [
            "route"
          ]
        },
        {
          "long_name": "Fanling",
          "short_name": "Fanling",
          "types": [
            "neighborhood",
            "political"
          ]
        },
        {
          "long_name": "New Territories",
          "short_name": "New Territories",
          "types": [
            "administrative_area_level_1",
            "political"
          ]
        },
        {
          "long_name": "Hong Kong",
          "short_name": "HK",
          "types": [
            "country",
            "political"
          ]
        }
      ],
      "formatted_address": "2 Luen Cheong St, Fanling, Hong Kong",
      "geometry": {
        "location": {
          "lat": 22.4991235,
          "lng": 114.1436074
        },
        "location_type": "ROOFTOP",
        "viewport": {
          "northeast": {
            "lat": 22.5004724802915,
            "lng": 114.1449563802915
          },
          "southwest": {
            "lat": 22.4977745197085,
            "lng": 114.1422584197085
          }
        }
      },
      "partial_match": true,
      "place_id": "ChIJ4ZkwiR32AzQRMXh3my3gapU",
      "plus_code": {
        "compound_code": "F4XV+JC Hong Kong",
        "global_code": "7PJPF4XV+JC"
      },
      "types": [
        "street_address"
      ]
    }
  ],
  "geocode_tc": [
    {
      "address_components": [
        {
          "long_name": "\u9999\u6e2f",
          "short_name": "HK",
          "types": [
            "country",
            "political"
          ]
        }
      ],
      "formatted_address": "\u9999\u6e2f\u7c89\u5dba\u806f\u548c\u589f\u806f\u660c\u88572\u865fA\u9326\u798f\u5927\u5ec8\u5730\u4e0b6\u865f\u8216",
      "geometry": {
        "location": {
          "lat": 22.498897,
          "lng": 114.1438478
        },
        "location_type": "GEOMETRIC_CENTER",
        "viewport": {
          "northeast": {
            "lat": 22.5002459802915,
            "lng": 114.1451967802915
          },
          "southwest": {
            "lat": 22.4975480197085,
            "lng": 114.1424988197085
          }
        }
      },
      "place_id": "ChIJRfntiR32AzQRJRYyruL9oPY",
      "plus_code": {
        "compound_code": "F4XV+HG \u9999\u6e2f",
        "global_code": "7PJPF4XV+HG"
      },
      "types": [
        "establishment",
        "food",
        "point_of_interest",
        "restaurant"
      ]
    },
    {
      "address_components": [
        {
          "long_name": "\u806f\u660c\u8857",
          "short_name": "\u806f\u660c\u8857",
          "types": [
            "route"
          ]
        },
        {
          "long_name": "Fanling",
          "short_name": "Fanling",
          "types": [
            "neighborhood",
            "political"
          ]
        },
        {
          "long_name": "\u9999\u6e2f",
          "short_name": "HK",
          "types": [
            "country",
            "political"
          ]
        }
      ],
      "formatted_address": "\u9999\u6e2fFanling\u806f\u660c\u88572\u865fshop1",
      "geometry": {
        "location": {
          "lat": 22.4989793,
          "lng": 114.1437486
        },
        "location_type": "GEOMETRIC_CENTER",
        "viewport": {
          "northeast": {
            "lat": 22.5003282802915,
            "lng": 114.1450975802915
          },
          "southwest": {
            "lat": 22.4976303197085,
            "lng": 114.1423996197085
          }
        }
      },
      "place_id": "ChIJ54xCih32AzQRoZTflDY2Peg",
      "plus_code": {
        "compound_code": "F4XV+HF \u9999\u6e2f",
        "global_code": "7PJPF4XV+HF"
      },
      "types": [
        "establishment",
        "food",
        "point_of_interest",
        "store"
      ]
    }
  ],
  "licno": "3196000317",
  "timestamp": 1564975666,
  "version": "1564966095"
}
