{
  "adr_en": "\u58f9\u58f9\u634c, SHOP J, G/F, WING FAT HOUSE, 12-14 MA MIU ROAD, YUEN LONG, NEW TERRITORIES",
  "adr_tc": "\u65b0\u754c\u5143\u6717\u5abd\u5edf\u8def12-14\u865f\u6c38\u767c\u5927\u5ec8\u5730\u4e0bJ\u92ea \u58f9\u58f9\u634c",
  "geocode_en": [
    {
      "address_components": [
        {
          "long_name": "Wing Fat House",
          "short_name": "Wing Fat House",
          "types": [
            "premise"
          ]
        },
        {
          "long_name": "12-42",
          "short_name": "12-42",
          "types": [
            "street_number"
          ]
        },
        {
          "long_name": "Ma Miu Road",
          "short_name": "Ma Miu Rd",
          "types": [
            "route"
          ]
        },
        {
          "long_name": "Yuen Long",
          "short_name": "Yuen Long",
          "types": [
            "neighborhood",
            "political"
          ]
        },
        {
          "long_name": "New Territories",
          "short_name": "New Territories",
          "types": [
            "administrative_area_level_1",
            "political"
          ]
        },
        {
          "long_name": "Hong Kong",
          "short_name": "HK",
          "types": [
            "country",
            "political"
          ]
        }
      ],
      "formatted_address": "Wing Fat House, 12-42 Ma Miu Rd, Yuen Long, Hong Kong",
      "geometry": {
        "bounds": {
          "northeast": {
            "lat": 22.446617,
            "lng": 114.0218009
          },
          "southwest": {
            "lat": 22.446076,
            "lng": 114.021388
          }
        },
        "location": {
          "lat": 22.4464405,
          "lng": 114.0215295
        },
        "location_type": "ROOFTOP",
        "viewport": {
          "northeast": {
            "lat": 22.4476954802915,
            "lng": 114.0229434302915
          },
          "southwest": {
            "lat": 22.4449975197085,
            "lng": 114.0202454697085
          }
        }
      },
      "partial_match": true,
      "place_id": "ChIJZ7xIUZ7wAzQRzjKi12H6U0U",
      "types": [
        "premise"
      ]
    }
  ],
  "geocode_tc": [
    {
      "address_components": [
        {
          "long_name": "\u6c38\u767c\u5927\u6a13",
          "short_name": "\u6c38\u767c\u5927\u6a13",
          "types": [
            "premise"
          ]
        },
        {
          "long_name": "12-42",
          "short_name": "12-42",
          "types": [
            "street_number"
          ]
        },
        {
          "long_name": "\u5abd\u5edf\u8def",
          "short_name": "\u5abd\u5edf\u8def",
          "types": [
            "route"
          ]
        },
        {
          "long_name": "\u5143\u6717",
          "short_name": "\u5143\u6717",
          "types": [
            "neighborhood",
            "political"
          ]
        },
        {
          "long_name": "\u65b0\u754c",
          "short_name": "\u65b0\u754c",
          "types": [
            "administrative_area_level_1",
            "political"
          ]
        },
        {
          "long_name": "\u9999\u6e2f",
          "short_name": "HK",
          "types": [
            "country",
            "political"
          ]
        }
      ],
      "formatted_address": "\u9999\u6e2f\u5143\u6717\u5abd\u5edf\u8def12-42\u865f\u6c38\u767c\u5927\u6a13",
      "geometry": {
        "bounds": {
          "northeast": {
            "lat": 22.446617,
            "lng": 114.0218009
          },
          "southwest": {
            "lat": 22.446076,
            "lng": 114.021388
          }
        },
        "location": {
          "lat": 22.4464405,
          "lng": 114.0215295
        },
        "location_type": "ROOFTOP",
        "viewport": {
          "northeast": {
            "lat": 22.4476954802915,
            "lng": 114.0229434302915
          },
          "southwest": {
            "lat": 22.4449975197085,
            "lng": 114.0202454697085
          }
        }
      },
      "partial_match": true,
      "place_id": "ChIJZ7xIUZ7wAzQRzjKi12H6U0U",
      "types": [
        "premise"
      ]
    }
  ],
  "licno": "3194802108",
  "timestamp": 1564975666,
  "version": "1564966095"
}
