{
  "adr_en": "Tochigi Sushi Bar And Lounge, 23/F, 10 KNUTSFORD TERRACE, TSIM SHA TSUI, KOWLOON",
  "adr_tc": "\u4e5d\u9f8d\u5c16\u6c99\u5480\u8afe\u58eb\u4f5b\u53f010\u865f23\u6a13 \u7afa\u6728\u65e5\u672c\u6599\u7406",
  "geocode_en": [
    {
      "address_components": [
        {
          "long_name": "Tochigi",
          "short_name": "Tochigi",
          "types": [
            "locality",
            "political"
          ]
        },
        {
          "long_name": "Tochigi",
          "short_name": "Tochigi",
          "types": [
            "administrative_area_level_1",
            "political"
          ]
        },
        {
          "long_name": "Japan",
          "short_name": "JP",
          "types": [
            "country",
            "political"
          ]
        }
      ],
      "formatted_address": "Tochigi, Japan",
      "geometry": {
        "bounds": {
          "northeast": {
            "lat": 36.497766,
            "lng": 139.812777
          },
          "southwest": {
            "lat": 36.19755,
            "lng": 139.563803
          }
        },
        "location": {
          "lat": 36.3823772,
          "lng": 139.7341396
        },
        "location_type": "APPROXIMATE",
        "viewport": {
          "northeast": {
            "lat": 36.497766,
            "lng": 139.812777
          },
          "southwest": {
            "lat": 36.19755,
            "lng": 139.563803
          }
        }
      },
      "partial_match": true,
      "place_id": "ChIJl6qxBoE_H2AR3LHlEtw2YSI",
      "types": [
        "locality",
        "political"
      ]
    },
    {
      "address_components": [
        {
          "long_name": "23",
          "short_name": "23",
          "types": [
            "subpremise"
          ]
        },
        {
          "long_name": "Knutsford Court",
          "short_name": "Knutsford Court",
          "types": [
            "premise"
          ]
        },
        {
          "long_name": "10",
          "short_name": "10",
          "types": [
            "street_number"
          ]
        },
        {
          "long_name": "Knutsford Terrace",
          "short_name": "Knutsford Terrace",
          "types": [
            "route"
          ]
        },
        {
          "long_name": "Tsim Sha Tsui",
          "short_name": "Tsim Sha Tsui",
          "types": [
            "neighborhood",
            "political"
          ]
        },
        {
          "long_name": "Kowloon",
          "short_name": "Kowloon",
          "types": [
            "administrative_area_level_1",
            "political"
          ]
        },
        {
          "long_name": "Hong Kong",
          "short_name": "HK",
          "types": [
            "country",
            "political"
          ]
        }
      ],
      "formatted_address": "23, Knutsford Court, 10 Knutsford Terrace, Tsim Sha Tsui, Hong Kong",
      "geometry": {
        "bounds": {
          "northeast": {
            "lat": 22.301437,
            "lng": 114.1740669
          },
          "southwest": {
            "lat": 22.3012741,
            "lng": 114.1739089
          }
        },
        "location": {
          "lat": 22.3013607,
          "lng": 114.1739859
        },
        "location_type": "ROOFTOP",
        "viewport": {
          "northeast": {
            "lat": 22.3027045302915,
            "lng": 114.1753368802915
          },
          "southwest": {
            "lat": 22.3000065697085,
            "lng": 114.1726389197085
          }
        }
      },
      "partial_match": true,
      "place_id": "EkMyMywgS251dHNmb3JkIENvdXJ0LCAxMCBLbnV0c2ZvcmQgVGVycmFjZSwgVHNpbSBTaGEgVHN1aSwgSG9uZyBLb25nIh4aHAoWChQKEglRtvqh7gAENBEeFUeIgVsROhICMjM",
      "types": [
        "subpremise"
      ]
    },
    {
      "address_components": [
        {
          "long_name": "F",
          "short_name": "F",
          "types": [
            "subpremise"
          ]
        },
        {
          "long_name": "Knutsford Court",
          "short_name": "Knutsford Court",
          "types": [
            "premise"
          ]
        },
        {
          "long_name": "10",
          "short_name": "10",
          "types": [
            "street_number"
          ]
        },
        {
          "long_name": "Knutsford Terrace",
          "short_name": "Knutsford Terrace",
          "types": [
            "route"
          ]
        },
        {
          "long_name": "Tsim Sha Tsui",
          "short_name": "Tsim Sha Tsui",
          "types": [
            "neighborhood",
            "political"
          ]
        },
        {
          "long_name": "Kowloon",
          "short_name": "Kowloon",
          "types": [
            "administrative_area_level_1",
            "political"
          ]
        },
        {
          "long_name": "Hong Kong",
          "short_name": "HK",
          "types": [
            "country",
            "political"
          ]
        }
      ],
      "formatted_address": "F, Knutsford Court, 10 Knutsford Terrace, Tsim Sha Tsui, Hong Kong",
      "geometry": {
        "bounds": {
          "northeast": {
            "lat": 22.301437,
            "lng": 114.1740669
          },
          "southwest": {
            "lat": 22.3012741,
            "lng": 114.1739089
          }
        },
        "location": {
          "lat": 22.3013607,
          "lng": 114.1739859
        },
        "location_type": "ROOFTOP",
        "viewport": {
          "northeast": {
            "lat": 22.3027045302915,
            "lng": 114.1753368802915
          },
          "southwest": {
            "lat": 22.3000065697085,
            "lng": 114.1726389197085
          }
        }
      },
      "partial_match": true,
      "place_id": "EkJGLCBLbnV0c2ZvcmQgQ291cnQsIDEwIEtudXRzZm9yZCBUZXJyYWNlLCBUc2ltIFNoYSBUc3VpLCBIb25nIEtvbmciHRobChYKFAoSCVG2-qHuAAQ0ER4VR4iBWxE6EgFG",
      "types": [
        "subpremise"
      ]
    }
  ],
  "geocode_tc": [
    {
      "address_components": [
        {
          "long_name": "\u9999\u6e2f",
          "short_name": "HK",
          "types": [
            "country",
            "political"
          ]
        }
      ],
      "formatted_address": "\u9999\u6e2f\u5c16\u6c99\u5480\u8afe\u58eb\u4f5b\u81fa1\u865f\u5176\u5229\u4e2d\u5fc34\u6a13",
      "geometry": {
        "location": {
          "lat": 22.3012127,
          "lng": 114.1731267
        },
        "location_type": "GEOMETRIC_CENTER",
        "viewport": {
          "northeast": {
            "lat": 22.3025616802915,
            "lng": 114.1744756802915
          },
          "southwest": {
            "lat": 22.2998637197085,
            "lng": 114.1717777197085
          }
        }
      },
      "place_id": "ChIJ-5qjI-wABDQRkMlRIV-SUyk",
      "plus_code": {
        "compound_code": "852F+F7 \u9999\u6e2f",
        "global_code": "7PJP852F+F7"
      },
      "types": [
        "establishment",
        "food",
        "point_of_interest",
        "restaurant"
      ]
    }
  ],
  "licno": "2261816264",
  "timestamp": 1564968756,
  "version": "1564966095"
}
