{
  "adr_en": "Cafe De Coral, SHOP NOS. 7, 8 AND 9 ON GROUND FLOOR, PROSPERITY CENTRE (ALSO KNOWN AS TOWER 1, MAGNET PLACE), NOS. 77-81 CONTAINER PORT ROAD, KWAI CHUNG, NEW TERRITORIES",
  "adr_tc": "\u65b0\u754c\u8475\u6d8c\u8ca8\u6ac3\u78bc\u982d\u8def77-81\u865f\u5927\u9d3b\u8f1d(\u8475\u6d8c)\u4e2d\u5fc3 \u5730\u4e0b7,8\u53ca9\u865f\u92ea \u5927\u5bb6\u6a02",
  "geocode_en": [
    {
      "address_components": [
        {
          "long_name": "Prosperity Centre",
          "short_name": "Prosperity Centre",
          "types": [
            "premise"
          ]
        },
        {
          "long_name": "982",
          "short_name": "982",
          "types": [
            "street_number"
          ]
        },
        {
          "long_name": "Shantung Street",
          "short_name": "Shantung Street",
          "types": [
            "route"
          ]
        },
        {
          "long_name": "Mong Kok",
          "short_name": "Mong Kok",
          "types": [
            "neighborhood",
            "political"
          ]
        },
        {
          "long_name": "Kowloon",
          "short_name": "Kowloon",
          "types": [
            "administrative_area_level_1",
            "political"
          ]
        },
        {
          "long_name": "Hong Kong",
          "short_name": "HK",
          "types": [
            "country",
            "political"
          ]
        }
      ],
      "formatted_address": "Prosperity Centre, 982 Shantung Street, Mong Kok, Hong Kong",
      "geometry": {
        "bounds": {
          "northeast": {
            "lat": 22.317098,
            "lng": 114.167821
          },
          "southwest": {
            "lat": 22.316966,
            "lng": 114.1676659
          }
        },
        "location": {
          "lat": 22.3170161,
          "lng": 114.1677391
        },
        "location_type": "ROOFTOP",
        "viewport": {
          "northeast": {
            "lat": 22.3183809802915,
            "lng": 114.1690924302915
          },
          "southwest": {
            "lat": 22.3156830197085,
            "lng": 114.1663944697085
          }
        }
      },
      "partial_match": true,
      "place_id": "ChIJHepdfccABDQRfpgE_ILDiuw",
      "types": [
        "premise"
      ]
    },
    {
      "address_components": [
        {
          "long_name": "TOWER 1",
          "short_name": "TOWER 1",
          "types": [
            "subpremise"
          ]
        },
        {
          "long_name": "Prosperity Centre",
          "short_name": "Prosperity Centre",
          "types": [
            "premise"
          ]
        },
        {
          "long_name": "77-81",
          "short_name": "77-81",
          "types": [
            "street_number"
          ]
        },
        {
          "long_name": "Container Port Road",
          "short_name": "Container Port Rd",
          "types": [
            "route"
          ]
        },
        {
          "long_name": "Kwai Chung",
          "short_name": "Kwai Chung",
          "types": [
            "neighborhood",
            "political"
          ]
        },
        {
          "long_name": "New Territories",
          "short_name": "New Territories",
          "types": [
            "administrative_area_level_1",
            "political"
          ]
        },
        {
          "long_name": "Hong Kong",
          "short_name": "HK",
          "types": [
            "country",
            "political"
          ]
        }
      ],
      "formatted_address": "TOWER 1, Prosperity Centre, 77-81 Container Port Rd, Kwai Chung, Hong Kong",
      "geometry": {
        "bounds": {
          "northeast": {
            "lat": 22.355499,
            "lng": 114.1259171
          },
          "southwest": {
            "lat": 22.3550139,
            "lng": 114.1253931
          }
        },
        "location": {
          "lat": 22.3552425,
          "lng": 114.1256347
        },
        "location_type": "ROOFTOP",
        "viewport": {
          "northeast": {
            "lat": 22.3566054302915,
            "lng": 114.1270040802915
          },
          "southwest": {
            "lat": 22.3539074697085,
            "lng": 114.1243061197085
          }
        }
      },
      "partial_match": true,
      "place_id": "EkpUT1dFUiAxLCBQcm9zcGVyaXR5IENlbnRyZSwgNzctODEgQ29udGFpbmVyIFBvcnQgUmQsIEt3YWkgQ2h1bmcsIEhvbmcgS29uZyIjGiEKFgoUChIJiQ0UrL74AzQRgMEjGMZfgfQSB1RPV0VSIDE",
      "types": [
        "subpremise"
      ]
    },
    {
      "address_components": [
        {
          "long_name": "81",
          "short_name": "81",
          "types": [
            "street_number"
          ]
        },
        {
          "long_name": "Container Port Road",
          "short_name": "Container Port Rd",
          "types": [
            "route"
          ]
        },
        {
          "long_name": "Kwai Chung",
          "short_name": "Kwai Chung",
          "types": [
            "neighborhood",
            "political"
          ]
        },
        {
          "long_name": "New Territories",
          "short_name": "New Territories",
          "types": [
            "administrative_area_level_1",
            "political"
          ]
        },
        {
          "long_name": "Hong Kong",
          "short_name": "HK",
          "types": [
            "country",
            "political"
          ]
        }
      ],
      "formatted_address": "81 Container Port Rd, Kwai Chung, Hong Kong",
      "geometry": {
        "location": {
          "lat": 22.35524,
          "lng": 114.1256268
        },
        "location_type": "ROOFTOP",
        "viewport": {
          "northeast": {
            "lat": 22.3565889802915,
            "lng": 114.1269757802915
          },
          "southwest": {
            "lat": 22.3538910197085,
            "lng": 114.1242778197085
          }
        }
      },
      "partial_match": true,
      "place_id": "ChIJocHyRbX5AzQR60GqENRCeD8",
      "plus_code": {
        "compound_code": "944G+37 Hong Kong",
        "global_code": "7PJP944G+37"
      },
      "types": [
        "establishment",
        "point_of_interest",
        "shopping_mall"
      ]
    }
  ],
  "geocode_tc": [
    {
      "address_components": [
        {
          "long_name": "\u865f\u92ea",
          "short_name": "\u865f\u92ea",
          "types": [
            "subpremise"
          ]
        },
        {
          "long_name": "\u5927\u9d3b\u8f1d(\u8475\u6d8c)\u4e2d\u5fc3",
          "short_name": "\u5927\u9d3b\u8f1d(\u8475\u6d8c)\u4e2d\u5fc3",
          "types": [
            "premise"
          ]
        },
        {
          "long_name": "77-81",
          "short_name": "77-81",
          "types": [
            "street_number"
          ]
        },
        {
          "long_name": "\u8ca8\u6ac3\u78bc\u982d\u8def",
          "short_name": "\u8ca8\u6ac3\u78bc\u982d\u8def",
          "types": [
            "route"
          ]
        },
        {
          "long_name": "\u8475\u6d8c",
          "short_name": "\u8475\u6d8c",
          "types": [
            "neighborhood",
            "political"
          ]
        },
        {
          "long_name": "\u65b0\u754c",
          "short_name": "\u65b0\u754c",
          "types": [
            "administrative_area_level_1",
            "political"
          ]
        },
        {
          "long_name": "\u9999\u6e2f",
          "short_name": "HK",
          "types": [
            "country",
            "political"
          ]
        }
      ],
      "formatted_address": "\u9999\u6e2f\u8475\u6d8c\u8ca8\u6ac3\u78bc\u982d\u8def77-81\u865f\u5927\u9d3b\u8f1d(\u8475\u6d8c)\u4e2d\u5fc3\u865f\u92ea",
      "geometry": {
        "bounds": {
          "northeast": {
            "lat": 22.355499,
            "lng": 114.1259171
          },
          "southwest": {
            "lat": 22.3550139,
            "lng": 114.1253931
          }
        },
        "location": {
          "lat": 22.3552425,
          "lng": 114.1256347
        },
        "location_type": "ROOFTOP",
        "viewport": {
          "northeast": {
            "lat": 22.3566054302915,
            "lng": 114.1270040802915
          },
          "southwest": {
            "lat": 22.3539074697085,
            "lng": 114.1243061197085
          }
        }
      },
      "partial_match": true,
      "place_id": "EknomZ_pi6osIFByb3NwZXJpdHkgQ2VudHJlLCA3Ny04MSBDb250YWluZXIgUG9ydCBSZCwgS3dhaSBDaHVuZywgSG9uZyBLb25nIiIaIAoWChQKEgmJDRSsvvgDNBGAwSMYxl-B9BIG6Jmf6Yuq",
      "types": [
        "subpremise"
      ]
    },
    {
      "address_components": [
        {
          "long_name": "\u5927\u9d3b\u8f1d(\u8475\u6d8c)\u4e2d\u5fc3",
          "short_name": "\u5927\u9d3b\u8f1d(\u8475\u6d8c)\u4e2d\u5fc3",
          "types": [
            "premise"
          ]
        },
        {
          "long_name": "77-81",
          "short_name": "77-81",
          "types": [
            "street_number"
          ]
        },
        {
          "long_name": "\u8ca8\u6ac3\u78bc\u982d\u8def",
          "short_name": "\u8ca8\u6ac3\u78bc\u982d\u8def",
          "types": [
            "route"
          ]
        },
        {
          "long_name": "\u8475\u6d8c",
          "short_name": "\u8475\u6d8c",
          "types": [
            "neighborhood",
            "political"
          ]
        },
        {
          "long_name": "\u65b0\u754c",
          "short_name": "\u65b0\u754c",
          "types": [
            "administrative_area_level_1",
            "political"
          ]
        },
        {
          "long_name": "\u9999\u6e2f",
          "short_name": "HK",
          "types": [
            "country",
            "political"
          ]
        }
      ],
      "formatted_address": "\u9999\u6e2f\u8475\u6d8c\u8ca8\u6ac3\u78bc\u982d\u8def77-81\u865f\u5927\u9d3b\u8f1d(\u8475\u6d8c)\u4e2d\u5fc3",
      "geometry": {
        "bounds": {
          "northeast": {
            "lat": 22.355499,
            "lng": 114.1259171
          },
          "southwest": {
            "lat": 22.3550139,
            "lng": 114.1253931
          }
        },
        "location": {
          "lat": 22.3552425,
          "lng": 114.1256347
        },
        "location_type": "ROOFTOP",
        "viewport": {
          "northeast": {
            "lat": 22.3566054302915,
            "lng": 114.1270040802915
          },
          "southwest": {
            "lat": 22.3539074697085,
            "lng": 114.1243061197085
          }
        }
      },
      "partial_match": true,
      "place_id": "ChIJiQ0UrL74AzQRgMEjGMZfgfQ",
      "types": [
        "premise"
      ]
    }
  ],
  "licno": "3891803912",
  "timestamp": 1564975666,
  "version": "1564966095"
}
