{
  "adr_en": "Lion Rock Caf\u00e9, 1/F. (PORTION), HEADLAND HOTEL, H.K. INT'L AIRPORT, 8 SCENIC ROAD, CHEK LAP KOK, LANTAU ISLAND, NEW TERRITORIES",
  "adr_tc": "\u5927\u5dbc\u5c71\u8d64\u9c72\u89d2\u9999\u6e2f\u570b\u969b\u6a5f\u5834\u89c0\u666f\u8def8\u865f \u9038\u6cf0\u5c45\u9152\u5e971\u6a13(\u90e8\u5206) Lion Rock Caf\u00e9",
  "geocode_en": [
    {
      "address_components": [
        {
          "long_name": "Hong Kong",
          "short_name": "HK",
          "types": [
            "country",
            "political"
          ]
        }
      ],
      "formatted_address": "Hong Kong, \u5927\u5dbc\u5c71\u8d64\u9c72\u89d2\u9999\u6e2f\u570b\u969b\u6a5f\u5834\u89c0\u666f\u8def8\u865f \u9038\u6cf0\u5c45\u9152\u5e971\u6a13(\u90e8\u5206)",
      "geometry": {
        "location": {
          "lat": 22.29718,
          "lng": 113.9343223
        },
        "location_type": "GEOMETRIC_CENTER",
        "viewport": {
          "northeast": {
            "lat": 22.2985289802915,
            "lng": 113.9356712802915
          },
          "southwest": {
            "lat": 22.29583101970849,
            "lng": 113.9329733197085
          }
        }
      },
      "partial_match": true,
      "place_id": "ChIJzYmK677iAzQRYlq30O8SqiQ",
      "plus_code": {
        "compound_code": "7WWM+VP Hong Kong",
        "global_code": "7PJM7WWM+VP"
      },
      "types": [
        "establishment",
        "food",
        "point_of_interest",
        "restaurant"
      ]
    },
    {
      "address_components": [
        {
          "long_name": "Hong Kong",
          "short_name": "HK",
          "types": [
            "country",
            "political"
          ]
        }
      ],
      "formatted_address": "Hong Kong, \u570b\u6cf0\u57ce",
      "geometry": {
        "location": {
          "lat": 22.2972929,
          "lng": 113.9338643
        },
        "location_type": "GEOMETRIC_CENTER",
        "viewport": {
          "northeast": {
            "lat": 22.2986418802915,
            "lng": 113.9352132802915
          },
          "southwest": {
            "lat": 22.2959439197085,
            "lng": 113.9325153197085
          }
        }
      },
      "partial_match": true,
      "place_id": "ChIJc74V577iAzQRCA6HUce09ok",
      "plus_code": {
        "compound_code": "7WWM+WG Hong Kong",
        "global_code": "7PJM7WWM+WG"
      },
      "types": [
        "establishment",
        "lodging",
        "point_of_interest"
      ]
    },
    {
      "address_components": [
        {
          "long_name": "Cathay Pacific City",
          "short_name": "Cathay Pacific City",
          "types": [
            "premise"
          ]
        },
        {
          "long_name": "8",
          "short_name": "8",
          "types": [
            "street_number"
          ]
        },
        {
          "long_name": "Scenic Road",
          "short_name": "Scenic Rd",
          "types": [
            "route"
          ]
        },
        {
          "long_name": "Chek Lap Kok",
          "short_name": "Chek Lap Kok",
          "types": [
            "neighborhood",
            "political"
          ]
        },
        {
          "long_name": "New Territories",
          "short_name": "New Territories",
          "types": [
            "administrative_area_level_1",
            "political"
          ]
        },
        {
          "long_name": "Hong Kong",
          "short_name": "HK",
          "types": [
            "country",
            "political"
          ]
        }
      ],
      "formatted_address": "Cathay Pacific City, 8 Scenic Rd, Chek Lap Kok, Hong Kong",
      "geometry": {
        "bounds": {
          "northeast": {
            "lat": 22.2991233,
            "lng": 113.9347226
          },
          "southwest": {
            "lat": 22.2969818,
            "lng": 113.9335745
          }
        },
        "location": {
          "lat": 22.2982149,
          "lng": 113.9341451
        },
        "location_type": "ROOFTOP",
        "viewport": {
          "northeast": {
            "lat": 22.2994015302915,
            "lng": 113.9354975302915
          },
          "southwest": {
            "lat": 22.29670356970849,
            "lng": 113.9327995697085
          }
        }
      },
      "partial_match": true,
      "place_id": "ChIJPyAt577iAzQRsPvVZ6iKVo4",
      "types": [
        "premise"
      ]
    }
  ],
  "geocode_tc": [
    {
      "address_components": [
        {
          "long_name": "\u9999\u6e2f",
          "short_name": "HK",
          "types": [
            "country",
            "political"
          ]
        }
      ],
      "formatted_address": "\u9999\u6e2f\u5927\u5dbc\u5c71\u8d64\u9c72\u89d2\u9999\u6e2f\u570b\u969b\u6a5f\u5834\u89c0\u666f\u8def8\u865f \u9038\u6cf0\u5c45\u9152\u5e971\u6a13(\u90e8\u5206)",
      "geometry": {
        "location": {
          "lat": 22.29718,
          "lng": 113.9343223
        },
        "location_type": "GEOMETRIC_CENTER",
        "viewport": {
          "northeast": {
            "lat": 22.2985289802915,
            "lng": 113.9356712802915
          },
          "southwest": {
            "lat": 22.29583101970849,
            "lng": 113.9329733197085
          }
        }
      },
      "place_id": "ChIJzYmK677iAzQRYlq30O8SqiQ",
      "plus_code": {
        "compound_code": "7WWM+VP \u9999\u6e2f",
        "global_code": "7PJM7WWM+VP"
      },
      "types": [
        "establishment",
        "food",
        "point_of_interest",
        "restaurant"
      ]
    }
  ],
  "licno": "2217000075",
  "timestamp": 1564968756,
  "version": "1564966095"
}
