{
  "adr_en": "Peach Garden Seafood Restaurant, DD 10, LOT 583, SOK KWU WAN, LAMMA ISLAND, NEW TERRITORIES",
  "adr_tc": "\u5357\u4e2b\u5cf6\u7d22\u7f5f\u7063583\u5730\u6bb510\u7d04 \u6843\u6e90\u6d77\u9bae\u9152\u5bb6",
  "geocode_en": [
    {
      "address_components": [
        {
          "long_name": "Hong Kong",
          "short_name": "HK",
          "types": [
            "country",
            "political"
          ]
        }
      ],
      "formatted_address": "G/F, DD10, Lot 583 Sok Kwu Wan,, Lamma Island, Hong Kong",
      "geometry": {
        "location": {
          "lat": 22.2054838,
          "lng": 114.1313262
        },
        "location_type": "GEOMETRIC_CENTER",
        "viewport": {
          "northeast": {
            "lat": 22.2068327802915,
            "lng": 114.1326751802915
          },
          "southwest": {
            "lat": 22.2041348197085,
            "lng": 114.1299772197085
          }
        }
      },
      "place_id": "ChIJs_DpDNhUATQRT2GGspn6qm8",
      "plus_code": {
        "compound_code": "644J+5G Hong Kong",
        "global_code": "7PJP644J+5G"
      },
      "types": [
        "establishment",
        "food",
        "point_of_interest",
        "restaurant"
      ]
    }
  ],
  "geocode_tc": [
    {
      "address_components": [
        {
          "long_name": "\u9999\u6e2f",
          "short_name": "HK",
          "types": [
            "country",
            "political"
          ]
        }
      ],
      "formatted_address": "\u9999\u6e2f\u5357\u4e2b\u5cf6\u7d22\u7f5f\u7063\u7b2c10\u7d04\u5730\u6bb5583\u865f\u5730\u4e0b(\u6cbf\u78bc\u982d\u5de6\u9762\u4e0a)",
      "geometry": {
        "location": {
          "lat": 22.2054248,
          "lng": 114.1313052
        },
        "location_type": "GEOMETRIC_CENTER",
        "viewport": {
          "northeast": {
            "lat": 22.2067737802915,
            "lng": 114.1326541802915
          },
          "southwest": {
            "lat": 22.2040758197085,
            "lng": 114.1299562197085
          }
        }
      },
      "place_id": "ChIJs_DpDNhUATQRpkNG50m8cqY",
      "plus_code": {
        "compound_code": "644J+5G \u9999\u6e2f",
        "global_code": "7PJP644J+5G"
      },
      "types": [
        "establishment",
        "food",
        "point_of_interest",
        "restaurant"
      ]
    }
  ],
  "licno": "2217000330",
  "timestamp": 1564968756,
  "version": "1564966095"
}
