{
  "adr_en": "BB\u958b\u5fc3\u68e7, G/F AND OPEN SPACE AT REAR OF 60, LUNG MEI VILLAGE, TING KOK ROAD, TAI PO, NEW TERRITORIES",
  "adr_tc": "\u65b0\u754c\u5927\u57d4\u6c40\u89d2\u8def\u9f8d\u5c3e\u6751\u5730\u4e0b\u53ca60\u865f\u5f8c\u9762\u7a7a\u5730 BB\u958b\u5fc3\u68e7",
  "geocode_en": [
    {
      "address_components": [
        {
          "long_name": "Hong Kong",
          "short_name": "HK",
          "types": [
            "country",
            "political"
          ]
        }
      ],
      "formatted_address": "Hong Kong, \u5927\u57d4\u5927\u7f8e\u7763\u9f8d\u5c3e\u675160\u865f",
      "geometry": {
        "location": {
          "lat": 22.472703,
          "lng": 114.2302588
        },
        "location_type": "GEOMETRIC_CENTER",
        "viewport": {
          "northeast": {
            "lat": 22.4740519802915,
            "lng": 114.2316077802915
          },
          "southwest": {
            "lat": 22.4713540197085,
            "lng": 114.2289098197085
          }
        }
      },
      "partial_match": true,
      "place_id": "ChIJrf-hxDYJBDQRkIU9pQhkL-0",
      "plus_code": {
        "compound_code": "F6FJ+34 Hong Kong",
        "global_code": "7PJPF6FJ+34"
      },
      "types": [
        "establishment",
        "food",
        "point_of_interest",
        "restaurant"
      ]
    },
    {
      "address_components": [
        {
          "long_name": "52",
          "short_name": "52",
          "types": [
            "street_number"
          ]
        },
        {
          "long_name": "Ting Kok Road",
          "short_name": "Ting Kok Rd",
          "types": [
            "route"
          ]
        },
        {
          "long_name": "Tai Po",
          "short_name": "Tai Po",
          "types": [
            "neighborhood",
            "political"
          ]
        },
        {
          "long_name": "New Territories",
          "short_name": "New Territories",
          "types": [
            "administrative_area_level_1",
            "political"
          ]
        },
        {
          "long_name": "Hong Kong",
          "short_name": "HK",
          "types": [
            "country",
            "political"
          ]
        }
      ],
      "formatted_address": "52 Ting Kok Rd, Tai Po, Hong Kong",
      "geometry": {
        "location": {
          "lat": 22.4736616,
          "lng": 114.2311373
        },
        "location_type": "ROOFTOP",
        "viewport": {
          "northeast": {
            "lat": 22.4750105802915,
            "lng": 114.2324862802915
          },
          "southwest": {
            "lat": 22.4723126197085,
            "lng": 114.2297883197085
          }
        }
      },
      "partial_match": true,
      "place_id": "ChIJG5_D6TYJBDQRtumooVjEArk",
      "plus_code": {
        "compound_code": "F6FJ+FF Hong Kong",
        "global_code": "7PJPF6FJ+FF"
      },
      "types": [
        "establishment",
        "point_of_interest"
      ]
    }
  ],
  "geocode_tc": [
    {
      "address_components": [
        {
          "long_name": "\u9999\u6e2f",
          "short_name": "HK",
          "types": [
            "country",
            "political"
          ]
        }
      ],
      "formatted_address": "\u9999\u6e2f\u5927\u57d4\u5927\u7f8e\u7763\u9f8d\u5c3e\u675160\u865f",
      "geometry": {
        "location": {
          "lat": 22.472703,
          "lng": 114.2302588
        },
        "location_type": "GEOMETRIC_CENTER",
        "viewport": {
          "northeast": {
            "lat": 22.4740519802915,
            "lng": 114.2316077802915
          },
          "southwest": {
            "lat": 22.4713540197085,
            "lng": 114.2289098197085
          }
        }
      },
      "place_id": "ChIJrf-hxDYJBDQRkIU9pQhkL-0",
      "plus_code": {
        "compound_code": "F6FJ+34 \u9999\u6e2f",
        "global_code": "7PJPF6FJ+34"
      },
      "types": [
        "establishment",
        "food",
        "point_of_interest",
        "restaurant"
      ]
    }
  ],
  "licno": "2295000172",
  "timestamp": 1564975666,
  "version": "1564966095"
}
