{
  "adr_en": "SHUN NING RESTAURANT, SHOP D, G/F, SUNNING COURT, NO. 29-39 SHUN NING ROAD, SHAM SHUI PO, KOWLOON",
  "adr_tc": "\u4e5d\u9f8d\u6df1\u6c34\u57d7\u9806\u5be7\u905329-39\u865f\u65b0\u5be7\u95a3\u5730\u4e0bD\u92ea \u9806\u5be7\u5c0f\u9928",
  "geocode_en": [
    {
      "address_components": [
        {
          "long_name": "Sunning Court",
          "short_name": "Sunning Court",
          "types": [
            "premise"
          ]
        },
        {
          "long_name": "29-39",
          "short_name": "29-39",
          "types": [
            "street_number"
          ]
        },
        {
          "long_name": "Shun Ning Road",
          "short_name": "Shun Ning Rd",
          "types": [
            "route"
          ]
        },
        {
          "long_name": "Lei Cheng Uk",
          "short_name": "Lei Cheng Uk",
          "types": [
            "neighborhood",
            "political"
          ]
        },
        {
          "long_name": "Kowloon",
          "short_name": "Kowloon",
          "types": [
            "administrative_area_level_1",
            "political"
          ]
        },
        {
          "long_name": "Hong Kong",
          "short_name": "HK",
          "types": [
            "country",
            "political"
          ]
        }
      ],
      "formatted_address": "Sunning Court, 29-39 Shun Ning Rd, Lei Cheng Uk, Hong Kong",
      "geometry": {
        "bounds": {
          "northeast": {
            "lat": 22.33571,
            "lng": 114.16089
          },
          "southwest": {
            "lat": 22.335433,
            "lng": 114.160618
          }
        },
        "location": {
          "lat": 22.3355618,
          "lng": 114.1607259
        },
        "location_type": "ROOFTOP",
        "viewport": {
          "northeast": {
            "lat": 22.3369204802915,
            "lng": 114.1621029802915
          },
          "southwest": {
            "lat": 22.3342225197085,
            "lng": 114.1594050197085
          }
        }
      },
      "partial_match": true,
      "place_id": "ChIJG8NqYkwHBDQRfMqFn0G914I",
      "types": [
        "premise"
      ]
    }
  ],
  "geocode_tc": [
    {
      "address_components": [
        {
          "long_name": "29",
          "short_name": "29",
          "types": [
            "street_number"
          ]
        },
        {
          "long_name": "\u9806\u5be7\u9053",
          "short_name": "\u9806\u5be7\u9053",
          "types": [
            "route"
          ]
        },
        {
          "long_name": "\u674e\u912d\u5c4b",
          "short_name": "\u674e\u912d\u5c4b",
          "types": [
            "neighborhood",
            "political"
          ]
        },
        {
          "long_name": "\u9999\u6e2f",
          "short_name": "HK",
          "types": [
            "country",
            "political"
          ]
        }
      ],
      "formatted_address": "\u9999\u6e2f\u674e\u912d\u5c4b\u9806\u5be7\u905329\u865f\u865f",
      "geometry": {
        "location": {
          "lat": 22.3356252,
          "lng": 114.1607963
        },
        "location_type": "ROOFTOP",
        "viewport": {
          "northeast": {
            "lat": 22.3369741802915,
            "lng": 114.1621452802915
          },
          "southwest": {
            "lat": 22.3342762197085,
            "lng": 114.1594473197085
          }
        }
      },
      "place_id": "ChIJCSlQYkwHBDQRFwHgdaI6VzY",
      "plus_code": {
        "compound_code": "85P6+78 \u9999\u6e2f",
        "global_code": "7PJP85P6+78"
      },
      "types": [
        "establishment",
        "food",
        "point_of_interest",
        "restaurant"
      ]
    },
    {
      "address_components": [
        {
          "long_name": "\u9999\u6e2f",
          "short_name": "HK",
          "types": [
            "country",
            "political"
          ]
        }
      ],
      "formatted_address": "\u9999\u6e2f\u9806\u5be7\u9053 29 - 39 \u865f\u65b0\u5be7\u95a3 \u5730\u4e0b A - C\u8216",
      "geometry": {
        "location": {
          "lat": 22.335557,
          "lng": 114.160735
        },
        "location_type": "GEOMETRIC_CENTER",
        "viewport": {
          "northeast": {
            "lat": 22.3369059802915,
            "lng": 114.1620839802915
          },
          "southwest": {
            "lat": 22.3342080197085,
            "lng": 114.1593860197085
          }
        }
      },
      "place_id": "ChIJ9ZoTYkwHBDQR_kgSBO5mq10",
      "plus_code": {
        "compound_code": "85P6+67 \u9999\u6e2f",
        "global_code": "7PJP85P6+67"
      },
      "types": [
        "establishment",
        "food",
        "point_of_interest",
        "restaurant"
      ]
    }
  ],
  "licno": "2263803921",
  "timestamp": 1564968756,
  "version": "1564966095"
}
