{
  "adr_en": "PENANG, SHOP 109B, 1/F., HING WAH SHOPPING CENTRE, 11 WAN TSUI ROAD, CHAI WAN, HONG KONG",
  "adr_tc": "\u9999\u6e2f\u67f4\u7063\u74b0\u7fe0\u905311\u865f\u8208\u83ef\u5546\u58341\u6a13109B\u8216 \u6ab3\u57ce",
  "geocode_en": [
    {
      "address_components": [
        {
          "long_name": "George Town",
          "short_name": "George Town",
          "types": [
            "locality",
            "political"
          ]
        },
        {
          "long_name": "Penang",
          "short_name": "Penang",
          "types": [
            "administrative_area_level_1",
            "political"
          ]
        },
        {
          "long_name": "Malaysia",
          "short_name": "MY",
          "types": [
            "country",
            "political"
          ]
        }
      ],
      "formatted_address": "George Town, Penang, Malaysia",
      "geometry": {
        "bounds": {
          "northeast": {
            "lat": 5.4520208,
            "lng": 100.3222922
          },
          "southwest": {
            "lat": 5.359739,
            "lng": 100.272712
          }
        },
        "location": {
          "lat": 5.4356367,
          "lng": 100.3091
        },
        "location_type": "APPROXIMATE",
        "viewport": {
          "northeast": {
            "lat": 5.4520208,
            "lng": 100.3222922
          },
          "southwest": {
            "lat": 5.359739,
            "lng": 100.272712
          }
        }
      },
      "partial_match": true,
      "place_id": "ChIJ1XsrrZfDSjARNLmpeFnkmiM",
      "types": [
        "locality",
        "political"
      ]
    },
    {
      "address_components": [
        {
          "long_name": "11",
          "short_name": "11",
          "types": [
            "street_number"
          ]
        },
        {
          "long_name": "Wan Tsui Road",
          "short_name": "Wan Tsui Rd",
          "types": [
            "route"
          ]
        },
        {
          "long_name": "Chai Wan",
          "short_name": "Chai Wan",
          "types": [
            "neighborhood",
            "political"
          ]
        },
        {
          "long_name": "Hong Kong Island",
          "short_name": "Hong Kong Island",
          "types": [
            "administrative_area_level_1",
            "political"
          ]
        },
        {
          "long_name": "Hong Kong",
          "short_name": "HK",
          "types": [
            "country",
            "political"
          ]
        }
      ],
      "formatted_address": "11 Wan Tsui Rd, Chai Wan, Hong Kong",
      "geometry": {
        "location": {
          "lat": 22.2628843,
          "lng": 114.2354888
        },
        "location_type": "ROOFTOP",
        "viewport": {
          "northeast": {
            "lat": 22.2642332802915,
            "lng": 114.2368377802915
          },
          "southwest": {
            "lat": 22.2615353197085,
            "lng": 114.2341398197085
          }
        }
      },
      "partial_match": true,
      "place_id": "ChIJb0lu-YgBBDQR4-9X0u2rjME",
      "plus_code": {
        "compound_code": "767P+55 Hong Kong",
        "global_code": "7PJP767P+55"
      },
      "types": [
        "establishment",
        "point_of_interest",
        "shopping_mall"
      ]
    }
  ],
  "geocode_tc": [
    {
      "address_components": [
        {
          "long_name": "11",
          "short_name": "11",
          "types": [
            "street_number"
          ]
        },
        {
          "long_name": "\u74b0\u7fe0\u9053",
          "short_name": "\u74b0\u7fe0\u9053",
          "types": [
            "route"
          ]
        },
        {
          "long_name": "\u67f4\u7063",
          "short_name": "\u67f4\u7063",
          "types": [
            "neighborhood",
            "political"
          ]
        },
        {
          "long_name": "\u9999\u6e2f\u5cf6",
          "short_name": "\u9999\u6e2f\u5cf6",
          "types": [
            "administrative_area_level_1",
            "political"
          ]
        },
        {
          "long_name": "\u9999\u6e2f",
          "short_name": "HK",
          "types": [
            "country",
            "political"
          ]
        }
      ],
      "formatted_address": "\u9999\u6e2f\u67f4\u7063\u74b0\u7fe0\u905311\u865f",
      "geometry": {
        "location": {
          "lat": 22.2628843,
          "lng": 114.2354888
        },
        "location_type": "ROOFTOP",
        "viewport": {
          "northeast": {
            "lat": 22.2642332802915,
            "lng": 114.2368377802915
          },
          "southwest": {
            "lat": 22.2615353197085,
            "lng": 114.2341398197085
          }
        }
      },
      "place_id": "ChIJb0lu-YgBBDQR4-9X0u2rjME",
      "plus_code": {
        "compound_code": "767P+55 \u9999\u6e2f",
        "global_code": "7PJP767P+55"
      },
      "types": [
        "establishment",
        "point_of_interest",
        "shopping_mall"
      ]
    }
  ],
  "licno": "2211803047",
  "timestamp": 1564966180,
  "version": "1564966095"
}
