{
  "adr_en": "Karena Bar, 12/F, THE WAVE, 184 NATHAN ROAD, TSIM SHA TSUI, KOWLOON",
  "adr_tc": "\u4e5d\u9f8d\u5c16\u6c99\u5480\u5f4c\u6566\u9053184\u865f12\u5b57\u6a13 Karena Bar",
  "geocode_en": [
    {
      "address_components": [
        {
          "long_name": "Hong Kong",
          "short_name": "HK",
          "types": [
            "country",
            "political"
          ]
        }
      ],
      "formatted_address": "Hong Kong, \u4e5d\u9f8d\u5f4c\u6566\u9053184\u865fThe Wave building 12\u6a13",
      "geometry": {
        "location": {
          "lat": 22.302966,
          "lng": 114.172181
        },
        "location_type": "GEOMETRIC_CENTER",
        "viewport": {
          "northeast": {
            "lat": 22.3043149802915,
            "lng": 114.1735299802915
          },
          "southwest": {
            "lat": 22.30161701970849,
            "lng": 114.1708320197085
          }
        }
      },
      "partial_match": true,
      "place_id": "ChIJB-esCuwABDQRDXmObPqLyUk",
      "plus_code": {
        "compound_code": "853C+5V Hong Kong",
        "global_code": "7PJP853C+5V"
      },
      "types": [
        "establishment",
        "point_of_interest"
      ]
    },
    {
      "address_components": [
        {
          "long_name": "184",
          "short_name": "184",
          "types": [
            "street_number"
          ]
        },
        {
          "long_name": "Nathan Road",
          "short_name": "Nathan Rd",
          "types": [
            "route"
          ]
        },
        {
          "long_name": "Tsim Sha Tsui",
          "short_name": "Tsim Sha Tsui",
          "types": [
            "neighborhood",
            "political"
          ]
        },
        {
          "long_name": "Kowloon",
          "short_name": "Kowloon",
          "types": [
            "administrative_area_level_1",
            "political"
          ]
        },
        {
          "long_name": "Hong Kong",
          "short_name": "HK",
          "types": [
            "country",
            "political"
          ]
        }
      ],
      "formatted_address": "184 Nathan Rd, Tsim Sha Tsui, Hong Kong",
      "geometry": {
        "bounds": {
          "northeast": {
            "lat": 22.30308,
            "lng": 114.172215
          },
          "southwest": {
            "lat": 22.3029681,
            "lng": 114.171902
          }
        },
        "location": {
          "lat": 22.3030378,
          "lng": 114.1720585
        },
        "location_type": "ROOFTOP",
        "viewport": {
          "northeast": {
            "lat": 22.3043730302915,
            "lng": 114.1734074802915
          },
          "southwest": {
            "lat": 22.3016750697085,
            "lng": 114.1707095197085
          }
        }
      },
      "partial_match": true,
      "place_id": "ChIJ_XeeiusABDQRSLVxAKWCcvo",
      "types": [
        "premise"
      ]
    }
  ],
  "geocode_tc": [
    {
      "address_components": [
        {
          "long_name": "12\u5c64",
          "short_name": "12\u5c64",
          "types": [
            "subpremise"
          ]
        },
        {
          "long_name": "184\u865f",
          "short_name": "184\u865f",
          "types": [
            "street_number"
          ]
        },
        {
          "long_name": "\u5f4c\u6566\u8def",
          "short_name": "\u5f4c\u6566\u8def",
          "types": [
            "route"
          ]
        },
        {
          "long_name": "\u5c16\u6c99\u5480",
          "short_name": "\u5c16\u6c99\u5480",
          "types": [
            "neighborhood",
            "political"
          ]
        },
        {
          "long_name": "\u4e5d\u9f8d",
          "short_name": "\u4e5d\u9f8d",
          "types": [
            "administrative_area_level_1",
            "political"
          ]
        },
        {
          "long_name": "\u9999\u6e2f",
          "short_name": "HK",
          "types": [
            "country",
            "political"
          ]
        }
      ],
      "formatted_address": "\u9999\u6e2f\u5c16\u6c99\u5480\u5f4c\u6566\u8def184\u865f12\u5c64",
      "geometry": {
        "location": {
          "lat": 22.3030004,
          "lng": 114.1719631
        },
        "location_type": "ROOFTOP",
        "viewport": {
          "northeast": {
            "lat": 22.3043493802915,
            "lng": 114.1733120802915
          },
          "southwest": {
            "lat": 22.3016514197085,
            "lng": 114.1706141197085
          }
        }
      },
      "place_id": "ChIJe3hvdewABDQRoPw5C-_J9sw",
      "plus_code": {
        "compound_code": "853C+6Q \u9999\u6e2f",
        "global_code": "7PJP853C+6Q"
      },
      "types": [
        "bar",
        "establishment",
        "point_of_interest"
      ]
    }
  ],
  "licno": "3161800962",
  "timestamp": 1564975666,
  "version": "1564966095"
}
