{
  "adr_en": "DONDONYA, SHOP G2 & G2A, G/F, SITE 11, WHAMPOA GARDEN, HUNG HOM, KOWLOON CITY, KOWLOON",
  "adr_tc": "\u4e5d\u9f8d\u4e5d\u9f8d\u57ce\u7d05\u78e1\u9ec3\u57d4\u82b1\u5712\u7b2c11\u671f\u5730\u4e0bG2 & G2A\u865f\u92ea \u4e3c\u4e3c\u5c4b",
  "geocode_en": [
    {
      "address_components": [
        {
          "long_name": "Hong Kong",
          "short_name": "HK",
          "types": [
            "country",
            "political"
          ]
        }
      ],
      "formatted_address": "Hong Kong, \u9ec3\u57d4\u82b1\u5712\u7b2c11\u671f\u805a\u5bf6\u574a\u5730\u9762G2\u865f\u8216",
      "geometry": {
        "location": {
          "lat": 22.3054784,
          "lng": 114.1904847
        },
        "location_type": "GEOMETRIC_CENTER",
        "viewport": {
          "northeast": {
            "lat": 22.3068273802915,
            "lng": 114.1918336802915
          },
          "southwest": {
            "lat": 22.3041294197085,
            "lng": 114.1891357197085
          }
        }
      },
      "partial_match": true,
      "place_id": "ChIJS3UNCeAABDQRl42e0ykM6G8",
      "plus_code": {
        "compound_code": "854R+55 Hong Kong",
        "global_code": "7PJP854R+55"
      },
      "types": [
        "establishment",
        "food",
        "point_of_interest",
        "restaurant"
      ]
    },
    {
      "address_components": [
        {
          "long_name": "G/F, SITE",
          "short_name": "G/F, SITE",
          "types": [
            "subpremise"
          ]
        },
        {
          "long_name": "11",
          "short_name": "11",
          "types": [
            "street_number"
          ]
        },
        {
          "long_name": "Whampoa Street",
          "short_name": "Whampoa St",
          "types": [
            "route"
          ]
        },
        {
          "long_name": "Hung Hom",
          "short_name": "Hung Hom",
          "types": [
            "neighborhood",
            "political"
          ]
        },
        {
          "long_name": "Kowloon",
          "short_name": "Kowloon",
          "types": [
            "administrative_area_level_1",
            "political"
          ]
        },
        {
          "long_name": "Hong Kong",
          "short_name": "HK",
          "types": [
            "country",
            "political"
          ]
        }
      ],
      "formatted_address": "G/F, SITE, 11 Whampoa St, Hung Hom, Hong Kong",
      "geometry": {
        "location": {
          "lat": 22.30622,
          "lng": 114.18449
        },
        "location_type": "ROOFTOP",
        "viewport": {
          "northeast": {
            "lat": 22.3075689802915,
            "lng": 114.1858389802915
          },
          "southwest": {
            "lat": 22.3048710197085,
            "lng": 114.1831410197085
          }
        }
      },
      "partial_match": true,
      "place_id": "Ei1HL0YsIFNJVEUsIDExIFdoYW1wb2EgU3QsIEh1bmcgSG9tLCBIb25nIEtvbmciJRojChYKFAoSCRfb7VvnAAQ0Ef5iqhQYDDPsEglHL0YsIFNJVEU",
      "types": [
        "subpremise"
      ]
    }
  ],
  "geocode_tc": [
    {
      "address_components": [
        {
          "long_name": "\u7d05\u78e1",
          "short_name": "\u7d05\u78e1",
          "types": [
            "neighborhood",
            "political"
          ]
        },
        {
          "long_name": "\u4e5d\u9f8d",
          "short_name": "\u4e5d\u9f8d",
          "types": [
            "administrative_area_level_1",
            "political"
          ]
        },
        {
          "long_name": "\u9999\u6e2f",
          "short_name": "HK",
          "types": [
            "country",
            "political"
          ]
        }
      ],
      "formatted_address": "\u9999\u6e2f\u7d05\u78e1",
      "geometry": {
        "location": {
          "lat": 22.305727,
          "lng": 114.1902
        },
        "location_type": "GEOMETRIC_CENTER",
        "viewport": {
          "northeast": {
            "lat": 22.3070759802915,
            "lng": 114.1915489802915
          },
          "southwest": {
            "lat": 22.3043780197085,
            "lng": 114.1888510197085
          }
        }
      },
      "partial_match": true,
      "place_id": "ChIJr8l_CuAABDQRl4l1r60-GOs",
      "plus_code": {
        "compound_code": "854R+73 \u9999\u6e2f",
        "global_code": "7PJP854R+73"
      },
      "types": [
        "establishment",
        "parking",
        "point_of_interest"
      ]
    },
    {
      "address_components": [
        {
          "long_name": "\u9999\u6e2f",
          "short_name": "HK",
          "types": [
            "country",
            "political"
          ]
        }
      ],
      "formatted_address": "\u9999\u6e2f\u9ec3\u57d4\u82b1\u5712\u7b2c11\u671f\u805a\u5bf6\u574a\u5730\u9762G2\u865f\u8216",
      "geometry": {
        "location": {
          "lat": 22.3054784,
          "lng": 114.1904847
        },
        "location_type": "GEOMETRIC_CENTER",
        "viewport": {
          "northeast": {
            "lat": 22.3068273802915,
            "lng": 114.1918336802915
          },
          "southwest": {
            "lat": 22.3041294197085,
            "lng": 114.1891357197085
          }
        }
      },
      "partial_match": true,
      "place_id": "ChIJS3UNCeAABDQRl42e0ykM6G8",
      "plus_code": {
        "compound_code": "854R+55 \u9999\u6e2f",
        "global_code": "7PJP854R+55"
      },
      "types": [
        "establishment",
        "food",
        "point_of_interest",
        "restaurant"
      ]
    }
  ],
  "licno": "2252805714",
  "timestamp": 1564968756,
  "version": "1564966095"
}
