{
  "adr_en": "Viva Pub, FLAT 3, 5 & 6, 13/F, DUNDAS SQUARE, 43H DUNDAS STREET, MONG KOK, KOWLOON",
  "adr_tc": "\u4e5d\u9f8d\u65fa\u89d2\u767b\u6253\u58eb\u885743H\u865f\u767b\u6253\u58eb\u5ee3\u583413\u6a133,5\u53ca6\u5ba4 \u975e\u51e1\u5427",
  "geocode_en": [
    {
      "address_components": [
        {
          "long_name": "3",
          "short_name": "3",
          "types": [
            "subpremise"
          ]
        },
        {
          "long_name": "Dundas Square",
          "short_name": "Dundas Square",
          "types": [
            "premise"
          ]
        },
        {
          "long_name": "43H",
          "short_name": "43H",
          "types": [
            "street_number"
          ]
        },
        {
          "long_name": "Dundas Street",
          "short_name": "Dundas St",
          "types": [
            "route"
          ]
        },
        {
          "long_name": "Mong Kok",
          "short_name": "Mong Kok",
          "types": [
            "neighborhood",
            "political"
          ]
        },
        {
          "long_name": "Kowloon",
          "short_name": "Kowloon",
          "types": [
            "administrative_area_level_1",
            "political"
          ]
        },
        {
          "long_name": "Hong Kong",
          "short_name": "HK",
          "types": [
            "country",
            "political"
          ]
        }
      ],
      "formatted_address": "3, Dundas Square, 43H Dundas St, Mong Kok, Hong Kong",
      "geometry": {
        "bounds": {
          "northeast": {
            "lat": 22.3157871,
            "lng": 114.1712431
          },
          "southwest": {
            "lat": 22.3155839,
            "lng": 114.1710381
          }
        },
        "location": {
          "lat": 22.3156968,
          "lng": 114.1711296
        },
        "location_type": "ROOFTOP",
        "viewport": {
          "northeast": {
            "lat": 22.3170344802915,
            "lng": 114.1724895802915
          },
          "southwest": {
            "lat": 22.3143365197085,
            "lng": 114.1697916197085
          }
        }
      },
      "partial_match": true,
      "place_id": "EjQzLCBEdW5kYXMgU3F1YXJlLCA0M0ggRHVuZGFzIFN0LCBNb25nIEtvaywgSG9uZyBLb25nIh0aGwoWChQKEgktqvPdxgAENBH2fs1BP1xgfhIBMw",
      "types": [
        "subpremise"
      ]
    },
    {
      "address_components": [
        {
          "long_name": "Dundas Square",
          "short_name": "Dundas Square",
          "types": [
            "premise"
          ]
        },
        {
          "long_name": "43H",
          "short_name": "43H",
          "types": [
            "street_number"
          ]
        },
        {
          "long_name": "Dundas Street",
          "short_name": "Dundas St",
          "types": [
            "route"
          ]
        },
        {
          "long_name": "Mong Kok",
          "short_name": "Mong Kok",
          "types": [
            "neighborhood",
            "political"
          ]
        },
        {
          "long_name": "Kowloon",
          "short_name": "Kowloon",
          "types": [
            "administrative_area_level_1",
            "political"
          ]
        },
        {
          "long_name": "Hong Kong",
          "short_name": "HK",
          "types": [
            "country",
            "political"
          ]
        }
      ],
      "formatted_address": "Dundas Square, 43H Dundas St, Mong Kok, Hong Kong",
      "geometry": {
        "bounds": {
          "northeast": {
            "lat": 22.3157871,
            "lng": 114.1712431
          },
          "southwest": {
            "lat": 22.3155839,
            "lng": 114.1710381
          }
        },
        "location": {
          "lat": 22.3156968,
          "lng": 114.1711296
        },
        "location_type": "ROOFTOP",
        "viewport": {
          "northeast": {
            "lat": 22.3170344802915,
            "lng": 114.1724895802915
          },
          "southwest": {
            "lat": 22.3143365197085,
            "lng": 114.1697916197085
          }
        }
      },
      "partial_match": true,
      "place_id": "ChIJLarz3cYABDQR9n7NQT9cYH4",
      "types": [
        "premise"
      ]
    }
  ],
  "geocode_tc": [
    {
      "address_components": [
        {
          "long_name": "\u767b\u6253\u58eb\u5ee3\u5834",
          "short_name": "\u767b\u6253\u58eb\u5ee3\u5834",
          "types": [
            "premise"
          ]
        },
        {
          "long_name": "43H",
          "short_name": "43H",
          "types": [
            "street_number"
          ]
        },
        {
          "long_name": "\u767b\u6253\u58eb\u8857",
          "short_name": "\u767b\u6253\u58eb\u8857",
          "types": [
            "route"
          ]
        },
        {
          "long_name": "\u65fa\u89d2",
          "short_name": "\u65fa\u89d2",
          "types": [
            "neighborhood",
            "political"
          ]
        },
        {
          "long_name": "\u4e5d\u9f8d",
          "short_name": "\u4e5d\u9f8d",
          "types": [
            "administrative_area_level_1",
            "political"
          ]
        },
        {
          "long_name": "\u9999\u6e2f",
          "short_name": "HK",
          "types": [
            "country",
            "political"
          ]
        }
      ],
      "formatted_address": "\u9999\u6e2f\u65fa\u89d2\u767b\u6253\u58eb\u885743H\u865f\u767b\u6253\u58eb\u5ee3\u5834",
      "geometry": {
        "bounds": {
          "northeast": {
            "lat": 22.3157871,
            "lng": 114.1712431
          },
          "southwest": {
            "lat": 22.3155839,
            "lng": 114.1710381
          }
        },
        "location": {
          "lat": 22.3156968,
          "lng": 114.1711296
        },
        "location_type": "ROOFTOP",
        "viewport": {
          "northeast": {
            "lat": 22.3170344802915,
            "lng": 114.1724895802915
          },
          "southwest": {
            "lat": 22.3143365197085,
            "lng": 114.1697916197085
          }
        }
      },
      "partial_match": true,
      "place_id": "ChIJLarz3cYABDQR9n7NQT9cYH4",
      "types": [
        "premise"
      ]
    }
  ],
  "licno": "3162804183",
  "timestamp": 1564975666,
  "version": "1564966095"
}
