{
  "adr_en": "\u7fe0\u6e56\u6d77\u9bae\u98ef\u5e97, SHOP 2 & SHOP 3, G/F., HOI NING BUILDING, 82-84 SAI WAN HO STREET, 1-5 HOI NING STREET, SAI WAN HO, HONG KONG",
  "adr_tc": "\u9999\u6e2f\u897f\u7063\u6cb3\u897f\u7063\u6cb3\u885782-84\u865f,\u6d77\u5be7\u88571-5\u865f\u6d77\u5be7\u5927\u5ec8\u5730\u4e0b 2\u53ca3\u865f\u8216 \u7fe0\u6e56\u6d77\u9bae\u98ef\u5e97",
  "geocode_en": [
    {
      "address_components": [
        {
          "long_name": "Hong Kong",
          "short_name": "HK",
          "types": [
            "country",
            "political"
          ]
        }
      ],
      "formatted_address": "Hong Kong, \u897f\u7063\u6cb3\u897f\u7063\u6cb3\u885782-84\u865f\u5730\u4e0b",
      "geometry": {
        "location": {
          "lat": 22.2807197,
          "lng": 114.2226008
        },
        "location_type": "GEOMETRIC_CENTER",
        "viewport": {
          "northeast": {
            "lat": 22.2820686802915,
            "lng": 114.2239497802915
          },
          "southwest": {
            "lat": 22.2793707197085,
            "lng": 114.2212518197085
          }
        }
      },
      "partial_match": true,
      "place_id": "ChIJ-a7HYHYBBDQRsjV7SoqFYwg",
      "plus_code": {
        "compound_code": "76JF+72 Hong Kong",
        "global_code": "7PJP76JF+72"
      },
      "types": [
        "establishment",
        "food",
        "point_of_interest",
        "restaurant"
      ]
    },
    {
      "address_components": [
        {
          "long_name": "SHOP 2 & SHOP",
          "short_name": "SHOP 2 & SHOP",
          "types": [
            "subpremise"
          ]
        },
        {
          "long_name": "Hoi Ning Building",
          "short_name": "Hoi Ning Building",
          "types": [
            "premise"
          ]
        },
        {
          "long_name": "82-84",
          "short_name": "82-84",
          "types": [
            "street_number"
          ]
        },
        {
          "long_name": "Sai Wan Ho Street",
          "short_name": "Sai Wan Ho St",
          "types": [
            "route"
          ]
        },
        {
          "long_name": "Sai Wan Ho",
          "short_name": "Sai Wan Ho",
          "types": [
            "neighborhood",
            "political"
          ]
        },
        {
          "long_name": "Hong Kong Island",
          "short_name": "Hong Kong Island",
          "types": [
            "administrative_area_level_1",
            "political"
          ]
        },
        {
          "long_name": "Hong Kong",
          "short_name": "HK",
          "types": [
            "country",
            "political"
          ]
        }
      ],
      "formatted_address": "SHOP 2 & SHOP, Hoi Ning Building, 82-84 Sai Wan Ho St, Sai Wan Ho, Hong Kong",
      "geometry": {
        "bounds": {
          "northeast": {
            "lat": 22.2808939,
            "lng": 114.222705
          },
          "southwest": {
            "lat": 22.2806961,
            "lng": 114.222506
          }
        },
        "location": {
          "lat": 22.280814,
          "lng": 114.2225874
        },
        "location_type": "ROOFTOP",
        "viewport": {
          "northeast": {
            "lat": 22.2821439802915,
            "lng": 114.2239544802915
          },
          "southwest": {
            "lat": 22.2794460197085,
            "lng": 114.2212565197085
          }
        }
      },
      "partial_match": true,
      "place_id": "EkxTSE9QIDIgJiBTSE9QLCBIb2kgTmluZyBCdWlsZGluZywgODItODQgU2FpIFdhbiBIbyBTdCwgU2FpIFdhbiBIbywgSG9uZyBLb25nIikaJwoWChQKEgnXlMdgdgEENBH0qY0DE4ae2BINU0hPUCAyICYgU0hPUA",
      "types": [
        "subpremise"
      ]
    }
  ],
  "geocode_tc": [
    {
      "address_components": [
        {
          "long_name": "\u9999\u6e2f",
          "short_name": "HK",
          "types": [
            "country",
            "political"
          ]
        }
      ],
      "formatted_address": "\u9999\u6e2f\u897f\u7063\u6cb3\u897f\u7063\u6cb3\u885782-84\u865f\u5730\u4e0b",
      "geometry": {
        "location": {
          "lat": 22.2807197,
          "lng": 114.2226008
        },
        "location_type": "GEOMETRIC_CENTER",
        "viewport": {
          "northeast": {
            "lat": 22.2820686802915,
            "lng": 114.2239497802915
          },
          "southwest": {
            "lat": 22.2793707197085,
            "lng": 114.2212518197085
          }
        }
      },
      "place_id": "ChIJ-a7HYHYBBDQRsjV7SoqFYwg",
      "plus_code": {
        "compound_code": "76JF+72 \u9999\u6e2f",
        "global_code": "7PJP76JF+72"
      },
      "types": [
        "establishment",
        "food",
        "point_of_interest",
        "restaurant"
      ]
    }
  ],
  "licno": "2211804086",
  "timestamp": 1564966180,
  "version": "1564966095"
}
