{
  "adr_en": "STARBUCKS COFFEE, SHOP 301 ON THIRD FLOOR OF CITIC TOWER, 1 TIM MEI AVENUE, CENTRAL, HONG KONG",
  "adr_tc": "\u9999\u6e2f\u4e2d\u74b0\u6dfb\u7f8e\u90531\u865f\u4e2d\u4fe1\u5927\u5ec83\u6a13301\u865f\u92ea STARBUCKS COFFEE",
  "geocode_en": [
    {
      "address_components": [
        {
          "long_name": "Citic Tower",
          "short_name": "Citic Tower",
          "types": [
            "premise"
          ]
        },
        {
          "long_name": "1",
          "short_name": "1",
          "types": [
            "street_number"
          ]
        },
        {
          "long_name": "Tim Mei Avenue",
          "short_name": "Tim Mei Ave",
          "types": [
            "route"
          ]
        },
        {
          "long_name": "Central",
          "short_name": "Central",
          "types": [
            "neighborhood",
            "political"
          ]
        },
        {
          "long_name": "Hong Kong Island",
          "short_name": "Hong Kong Island",
          "types": [
            "administrative_area_level_1",
            "political"
          ]
        },
        {
          "long_name": "Hong Kong",
          "short_name": "HK",
          "types": [
            "country",
            "political"
          ]
        }
      ],
      "formatted_address": "Citic Tower, 1 Tim Mei Ave, Central, Hong Kong",
      "geometry": {
        "bounds": {
          "northeast": {
            "lat": 22.2808877,
            "lng": 114.1675705
          },
          "southwest": {
            "lat": 22.2803664,
            "lng": 114.166774
          }
        },
        "location": {
          "lat": 22.2806658,
          "lng": 114.1672514
        },
        "location_type": "ROOFTOP",
        "viewport": {
          "northeast": {
            "lat": 22.2819760302915,
            "lng": 114.1685212302915
          },
          "southwest": {
            "lat": 22.2792780697085,
            "lng": 114.1658232697085
          }
        }
      },
      "partial_match": true,
      "place_id": "ChIJk_1QWmcABDQRPMEsILc7kpU",
      "types": [
        "premise"
      ]
    }
  ],
  "geocode_tc": [
    {
      "address_components": [
        {
          "long_name": "\u4e2d\u4fe1\u5927\u5ec8",
          "short_name": "\u4e2d\u4fe1\u5927\u5ec8",
          "types": [
            "premise"
          ]
        },
        {
          "long_name": "1",
          "short_name": "1",
          "types": [
            "street_number"
          ]
        },
        {
          "long_name": "\u6dfb\u7f8e\u9053",
          "short_name": "\u6dfb\u7f8e\u9053",
          "types": [
            "route"
          ]
        },
        {
          "long_name": "\u4e2d\u74b0",
          "short_name": "\u4e2d\u74b0",
          "types": [
            "neighborhood",
            "political"
          ]
        },
        {
          "long_name": "\u9999\u6e2f\u5cf6",
          "short_name": "\u9999\u6e2f\u5cf6",
          "types": [
            "administrative_area_level_1",
            "political"
          ]
        },
        {
          "long_name": "\u9999\u6e2f",
          "short_name": "HK",
          "types": [
            "country",
            "political"
          ]
        }
      ],
      "formatted_address": "\u9999\u6e2f\u4e2d\u74b0\u6dfb\u7f8e\u90531\u865f\u4e2d\u4fe1\u5927\u5ec8",
      "geometry": {
        "bounds": {
          "northeast": {
            "lat": 22.2808877,
            "lng": 114.1675705
          },
          "southwest": {
            "lat": 22.2803664,
            "lng": 114.166774
          }
        },
        "location": {
          "lat": 22.2806658,
          "lng": 114.1672514
        },
        "location_type": "ROOFTOP",
        "viewport": {
          "northeast": {
            "lat": 22.2819760302915,
            "lng": 114.1685212302915
          },
          "southwest": {
            "lat": 22.2792780697085,
            "lng": 114.1658232697085
          }
        }
      },
      "partial_match": true,
      "place_id": "ChIJk_1QWmcABDQRPMEsILc7kpU",
      "types": [
        "premise"
      ]
    }
  ],
  "licno": "3118804047",
  "timestamp": 1564975666,
  "version": "1564966095"
}
