{
  "adr_en": "\u6f6e\u6842\u5712\u7c89\u9eb5\u8336\u9910\u5ef3, SHOP 3+11, G/F, KWAI KIN HOUSE, KWAI FONG ESTATE, KWAI CHUNG, NEW TERRITORIES",
  "adr_tc": "\u65b0\u754c\u8475\u6d8c\u8475\u82b3\u90a8\u8475\u5065\u6a13\u5730\u4e0b3+11\u865f\u92ea \u6f6e\u6842\u5712\u7c89\u9eb5\u8336\u9910\u5ef3",
  "geocode_en": [
    {
      "address_components": [
        {
          "long_name": "Kwai Fong",
          "short_name": "Kwai Fong",
          "types": [
            "neighborhood",
            "political"
          ]
        },
        {
          "long_name": "New Territories",
          "short_name": "New Territories",
          "types": [
            "administrative_area_level_1",
            "political"
          ]
        },
        {
          "long_name": "Hong Kong",
          "short_name": "HK",
          "types": [
            "country",
            "political"
          ]
        }
      ],
      "formatted_address": "Kwai Fong, Hong Kong",
      "geometry": {
        "location": {
          "lat": 22.360227,
          "lng": 114.129024
        },
        "location_type": "GEOMETRIC_CENTER",
        "viewport": {
          "northeast": {
            "lat": 22.3615759802915,
            "lng": 114.1303729802915
          },
          "southwest": {
            "lat": 22.3588780197085,
            "lng": 114.1276750197085
          }
        }
      },
      "partial_match": true,
      "place_id": "ChIJf_klK5b4AzQRzn-QBnkF2R8",
      "plus_code": {
        "compound_code": "946H+3J Hong Kong",
        "global_code": "7PJP946H+3J"
      },
      "types": [
        "establishment",
        "food",
        "point_of_interest",
        "restaurant"
      ]
    }
  ],
  "geocode_tc": [
    {
      "address_components": [
        {
          "long_name": "\u9999\u6e2f",
          "short_name": "HK",
          "types": [
            "country",
            "political"
          ]
        }
      ],
      "formatted_address": "\u9999\u6e2f\u8475\u82b3\u8475\u82b3\u90a8\u8475\u5065\u6a13\u5730\u4e0b3-11\u865f",
      "geometry": {
        "location": {
          "lat": 22.3600177,
          "lng": 114.1289558
        },
        "location_type": "GEOMETRIC_CENTER",
        "viewport": {
          "northeast": {
            "lat": 22.3613666802915,
            "lng": 114.1303047802915
          },
          "southwest": {
            "lat": 22.3586687197085,
            "lng": 114.1276068197085
          }
        }
      },
      "place_id": "ChIJUz6gKpb4AzQRd-TnC0PkAUI",
      "plus_code": {
        "compound_code": "946H+2H \u9999\u6e2f",
        "global_code": "7PJP946H+2H"
      },
      "types": [
        "establishment",
        "food",
        "point_of_interest",
        "restaurant"
      ]
    }
  ],
  "licno": "2291802783",
  "timestamp": 1564968756,
  "version": "1564966095"
}
