{
  "adr_en": "Ngan Lung Restaurant, SHOP NOS. 112B-C, 1/F, KWAI FONG SHOPPING CENTRE, KWAI FONG ESTATE, KWAI CHUNG, NEW TERRITORIES",
  "adr_tc": "\u65b0\u754c\u8475\u6d8c\u8475\u82b3\u90a8\u8475\u82b3\u5546\u5834\u4e00\u6a13112B-C\u865f\u92ea \u9280\u9f8d\u7c89\u9eb5\u8336\u9910\u5ef3",
  "geocode_en": [
    {
      "address_components": [
        {
          "long_name": "Kwai Fong",
          "short_name": "Kwai Fong",
          "types": [
            "neighborhood",
            "political"
          ]
        },
        {
          "long_name": "New Territories",
          "short_name": "New Territories",
          "types": [
            "administrative_area_level_1",
            "political"
          ]
        },
        {
          "long_name": "Hong Kong",
          "short_name": "HK",
          "types": [
            "country",
            "political"
          ]
        }
      ],
      "formatted_address": "Kwai Fong, Hong Kong",
      "geometry": {
        "location": {
          "lat": 22.3577383,
          "lng": 114.1297222
        },
        "location_type": "GEOMETRIC_CENTER",
        "viewport": {
          "northeast": {
            "lat": 22.3590872802915,
            "lng": 114.1310711802915
          },
          "southwest": {
            "lat": 22.3563893197085,
            "lng": 114.1283732197085
          }
        }
      },
      "partial_match": true,
      "place_id": "ChIJIbHWD734AzQRiV1Jt8qzHeM",
      "plus_code": {
        "compound_code": "945H+3V Hong Kong",
        "global_code": "7PJP945H+3V"
      },
      "types": [
        "establishment",
        "health",
        "pharmacy",
        "point_of_interest",
        "store"
      ]
    },
    {
      "address_components": [
        {
          "long_name": "177",
          "short_name": "177",
          "types": [
            "street_number"
          ]
        },
        {
          "long_name": "Hing Fong Road",
          "short_name": "Hing Fong Rd",
          "types": [
            "route"
          ]
        },
        {
          "long_name": "Kwai Fong",
          "short_name": "Kwai Fong",
          "types": [
            "neighborhood",
            "political"
          ]
        },
        {
          "long_name": "New Territories",
          "short_name": "New Territories",
          "types": [
            "administrative_area_level_1",
            "political"
          ]
        },
        {
          "long_name": "Hong Kong",
          "short_name": "HK",
          "types": [
            "country",
            "political"
          ]
        }
      ],
      "formatted_address": "177 Hing Fong Rd, Kwai Fong, Hong Kong",
      "geometry": {
        "location": {
          "lat": 22.3590355,
          "lng": 114.1294105
        },
        "location_type": "ROOFTOP",
        "viewport": {
          "northeast": {
            "lat": 22.3603844802915,
            "lng": 114.1307594802915
          },
          "southwest": {
            "lat": 22.3576865197085,
            "lng": 114.1280615197085
          }
        }
      },
      "partial_match": true,
      "place_id": "ChIJFUwTer34AzQR6GgrVhkeTcc",
      "plus_code": {
        "compound_code": "945H+JQ Hong Kong",
        "global_code": "7PJP945H+JQ"
      },
      "types": [
        "establishment",
        "point_of_interest"
      ]
    }
  ],
  "geocode_tc": [
    {
      "address_components": [
        {
          "long_name": "\u9999\u6e2f",
          "short_name": "HK",
          "types": [
            "country",
            "political"
          ]
        }
      ],
      "formatted_address": "\u9999\u6e2f\u8475\u82b3\u8475\u82b3\u6751\u8475\u82b3\u5546\u58341\u6a13112B-C\u8216",
      "geometry": {
        "location": {
          "lat": 22.35792,
          "lng": 114.12978
        },
        "location_type": "GEOMETRIC_CENTER",
        "viewport": {
          "northeast": {
            "lat": 22.3592689802915,
            "lng": 114.1311289802915
          },
          "southwest": {
            "lat": 22.3565710197085,
            "lng": 114.1284310197085
          }
        }
      },
      "place_id": "ChIJs4rcD734AzQRmqyIfLzbVK0",
      "plus_code": {
        "compound_code": "945H+5W \u9999\u6e2f",
        "global_code": "7PJP945H+5W"
      },
      "types": [
        "establishment",
        "food",
        "point_of_interest",
        "restaurant"
      ]
    }
  ],
  "licno": "2291801160",
  "timestamp": 1564968756,
  "version": "1564966095"
}
