{
  "adr_en": "Tokachi Gyuu Japanese Restaurant, SHOP NO. LG12, ON TAT SHOPPING CENTRE, ON TAT ESTATE, KWUN TONG, KOWLOON",
  "adr_tc": "\u4e5d\u9f8d\u89c0\u5858\u5b89\u9054\u90a8\u5b89\u9054\u5546\u5834LG12\u865f\u92ea \u5341\u52dd\u725b\u548c\u98df\u6599\u7406",
  "geocode_en": [
    {
      "address_components": [
        {
          "long_name": "Hong Kong",
          "short_name": "HK",
          "types": [
            "country",
            "political"
          ]
        }
      ],
      "formatted_address": "Hong Kong, Yau Tong \u9ad8\u8d85\u905338\u865f\u5927\u672c\u578b316\u865f\u8216",
      "geometry": {
        "location": {
          "lat": 22.2957893,
          "lng": 114.2388024
        },
        "location_type": "GEOMETRIC_CENTER",
        "viewport": {
          "northeast": {
            "lat": 22.2971382802915,
            "lng": 114.2401513802915
          },
          "southwest": {
            "lat": 22.2944403197085,
            "lng": 114.2374534197085
          }
        }
      },
      "partial_match": true,
      "place_id": "ChIJc0AAJGABBDQRhCJ34n6ZqXI",
      "plus_code": {
        "compound_code": "76WQ+8G Hong Kong",
        "global_code": "7PJP76WQ+8G"
      },
      "types": [
        "establishment",
        "food",
        "point_of_interest",
        "restaurant"
      ]
    },
    {
      "address_components": [
        {
          "long_name": "Hong Kong",
          "short_name": "HK",
          "types": [
            "country",
            "political"
          ]
        },
        {
          "long_name": "Kowloon",
          "short_name": "Kowloon",
          "types": [
            "administrative_area_level_1",
            "political"
          ]
        }
      ],
      "formatted_address": "Hong Kong",
      "geometry": {
        "location": {
          "lat": 22.3206514,
          "lng": 114.2366173
        },
        "location_type": "GEOMETRIC_CENTER",
        "viewport": {
          "northeast": {
            "lat": 22.3220003802915,
            "lng": 114.2379662802915
          },
          "southwest": {
            "lat": 22.3193024197085,
            "lng": 114.2352683197085
          }
        }
      },
      "partial_match": true,
      "place_id": "ChIJP7_eLFUBBDQRfit_hKh_18Q",
      "plus_code": {
        "compound_code": "86CP+7J Hong Kong",
        "global_code": "7PJP86CP+7J"
      },
      "types": [
        "establishment",
        "point_of_interest"
      ]
    }
  ],
  "geocode_tc": [
    {
      "address_components": [
        {
          "long_name": "\u9999\u6e2f",
          "short_name": "HK",
          "types": [
            "country",
            "political"
          ]
        },
        {
          "long_name": "\u4e5d\u9f8d",
          "short_name": "\u4e5d\u9f8d",
          "types": [
            "administrative_area_level_1",
            "political"
          ]
        }
      ],
      "formatted_address": "\u9999\u6e2f",
      "geometry": {
        "location": {
          "lat": 22.3205952,
          "lng": 114.2341116
        },
        "location_type": "GEOMETRIC_CENTER",
        "viewport": {
          "northeast": {
            "lat": 22.3219441802915,
            "lng": 114.2354605802915
          },
          "southwest": {
            "lat": 22.3192462197085,
            "lng": 114.2327626197085
          }
        }
      },
      "place_id": "ChIJJycesVQBBDQRZ2EMs1RdbOQ",
      "plus_code": {
        "compound_code": "86CM+6J \u9999\u6e2f",
        "global_code": "7PJP86CM+6J"
      },
      "types": [
        "establishment",
        "food",
        "point_of_interest",
        "restaurant"
      ]
    }
  ],
  "licno": "2251806482",
  "timestamp": 1564968756,
  "version": "1564966095"
}
