{
  "adr_en": "\u7210\u7238\u6253, SHOP 1, G/F., HOI NING BUILDING, NO. 1-5 HOI NING STREET, NO. 82-84 SAI WAN HO STREET, SAI WAN HO, HONG KONG",
  "adr_tc": "\u9999\u6e2f\u897f\u7063\u6cb3\u897f\u7063\u6cb3\u885782-84\u865f,\u6d77\u5be7\u88571-5\u865f\u5730\u4e0b1\u865f\u92ea \u7210\u7238\u6253",
  "geocode_en": [
    {
      "address_components": [
        {
          "long_name": "1-5\u865f",
          "short_name": "1-5\u865f",
          "types": [
            "street_number"
          ]
        },
        {
          "long_name": "Hoi Ning Street",
          "short_name": "Hoi Ning St",
          "types": [
            "route"
          ]
        },
        {
          "long_name": "Sai Wan Ho",
          "short_name": "Sai Wan Ho",
          "types": [
            "neighborhood",
            "political"
          ]
        },
        {
          "long_name": "Hong Kong Island",
          "short_name": "Hong Kong Island",
          "types": [
            "administrative_area_level_1",
            "political"
          ]
        },
        {
          "long_name": "Hong Kong",
          "short_name": "HK",
          "types": [
            "country",
            "political"
          ]
        }
      ],
      "formatted_address": "1-5\u865f Hoi Ning St, Sai Wan Ho, Hong Kong",
      "geometry": {
        "location": {
          "lat": 22.2807865,
          "lng": 114.2226645
        },
        "location_type": "ROOFTOP",
        "viewport": {
          "northeast": {
            "lat": 22.2821354802915,
            "lng": 114.2240134802915
          },
          "southwest": {
            "lat": 22.27943751970849,
            "lng": 114.2213155197085
          }
        }
      },
      "partial_match": true,
      "place_id": "ChIJv4rsUXYBBDQRI81ncO8m-nA",
      "plus_code": {
        "compound_code": "76JF+83 Hong Kong",
        "global_code": "7PJP76JF+83"
      },
      "types": [
        "establishment",
        "food",
        "point_of_interest",
        "restaurant"
      ]
    },
    {
      "address_components": [
        {
          "long_name": "BUILDING, NO. 1-5",
          "short_name": "BUILDING, NO. 1-5",
          "types": [
            "subpremise"
          ]
        },
        {
          "long_name": "Hoi Ning Building",
          "short_name": "Hoi Ning Building",
          "types": [
            "premise"
          ]
        },
        {
          "long_name": "82-84",
          "short_name": "82-84",
          "types": [
            "street_number"
          ]
        },
        {
          "long_name": "Sai Wan Ho Street",
          "short_name": "Sai Wan Ho St",
          "types": [
            "route"
          ]
        },
        {
          "long_name": "Sai Wan Ho",
          "short_name": "Sai Wan Ho",
          "types": [
            "neighborhood",
            "political"
          ]
        },
        {
          "long_name": "Hong Kong Island",
          "short_name": "Hong Kong Island",
          "types": [
            "administrative_area_level_1",
            "political"
          ]
        },
        {
          "long_name": "Hong Kong",
          "short_name": "HK",
          "types": [
            "country",
            "political"
          ]
        }
      ],
      "formatted_address": "BUILDING, NO. 1-5, Hoi Ning Building, 82-84 Sai Wan Ho St, Sai Wan Ho, Hong Kong",
      "geometry": {
        "bounds": {
          "northeast": {
            "lat": 22.2808939,
            "lng": 114.222705
          },
          "southwest": {
            "lat": 22.2806961,
            "lng": 114.222506
          }
        },
        "location": {
          "lat": 22.280814,
          "lng": 114.2225874
        },
        "location_type": "ROOFTOP",
        "viewport": {
          "northeast": {
            "lat": 22.2821439802915,
            "lng": 114.2239544802915
          },
          "southwest": {
            "lat": 22.2794460197085,
            "lng": 114.2212565197085
          }
        }
      },
      "partial_match": true,
      "place_id": "ElBCVUlMRElORywgTk8uIDEtNSwgSG9pIE5pbmcgQnVpbGRpbmcsIDgyLTg0IFNhaSBXYW4gSG8gU3QsIFNhaSBXYW4gSG8sIEhvbmcgS29uZyItGisKFgoUChIJ15THYHYBBDQR9KmNAxOGntgSEUJVSUxESU5HLCBOTy4gMS01",
      "types": [
        "subpremise"
      ]
    }
  ],
  "geocode_tc": [
    {
      "address_components": [
        {
          "long_name": "1-5\u865f",
          "short_name": "1-5\u865f",
          "types": [
            "street_number"
          ]
        },
        {
          "long_name": "\u6d77\u5be7\u8857",
          "short_name": "\u6d77\u5be7\u8857",
          "types": [
            "route"
          ]
        },
        {
          "long_name": "\u897f\u7063\u6cb3",
          "short_name": "\u897f\u7063\u6cb3",
          "types": [
            "neighborhood",
            "political"
          ]
        },
        {
          "long_name": "\u9999\u6e2f\u5cf6",
          "short_name": "\u9999\u6e2f\u5cf6",
          "types": [
            "administrative_area_level_1",
            "political"
          ]
        },
        {
          "long_name": "\u9999\u6e2f",
          "short_name": "HK",
          "types": [
            "country",
            "political"
          ]
        }
      ],
      "formatted_address": "\u9999\u6e2f\u897f\u7063\u6cb3\u6d77\u5be7\u88571-5\u865f",
      "geometry": {
        "location": {
          "lat": 22.2807865,
          "lng": 114.2226645
        },
        "location_type": "ROOFTOP",
        "viewport": {
          "northeast": {
            "lat": 22.2821354802915,
            "lng": 114.2240134802915
          },
          "southwest": {
            "lat": 22.27943751970849,
            "lng": 114.2213155197085
          }
        }
      },
      "partial_match": true,
      "place_id": "ChIJv4rsUXYBBDQRI81ncO8m-nA",
      "plus_code": {
        "compound_code": "76JF+83 \u9999\u6e2f",
        "global_code": "7PJP76JF+83"
      },
      "types": [
        "establishment",
        "food",
        "point_of_interest",
        "restaurant"
      ]
    },
    {
      "address_components": [
        {
          "long_name": "\u897f\u7063",
          "short_name": "\u897f\u7063",
          "types": [
            "establishment",
            "natural_feature"
          ]
        },
        {
          "long_name": "\u9999\u6e2f",
          "short_name": "HK",
          "types": [
            "country",
            "political"
          ]
        }
      ],
      "formatted_address": "\u9999\u6e2f\u897f\u7063",
      "geometry": {
        "bounds": {
          "northeast": {
            "lat": 22.402206,
            "lng": 114.3786211
          },
          "southwest": {
            "lat": 22.3941959,
            "lng": 114.3682146
          }
        },
        "location": {
          "lat": 22.3998042,
          "lng": 114.374997
        },
        "location_type": "APPROXIMATE",
        "viewport": {
          "northeast": {
            "lat": 22.402206,
            "lng": 114.3786211
          },
          "southwest": {
            "lat": 22.3941959,
            "lng": 114.3682146
          }
        }
      },
      "partial_match": true,
      "place_id": "ChIJSyJ8NXsQBDQRQIa47EYa_XM",
      "types": [
        "establishment",
        "natural_feature"
      ]
    }
  ],
  "licno": "2211801218",
  "timestamp": 1564966180,
  "version": "1564966095"
}
