{
  "adr_en": "\u9806\u5fb7\u5c0f\u5eda, SHOP NO. 23, G/F, FAR EAST CONSORTIUM TUEN MUN CENTRAL BUILDING, 1-29 TAT YAN SQUARE, TUEN MUN, NEW TERRITORIES",
  "adr_tc": "\u65b0\u754c\u5c6f\u9580\u9054\u4ec1\u574a1-29\u865f\u9060\u6771\u767c\u5c55\u5c6f\u9580\u4e2d\u5fc3\u5927\u5ec8\u5730\u4e0b23\u865f\u92ea \u9806\u5fb7\u5c0f\u5eda",
  "geocode_en": [
    {
      "address_components": [
        {
          "long_name": "Hong Kong",
          "short_name": "HK",
          "types": [
            "country",
            "political"
          ]
        }
      ],
      "formatted_address": "Hong Kong, \u5c6f\u9580\u9054\u4ec1\u574a18-36\u865f\u597d\u904b\u6d0b\u6a13\u5f8c\u5ea7",
      "geometry": {
        "location": {
          "lat": 22.3972928,
          "lng": 113.9771117
        },
        "location_type": "GEOMETRIC_CENTER",
        "viewport": {
          "northeast": {
            "lat": 22.3986417802915,
            "lng": 113.9784606802915
          },
          "southwest": {
            "lat": 22.3959438197085,
            "lng": 113.9757627197085
          }
        }
      },
      "partial_match": true,
      "place_id": "ChIJeQplgyL7AzQRLA_Jgrklifk",
      "plus_code": {
        "compound_code": "9XWG+WR Hong Kong",
        "global_code": "7PJM9XWG+WR"
      },
      "types": [
        "establishment",
        "food",
        "point_of_interest",
        "restaurant"
      ]
    },
    {
      "address_components": [
        {
          "long_name": "Far East Consortium Tuen Mun Central Building",
          "short_name": "Far East Consortium Tuen Mun Central Building",
          "types": [
            "premise"
          ]
        },
        {
          "long_name": "1",
          "short_name": "1",
          "types": [
            "street_number"
          ]
        },
        {
          "long_name": "Tat Yan Square",
          "short_name": "Tat Yan Square",
          "types": [
            "route"
          ]
        },
        {
          "long_name": "San Hui",
          "short_name": "San Hui",
          "types": [
            "neighborhood",
            "political"
          ]
        },
        {
          "long_name": "New Territories",
          "short_name": "New Territories",
          "types": [
            "administrative_area_level_1",
            "political"
          ]
        },
        {
          "long_name": "Hong Kong",
          "short_name": "HK",
          "types": [
            "country",
            "political"
          ]
        }
      ],
      "formatted_address": "Far East Consortium Tuen Mun Central Building, 1 Tat Yan Square, San Hui, Hong Kong",
      "geometry": {
        "bounds": {
          "northeast": {
            "lat": 22.397368,
            "lng": 113.9769831
          },
          "southwest": {
            "lat": 22.397158,
            "lng": 113.976638
          }
        },
        "location": {
          "lat": 22.3972492,
          "lng": 113.9768329
        },
        "location_type": "ROOFTOP",
        "viewport": {
          "northeast": {
            "lat": 22.3986119802915,
            "lng": 113.9781595302915
          },
          "southwest": {
            "lat": 22.3959140197085,
            "lng": 113.9754615697085
          }
        }
      },
      "partial_match": true,
      "place_id": "ChIJBys6hSL7AzQR2oCMLlIB8iI",
      "types": [
        "premise"
      ]
    }
  ],
  "geocode_tc": [
    {
      "address_components": [
        {
          "long_name": "\u9999\u6e2f",
          "short_name": "HK",
          "types": [
            "country",
            "political"
          ]
        }
      ],
      "formatted_address": "\u9999\u6e2f\u5c6f\u9580\u9054\u4ec1\u574a18-36\u865f\u597d\u904b\u6d0b\u6a13\u5f8c\u5ea7",
      "geometry": {
        "location": {
          "lat": 22.3972928,
          "lng": 113.9771117
        },
        "location_type": "GEOMETRIC_CENTER",
        "viewport": {
          "northeast": {
            "lat": 22.3986417802915,
            "lng": 113.9784606802915
          },
          "southwest": {
            "lat": 22.3959438197085,
            "lng": 113.9757627197085
          }
        }
      },
      "place_id": "ChIJeQplgyL7AzQRLA_Jgrklifk",
      "plus_code": {
        "compound_code": "9XWG+WR \u9999\u6e2f",
        "global_code": "7PJM9XWG+WR"
      },
      "types": [
        "establishment",
        "food",
        "point_of_interest",
        "restaurant"
      ]
    }
  ],
  "licno": "2293803540",
  "timestamp": 1564968756,
  "version": "1564966095"
}
