{
  "adr_en": "\u83ef\u5b89\u9910\u5ef3, G/F, 34 TING FU STREET, KWUN TONG, KOWLOON",
  "adr_tc": "\u4e5d\u9f8d\u89c0\u5858 \u5b9a\u5bcc\u885734\u865f\u5730\u4e0b \u83ef\u5b89\u9910\u5ef3",
  "geocode_en": [
    {
      "address_components": [
        {
          "long_name": "Hong Kong",
          "short_name": "HK",
          "types": [
            "country",
            "political"
          ]
        }
      ],
      "formatted_address": "Hong Kong, Ngau Tau Kwok \u5b9a\u5bcc\u885734\u865f\u5730\u4e0b",
      "geometry": {
        "location": {
          "lat": 22.317019,
          "lng": 114.2157431
        },
        "location_type": "GEOMETRIC_CENTER",
        "viewport": {
          "northeast": {
            "lat": 22.3183679802915,
            "lng": 114.2170920802915
          },
          "southwest": {
            "lat": 22.3156700197085,
            "lng": 114.2143941197085
          }
        }
      },
      "partial_match": true,
      "place_id": "ChIJ78GM3UkBBDQRrXiSOxg4Yew",
      "plus_code": {
        "compound_code": "8688+R7 Hong Kong",
        "global_code": "7PJP8688+R7"
      },
      "types": [
        "establishment",
        "food",
        "point_of_interest",
        "restaurant"
      ]
    },
    {
      "address_components": [
        {
          "long_name": "G",
          "short_name": "G",
          "types": [
            "subpremise"
          ]
        },
        {
          "long_name": "34",
          "short_name": "34",
          "types": [
            "street_number"
          ]
        },
        {
          "long_name": "Ting Fu Street",
          "short_name": "Ting Fu St",
          "types": [
            "route"
          ]
        },
        {
          "long_name": "Ngau Tau Kok",
          "short_name": "Ngau Tau Kok",
          "types": [
            "neighborhood",
            "political"
          ]
        },
        {
          "long_name": "Kowloon",
          "short_name": "Kowloon",
          "types": [
            "administrative_area_level_1",
            "political"
          ]
        },
        {
          "long_name": "Hong Kong",
          "short_name": "HK",
          "types": [
            "country",
            "political"
          ]
        }
      ],
      "formatted_address": "G, 34 Ting Fu St, Ngau Tau Kok, Hong Kong",
      "geometry": {
        "location": {
          "lat": 22.317138,
          "lng": 114.215628
        },
        "location_type": "RANGE_INTERPOLATED",
        "viewport": {
          "northeast": {
            "lat": 22.3184869802915,
            "lng": 114.2169769802915
          },
          "southwest": {
            "lat": 22.3157890197085,
            "lng": 114.2142790197085
          }
        }
      },
      "partial_match": true,
      "place_id": "EilHLCAzNCBUaW5nIEZ1IFN0LCBOZ2F1IFRhdSBLb2ssIEhvbmcgS29uZyIhGh8KGhIYChQKEglZ1o7dSQEENBGljZOVri9LCBAiEgFH",
      "types": [
        "subpremise"
      ]
    },
    {
      "address_components": [
        {
          "long_name": "F",
          "short_name": "F",
          "types": [
            "subpremise"
          ]
        },
        {
          "long_name": "34",
          "short_name": "34",
          "types": [
            "street_number"
          ]
        },
        {
          "long_name": "Ting Fu Street",
          "short_name": "Ting Fu St",
          "types": [
            "route"
          ]
        },
        {
          "long_name": "Ngau Tau Kok",
          "short_name": "Ngau Tau Kok",
          "types": [
            "neighborhood",
            "political"
          ]
        },
        {
          "long_name": "Kowloon",
          "short_name": "Kowloon",
          "types": [
            "administrative_area_level_1",
            "political"
          ]
        },
        {
          "long_name": "Hong Kong",
          "short_name": "HK",
          "types": [
            "country",
            "political"
          ]
        }
      ],
      "formatted_address": "F, 34 Ting Fu St, Ngau Tau Kok, Hong Kong",
      "geometry": {
        "location": {
          "lat": 22.317138,
          "lng": 114.215628
        },
        "location_type": "RANGE_INTERPOLATED",
        "viewport": {
          "northeast": {
            "lat": 22.3184869802915,
            "lng": 114.2169769802915
          },
          "southwest": {
            "lat": 22.3157890197085,
            "lng": 114.2142790197085
          }
        }
      },
      "partial_match": true,
      "place_id": "EilGLCAzNCBUaW5nIEZ1IFN0LCBOZ2F1IFRhdSBLb2ssIEhvbmcgS29uZyIhGh8KGhIYChQKEglZ1o7dSQEENBGljZOVri9LCBAiEgFG",
      "types": [
        "subpremise"
      ]
    }
  ],
  "geocode_tc": [
    {
      "address_components": [
        {
          "long_name": "\u9999\u6e2f",
          "short_name": "HK",
          "types": [
            "country",
            "political"
          ]
        }
      ],
      "formatted_address": "\u9999\u6e2fNgau Tau Kwok \u5b9a\u5bcc\u885734\u865f\u5730\u4e0b",
      "geometry": {
        "location": {
          "lat": 22.317019,
          "lng": 114.2157431
        },
        "location_type": "GEOMETRIC_CENTER",
        "viewport": {
          "northeast": {
            "lat": 22.3183679802915,
            "lng": 114.2170920802915
          },
          "southwest": {
            "lat": 22.3156700197085,
            "lng": 114.2143941197085
          }
        }
      },
      "place_id": "ChIJ78GM3UkBBDQRrXiSOxg4Yew",
      "plus_code": {
        "compound_code": "8688+R7 \u9999\u6e2f",
        "global_code": "7PJP8688+R7"
      },
      "types": [
        "establishment",
        "food",
        "point_of_interest",
        "restaurant"
      ]
    }
  ],
  "licno": "2251162207",
  "timestamp": 1564968756,
  "version": "1564966095"
}
