{
  "adr_en": "Cafe' de Coral, SHOP NO. 1, GROUND FLOOR, MEI LAM SHOPPING CENTRE, SHA TIN, NEW TERRITORIES",
  "adr_tc": "\u65b0\u754c\u6c99\u7530 \u7f8e\u6797\u5546\u5834\u5730\u4e0b 1\u865f\u92ea \u5927\u5bb6\u6a02",
  "geocode_en": [
    {
      "address_components": [
        {
          "long_name": "Sha Tin",
          "short_name": "Sha Tin",
          "types": [
            "neighborhood",
            "political"
          ]
        },
        {
          "long_name": "New Territories",
          "short_name": "New Territories",
          "types": [
            "administrative_area_level_1",
            "political"
          ]
        },
        {
          "long_name": "Hong Kong",
          "short_name": "HK",
          "types": [
            "country",
            "political"
          ]
        }
      ],
      "formatted_address": "Sha Tin, Hong Kong",
      "geometry": {
        "bounds": {
          "northeast": {
            "lat": 22.410345,
            "lng": 114.221425
          },
          "southwest": {
            "lat": 22.367131,
            "lng": 114.177721
          }
        },
        "location": {
          "lat": 22.3771304,
          "lng": 114.1974398
        },
        "location_type": "APPROXIMATE",
        "viewport": {
          "northeast": {
            "lat": 22.410345,
            "lng": 114.221425
          },
          "southwest": {
            "lat": 22.367131,
            "lng": 114.177721
          }
        }
      },
      "partial_match": true,
      "place_id": "ChIJE7LqOkkGBDQROkTLhUO0GXU",
      "types": [
        "neighborhood",
        "political"
      ]
    }
  ],
  "geocode_tc": [
    {
      "address_components": [
        {
          "long_name": "Mei Lam Commercial Complex",
          "short_name": "Mei Lam Commercial Complex",
          "types": [
            "premise"
          ]
        },
        {
          "long_name": "Mei Tin Road",
          "short_name": "Mei Tin Rd",
          "types": [
            "route"
          ]
        },
        {
          "long_name": "Sha Tin",
          "short_name": "Sha Tin",
          "types": [
            "neighborhood",
            "political"
          ]
        },
        {
          "long_name": "New Territories",
          "short_name": "New Territories",
          "types": [
            "administrative_area_level_1",
            "political"
          ]
        },
        {
          "long_name": "\u9999\u6e2f",
          "short_name": "HK",
          "types": [
            "country",
            "political"
          ]
        }
      ],
      "formatted_address": "Mei Lam Commercial Complex, Mei Tin Rd, Sha Tin, \u9999\u6e2f",
      "geometry": {
        "location": {
          "lat": 22.3781482,
          "lng": 114.1763243
        },
        "location_type": "ROOFTOP",
        "viewport": {
          "northeast": {
            "lat": 22.3794971802915,
            "lng": 114.1776732802915
          },
          "southwest": {
            "lat": 22.3767992197085,
            "lng": 114.1749753197085
          }
        }
      },
      "place_id": "ChIJAT7M_KYHBDQRfYYCYtTptWQ",
      "plus_code": {
        "compound_code": "95HG+7G \u9999\u6e2f",
        "global_code": "7PJP95HG+7G"
      },
      "types": [
        "establishment",
        "food",
        "point_of_interest",
        "restaurant"
      ]
    }
  ],
  "licno": "2297800390",
  "timestamp": 1564975666,
  "version": "1564966095"
}
