{
  "adr_en": "\u4f86\u591a\u7897\u9999\u6e2f\u8eca\u4ed4\u9eb5 - \u7d05\u78e1\u5206\u5e97, SHOP NO.6, G/F, LOONG KING MANSION, 9-31 MAN YUE STREET, 23-35H MA TAU WAI ROAD, HUNG HOM, KOWLOON",
  "adr_tc": "\u4e5d\u9f8d\u7d05\u78e1\u6c11\u88d5\u88579-31\u865f\u99ac\u982d\u570d\u905323-35H\u865f \u9686\u57fa\u5927\u5ec8\u5730\u4e0b6\u865f\u8216 \u4f86\u591a\u7897\u9999\u6e2f\u8eca\u4ed4\u9eb5 - \u7d05\u78e1\u5206\u5e97",
  "geocode_en": [
    {
      "address_components": [
        {
          "long_name": "19",
          "short_name": "19",
          "types": [
            "street_number"
          ]
        },
        {
          "long_name": "Man Yue Street",
          "short_name": "Man Yue St",
          "types": [
            "route"
          ]
        },
        {
          "long_name": "Hung Hom",
          "short_name": "Hung Hom",
          "types": [
            "neighborhood",
            "political"
          ]
        },
        {
          "long_name": "Kowloon",
          "short_name": "Kowloon",
          "types": [
            "administrative_area_level_1",
            "political"
          ]
        },
        {
          "long_name": "Hong Kong",
          "short_name": "HK",
          "types": [
            "country",
            "political"
          ]
        }
      ],
      "formatted_address": "19 Man Yue St, Hung Hom, Hong Kong",
      "geometry": {
        "location": {
          "lat": 22.3090198,
          "lng": 114.1881394
        },
        "location_type": "ROOFTOP",
        "viewport": {
          "northeast": {
            "lat": 22.3103687802915,
            "lng": 114.1894883802915
          },
          "southwest": {
            "lat": 22.3076708197085,
            "lng": 114.1867904197085
          }
        }
      },
      "partial_match": true,
      "place_id": "ChIJqeir_t4ABDQR0M3VNHbNGFQ",
      "plus_code": {
        "compound_code": "855Q+J7 Hong Kong",
        "global_code": "7PJP855Q+J7"
      },
      "types": [
        "establishment",
        "food",
        "point_of_interest",
        "restaurant"
      ]
    },
    {
      "address_components": [
        {
          "long_name": "Loong King Mansion",
          "short_name": "Loong King Mansion",
          "types": [
            "premise"
          ]
        },
        {
          "long_name": "23-35H",
          "short_name": "23-35H",
          "types": [
            "street_number"
          ]
        },
        {
          "long_name": "Ma Tau Wai Road",
          "short_name": "Ma Tau Wai Rd",
          "types": [
            "route"
          ]
        },
        {
          "long_name": "Hok Yuen",
          "short_name": "Hok Yuen",
          "types": [
            "neighborhood",
            "political"
          ]
        },
        {
          "long_name": "Kowloon",
          "short_name": "Kowloon",
          "types": [
            "administrative_area_level_1",
            "political"
          ]
        },
        {
          "long_name": "Hong Kong",
          "short_name": "HK",
          "types": [
            "country",
            "political"
          ]
        }
      ],
      "formatted_address": "Loong King Mansion, 23-35H Ma Tau Wai Rd, Hok Yuen, Hong Kong",
      "geometry": {
        "bounds": {
          "northeast": {
            "lat": 22.309369,
            "lng": 114.1882999
          },
          "southwest": {
            "lat": 22.308991,
            "lng": 114.187721
          }
        },
        "location": {
          "lat": 22.3091546,
          "lng": 114.1878726
        },
        "location_type": "ROOFTOP",
        "viewport": {
          "northeast": {
            "lat": 22.3105289802915,
            "lng": 114.1893594302915
          },
          "southwest": {
            "lat": 22.3078310197085,
            "lng": 114.1866614697085
          }
        }
      },
      "partial_match": true,
      "place_id": "ChIJ17N6-d4ABDQRYlksL221tCg",
      "types": [
        "premise"
      ]
    }
  ],
  "geocode_tc": [
    {
      "address_components": [
        {
          "long_name": "19",
          "short_name": "19",
          "types": [
            "street_number"
          ]
        },
        {
          "long_name": "\u6c11\u88d5\u8857",
          "short_name": "\u6c11\u88d5\u8857",
          "types": [
            "route"
          ]
        },
        {
          "long_name": "\u7d05\u78e1",
          "short_name": "\u7d05\u78e1",
          "types": [
            "neighborhood",
            "political"
          ]
        },
        {
          "long_name": "\u4e5d\u9f8d",
          "short_name": "\u4e5d\u9f8d",
          "types": [
            "administrative_area_level_1",
            "political"
          ]
        },
        {
          "long_name": "\u9999\u6e2f",
          "short_name": "HK",
          "types": [
            "country",
            "political"
          ]
        }
      ],
      "formatted_address": "\u9999\u6e2f\u7d05\u78e1\u6c11\u88d5\u885719\u865f",
      "geometry": {
        "location": {
          "lat": 22.3090198,
          "lng": 114.1881394
        },
        "location_type": "ROOFTOP",
        "viewport": {
          "northeast": {
            "lat": 22.3103687802915,
            "lng": 114.1894883802915
          },
          "southwest": {
            "lat": 22.3076708197085,
            "lng": 114.1867904197085
          }
        }
      },
      "partial_match": true,
      "place_id": "ChIJqeir_t4ABDQR0M3VNHbNGFQ",
      "plus_code": {
        "compound_code": "855Q+J7 \u9999\u6e2f",
        "global_code": "7PJP855Q+J7"
      },
      "types": [
        "establishment",
        "food",
        "point_of_interest",
        "restaurant"
      ]
    },
    {
      "address_components": [
        {
          "long_name": "\u9686\u57fa\u5927\u6a13",
          "short_name": "\u9686\u57fa\u5927\u6a13",
          "types": [
            "premise"
          ]
        },
        {
          "long_name": "23-35H",
          "short_name": "23-35H",
          "types": [
            "street_number"
          ]
        },
        {
          "long_name": "\u99ac\u982d\u570d\u9053",
          "short_name": "\u99ac\u982d\u570d\u9053",
          "types": [
            "route"
          ]
        },
        {
          "long_name": "\u9db4\u5712",
          "short_name": "\u9db4\u5712",
          "types": [
            "neighborhood",
            "political"
          ]
        },
        {
          "long_name": "\u4e5d\u9f8d",
          "short_name": "\u4e5d\u9f8d",
          "types": [
            "administrative_area_level_1",
            "political"
          ]
        },
        {
          "long_name": "\u9999\u6e2f",
          "short_name": "HK",
          "types": [
            "country",
            "political"
          ]
        }
      ],
      "formatted_address": "\u9999\u6e2f\u9db4\u5712\u99ac\u982d\u570d\u905323-35H\u865f\u9686\u57fa\u5927\u6a13",
      "geometry": {
        "bounds": {
          "northeast": {
            "lat": 22.309369,
            "lng": 114.1882999
          },
          "southwest": {
            "lat": 22.308991,
            "lng": 114.187721
          }
        },
        "location": {
          "lat": 22.3091546,
          "lng": 114.1878726
        },
        "location_type": "ROOFTOP",
        "viewport": {
          "northeast": {
            "lat": 22.3105289802915,
            "lng": 114.1893594302915
          },
          "southwest": {
            "lat": 22.3078310197085,
            "lng": 114.1866614697085
          }
        }
      },
      "partial_match": true,
      "place_id": "ChIJ17N6-d4ABDQRYlksL221tCg",
      "types": [
        "premise"
      ]
    }
  ],
  "licno": "3152802847",
  "timestamp": 1564975666,
  "version": "1564966095"
}
