{
  "adr_en": "The Boardroom, OFFICE A & B, 1/F., GRAND PROGRESS BUILDING, NOS. 58, 60 & 62 D'AGUILAR STREET, NOS. 15 & 16 LAN KWAI FONG, HONG KONG",
  "adr_tc": "\u9999\u6e2f\u4e2d\u74b0\u862d\u6842\u574a15\u53ca16\u865f\u5fb7\u5df1\u7acb\u885758,60\u53ca62\u865f\u5354 \u8208\u5927\u5ec8\u4e00\u6a13A\u53caB\u5ba4 The Boardroom",
  "geocode_en": [
    {
      "address_components": [
        {
          "long_name": "58",
          "short_name": "58",
          "types": [
            "subpremise"
          ]
        },
        {
          "long_name": "Grand Progress Building",
          "short_name": "Grand Progress Building",
          "types": [
            "premise"
          ]
        },
        {
          "long_name": "15-16",
          "short_name": "15-16",
          "types": [
            "street_number"
          ]
        },
        {
          "long_name": "Lan Kwai Fong",
          "short_name": "Lan Kwai Fong",
          "types": [
            "route"
          ]
        },
        {
          "long_name": "Central",
          "short_name": "Central",
          "types": [
            "neighborhood",
            "political"
          ]
        },
        {
          "long_name": "Hong Kong Island",
          "short_name": "Hong Kong Island",
          "types": [
            "administrative_area_level_1",
            "political"
          ]
        },
        {
          "long_name": "Hong Kong",
          "short_name": "HK",
          "types": [
            "country",
            "political"
          ]
        }
      ],
      "formatted_address": "58, Grand Progress Building, 15-16 Lan Kwai Fong, Central, Hong Kong",
      "geometry": {
        "bounds": {
          "northeast": {
            "lat": 22.2805751,
            "lng": 114.155539
          },
          "southwest": {
            "lat": 22.2803959,
            "lng": 114.1553531
          }
        },
        "location": {
          "lat": 22.2804988,
          "lng": 114.155431
        },
        "location_type": "ROOFTOP",
        "viewport": {
          "northeast": {
            "lat": 22.2818344802915,
            "lng": 114.1567950302915
          },
          "southwest": {
            "lat": 22.2791365197085,
            "lng": 114.1540970697085
          }
        }
      },
      "partial_match": true,
      "place_id": "EkQ1OCwgR3JhbmQgUHJvZ3Jlc3MgQnVpbGRpbmcsIDE1LTE2IExhbiBLd2FpIEZvbmcsIENlbnRyYWwsIEhvbmcgS29uZyIeGhwKFgoUChIJiacH1noABDQRdFNbTSD_YukSAjU4",
      "types": [
        "subpremise"
      ]
    },
    {
      "address_components": [
        {
          "long_name": "60",
          "short_name": "60",
          "types": [
            "subpremise"
          ]
        },
        {
          "long_name": "Grand Progress Building",
          "short_name": "Grand Progress Building",
          "types": [
            "premise"
          ]
        },
        {
          "long_name": "15-16",
          "short_name": "15-16",
          "types": [
            "street_number"
          ]
        },
        {
          "long_name": "Lan Kwai Fong",
          "short_name": "Lan Kwai Fong",
          "types": [
            "route"
          ]
        },
        {
          "long_name": "Central",
          "short_name": "Central",
          "types": [
            "neighborhood",
            "political"
          ]
        },
        {
          "long_name": "Hong Kong Island",
          "short_name": "Hong Kong Island",
          "types": [
            "administrative_area_level_1",
            "political"
          ]
        },
        {
          "long_name": "Hong Kong",
          "short_name": "HK",
          "types": [
            "country",
            "political"
          ]
        }
      ],
      "formatted_address": "60, Grand Progress Building, 15-16 Lan Kwai Fong, Central, Hong Kong",
      "geometry": {
        "bounds": {
          "northeast": {
            "lat": 22.2805751,
            "lng": 114.155539
          },
          "southwest": {
            "lat": 22.2803959,
            "lng": 114.1553531
          }
        },
        "location": {
          "lat": 22.2804988,
          "lng": 114.155431
        },
        "location_type": "ROOFTOP",
        "viewport": {
          "northeast": {
            "lat": 22.2818344802915,
            "lng": 114.1567950302915
          },
          "southwest": {
            "lat": 22.2791365197085,
            "lng": 114.1540970697085
          }
        }
      },
      "partial_match": true,
      "place_id": "EkQ2MCwgR3JhbmQgUHJvZ3Jlc3MgQnVpbGRpbmcsIDE1LTE2IExhbiBLd2FpIEZvbmcsIENlbnRyYWwsIEhvbmcgS29uZyIeGhwKFgoUChIJiacH1noABDQRdFNbTSD_YukSAjYw",
      "types": [
        "subpremise"
      ]
    },
    {
      "address_components": [
        {
          "long_name": "62",
          "short_name": "62",
          "types": [
            "street_number"
          ]
        },
        {
          "long_name": "D'Aguilar Street",
          "short_name": "D'Aguilar St",
          "types": [
            "route"
          ]
        },
        {
          "long_name": "Central",
          "short_name": "Central",
          "types": [
            "neighborhood",
            "political"
          ]
        },
        {
          "long_name": "Hong Kong Island",
          "short_name": "Hong Kong Island",
          "types": [
            "administrative_area_level_1",
            "political"
          ]
        },
        {
          "long_name": "Hong Kong",
          "short_name": "HK",
          "types": [
            "country",
            "political"
          ]
        }
      ],
      "formatted_address": "62 D'Aguilar St, Central, Hong Kong",
      "geometry": {
        "location": {
          "lat": 22.28047,
          "lng": 114.155454
        },
        "location_type": "ROOFTOP",
        "viewport": {
          "northeast": {
            "lat": 22.2818189802915,
            "lng": 114.1568029802915
          },
          "southwest": {
            "lat": 22.2791210197085,
            "lng": 114.1541050197085
          }
        }
      },
      "partial_match": true,
      "place_id": "ChIJdx0I1noABDQRwUqznyKPQcE",
      "plus_code": {
        "compound_code": "75J4+55 Hong Kong",
        "global_code": "7PJP75J4+55"
      },
      "types": [
        "street_address"
      ]
    }
  ],
  "geocode_tc": [
    {
      "address_components": [
        {
          "long_name": "\u5354\u8208\u5927\u5ec8",
          "short_name": "\u5354\u8208\u5927\u5ec8",
          "types": [
            "premise"
          ]
        },
        {
          "long_name": "15-16",
          "short_name": "15-16",
          "types": [
            "street_number"
          ]
        },
        {
          "long_name": "\u862d\u6842\u574a",
          "short_name": "\u862d\u6842\u574a",
          "types": [
            "route"
          ]
        },
        {
          "long_name": "\u4e2d\u74b0",
          "short_name": "\u4e2d\u74b0",
          "types": [
            "neighborhood",
            "political"
          ]
        },
        {
          "long_name": "\u9999\u6e2f\u5cf6",
          "short_name": "\u9999\u6e2f\u5cf6",
          "types": [
            "administrative_area_level_1",
            "political"
          ]
        },
        {
          "long_name": "\u9999\u6e2f",
          "short_name": "HK",
          "types": [
            "country",
            "political"
          ]
        }
      ],
      "formatted_address": "\u9999\u6e2f\u4e2d\u74b0\u862d\u6842\u574a15-16\u865f\u5354\u8208\u5927\u5ec8",
      "geometry": {
        "bounds": {
          "northeast": {
            "lat": 22.2805751,
            "lng": 114.155539
          },
          "southwest": {
            "lat": 22.2803959,
            "lng": 114.1553531
          }
        },
        "location": {
          "lat": 22.2804988,
          "lng": 114.155431
        },
        "location_type": "ROOFTOP",
        "viewport": {
          "northeast": {
            "lat": 22.2818344802915,
            "lng": 114.1567950302915
          },
          "southwest": {
            "lat": 22.2791365197085,
            "lng": 114.1540970697085
          }
        }
      },
      "partial_match": true,
      "place_id": "ChIJiacH1noABDQRdFNbTSD_Yuk",
      "types": [
        "premise"
      ]
    }
  ],
  "licno": "3118802342",
  "timestamp": 1564975666,
  "version": "1564966095"
}
