{
  "adr_en": "SISTER LOGAN THAI RESTAURANT, SHOP E, G/F, SUN WING BUILDING, 25-31A FUK WING STREET, SHAM SHUI PO, KOWLOON",
  "adr_tc": "\u4e5d\u9f8d\u6df1\u6c34\u57d7\u798f\u69ae\u885725-31A\u865f\u65b0\u69ae\u5927\u6a13\u5730\u4e0bE\u8216 \u59ca\u59b9\u9f8d\u773c\u6cf0\u83dc",
  "geocode_en": [
    {
      "address_components": [
        {
          "long_name": "Sun Wing Building",
          "short_name": "Sun Wing Building",
          "types": [
            "premise"
          ]
        },
        {
          "long_name": "25-31A",
          "short_name": "25-31A",
          "types": [
            "street_number"
          ]
        },
        {
          "long_name": "Fuk Wing Street",
          "short_name": "Fuk Wing St",
          "types": [
            "route"
          ]
        },
        {
          "long_name": "Tong Mi",
          "short_name": "Tong Mi",
          "types": [
            "neighborhood",
            "political"
          ]
        },
        {
          "long_name": "Kowloon",
          "short_name": "Kowloon",
          "types": [
            "administrative_area_level_1",
            "political"
          ]
        },
        {
          "long_name": "Hong Kong",
          "short_name": "HK",
          "types": [
            "country",
            "political"
          ]
        }
      ],
      "formatted_address": "Sun Wing Building, 25-31A Fuk Wing St, Tong Mi, Hong Kong",
      "geometry": {
        "bounds": {
          "northeast": {
            "lat": 22.329621,
            "lng": 114.1657729
          },
          "southwest": {
            "lat": 22.3293991,
            "lng": 114.1655109
          }
        },
        "location": {
          "lat": 22.3295098,
          "lng": 114.1656491
        },
        "location_type": "ROOFTOP",
        "viewport": {
          "northeast": {
            "lat": 22.3308590302915,
            "lng": 114.1669908802915
          },
          "southwest": {
            "lat": 22.3281610697085,
            "lng": 114.1642929197085
          }
        }
      },
      "partial_match": true,
      "place_id": "ChIJNyEsD7UABDQRZEbr4sR_47w",
      "types": [
        "premise"
      ]
    },
    {
      "address_components": [
        {
          "long_name": "Sun Wing Building",
          "short_name": "Sun Wing Building",
          "types": [
            "premise"
          ]
        },
        {
          "long_name": "25-31A",
          "short_name": "25-31A",
          "types": [
            "street_number"
          ]
        },
        {
          "long_name": "Fuk Wing Street",
          "short_name": "Fuk Wing St",
          "types": [
            "route"
          ]
        },
        {
          "long_name": "Tong Mi",
          "short_name": "Tong Mi",
          "types": [
            "neighborhood",
            "political"
          ]
        },
        {
          "long_name": "Kowloon",
          "short_name": "Kowloon",
          "types": [
            "administrative_area_level_1",
            "political"
          ]
        },
        {
          "long_name": "Hong Kong",
          "short_name": "HK",
          "types": [
            "country",
            "political"
          ]
        }
      ],
      "formatted_address": "Sun Wing Building, 25-31A Fuk Wing St, Tong Mi, Hong Kong",
      "geometry": {
        "bounds": {
          "northeast": {
            "lat": 22.329621,
            "lng": 114.1657729
          },
          "southwest": {
            "lat": 22.3293991,
            "lng": 114.1655109
          }
        },
        "location": {
          "lat": 22.3295098,
          "lng": 114.1656491
        },
        "location_type": "ROOFTOP",
        "viewport": {
          "northeast": {
            "lat": 22.3308590302915,
            "lng": 114.1669908802915
          },
          "southwest": {
            "lat": 22.3281610697085,
            "lng": 114.1642929197085
          }
        }
      },
      "partial_match": true,
      "place_id": "ChIJNyEsD7UABDQRZEbr4sR_47w",
      "types": [
        "premise"
      ]
    }
  ],
  "geocode_tc": [
    {
      "address_components": [
        {
          "long_name": "\u65b0\u69ae\u5927\u5ec8",
          "short_name": "\u65b0\u69ae\u5927\u5ec8",
          "types": [
            "premise"
          ]
        },
        {
          "long_name": "25-31A",
          "short_name": "25-31A",
          "types": [
            "street_number"
          ]
        },
        {
          "long_name": "\u798f\u69ae\u8857",
          "short_name": "\u798f\u69ae\u8857",
          "types": [
            "route"
          ]
        },
        {
          "long_name": "\u5858\u5c3e",
          "short_name": "\u5858\u5c3e",
          "types": [
            "neighborhood",
            "political"
          ]
        },
        {
          "long_name": "\u9999\u6e2f",
          "short_name": "HK",
          "types": [
            "country",
            "political"
          ]
        }
      ],
      "formatted_address": "\u9999\u6e2f\u5858\u5c3e\u798f\u69ae\u885725-31A\u865f\u65b0\u69ae\u5927\u5ec8\u865f",
      "geometry": {
        "location": {
          "lat": 22.32951,
          "lng": 114.1656419
        },
        "location_type": "ROOFTOP",
        "viewport": {
          "northeast": {
            "lat": 22.3308589802915,
            "lng": 114.1669908802915
          },
          "southwest": {
            "lat": 22.3281610197085,
            "lng": 114.1642929197085
          }
        }
      },
      "place_id": "ChIJNSEsD7UABDQRhii0ZLXQHRI",
      "plus_code": {
        "compound_code": "85H8+R7 \u9999\u6e2f",
        "global_code": "7PJP85H8+R7"
      },
      "types": [
        "establishment",
        "food",
        "point_of_interest",
        "restaurant"
      ]
    }
  ],
  "licno": "2263804012",
  "timestamp": 1564968756,
  "version": "1564966095"
}
