{
  "adr_en": "Ho Choi Seafood Restaurant, NO. 43-59, 1F AND NO. 59, G/F (PORTION), HEUNG WO STREET, TSUEN WAN, NEW TERRITORIES",
  "adr_tc": "\u65b0\u754c\u8343\u7063\u4eab\u548c\u885759\u865f\u5730\u4e0b(\u90e8\u4efd)\u53ca43-59\u865f\u4e00\u6a13 \u597d\u5f69\u6d77\u9bae\u9152\u5bb6",
  "geocode_en": [
    {
      "address_components": [
        {
          "long_name": "Cleverly Street",
          "short_name": "Cleverly St",
          "types": [
            "route"
          ]
        },
        {
          "long_name": "Hong Kong",
          "short_name": "HK",
          "types": [
            "country",
            "political"
          ]
        }
      ],
      "formatted_address": "\u4e0a\u74b0 \u5fb7 \u8f14 \u9053\u4e2d 287-291 \u865f \u7531 \u5165, Cleverly St, Hong Kong",
      "geometry": {
        "location": {
          "lat": 22.286931,
          "lng": 114.151239
        },
        "location_type": "GEOMETRIC_CENTER",
        "viewport": {
          "northeast": {
            "lat": 22.2882799802915,
            "lng": 114.1525879802915
          },
          "southwest": {
            "lat": 22.2855820197085,
            "lng": 114.1498900197085
          }
        }
      },
      "partial_match": true,
      "place_id": "ChIJJ8v3yn0ABDQR7B08eisBSrw",
      "plus_code": {
        "compound_code": "75P2+QF Hong Kong",
        "global_code": "7PJP75P2+QF"
      },
      "types": [
        "establishment",
        "food",
        "point_of_interest",
        "restaurant"
      ]
    },
    {
      "address_components": [
        {
          "long_name": "Heung Wo Street",
          "short_name": "Heung Wo St",
          "types": [
            "route"
          ]
        },
        {
          "long_name": "Tsuen Wan",
          "short_name": "Tsuen Wan",
          "types": [
            "neighborhood",
            "political"
          ]
        },
        {
          "long_name": "New Territories",
          "short_name": "New Territories",
          "types": [
            "administrative_area_level_1",
            "political"
          ]
        },
        {
          "long_name": "Hong Kong",
          "short_name": "HK",
          "types": [
            "country",
            "political"
          ]
        }
      ],
      "formatted_address": "Heung Wo St, Tsuen Wan, Hong Kong",
      "geometry": {
        "bounds": {
          "northeast": {
            "lat": 22.3723538,
            "lng": 114.1125357
          },
          "southwest": {
            "lat": 22.3711743,
            "lng": 114.1105848
          }
        },
        "location": {
          "lat": 22.37172,
          "lng": 114.1117266
        },
        "location_type": "GEOMETRIC_CENTER",
        "viewport": {
          "northeast": {
            "lat": 22.37311303029151,
            "lng": 114.1129092302915
          },
          "southwest": {
            "lat": 22.3704150697085,
            "lng": 114.1102112697085
          }
        }
      },
      "partial_match": true,
      "place_id": "ChIJVTR1Uu74AzQRzrV7sk8xIro",
      "types": [
        "route"
      ]
    }
  ],
  "geocode_tc": [
    {
      "address_components": [
        {
          "long_name": "\u5730\u4e0b(\u90e8\u4efd)\u53ca",
          "short_name": "\u5730\u4e0b(\u90e8\u4efd)\u53ca",
          "types": [
            "subpremise"
          ]
        },
        {
          "long_name": "59",
          "short_name": "59",
          "types": [
            "street_number"
          ]
        },
        {
          "long_name": "\u4eab\u548c\u8857",
          "short_name": "\u4eab\u548c\u8857",
          "types": [
            "route"
          ]
        },
        {
          "long_name": "\u8343\u7063",
          "short_name": "\u8343\u7063",
          "types": [
            "neighborhood",
            "political"
          ]
        },
        {
          "long_name": "\u65b0\u754c",
          "short_name": "\u65b0\u754c",
          "types": [
            "administrative_area_level_1",
            "political"
          ]
        },
        {
          "long_name": "\u9999\u6e2f",
          "short_name": "HK",
          "types": [
            "country",
            "political"
          ]
        }
      ],
      "formatted_address": "\u9999\u6e2f\u8343\u7063\u4eab\u548c\u885759\u865f\u5730\u4e0b(\u90e8\u4efd)\u53ca",
      "geometry": {
        "location": {
          "lat": 22.3716662,
          "lng": 114.1121838
        },
        "location_type": "ROOFTOP",
        "viewport": {
          "northeast": {
            "lat": 22.3730151802915,
            "lng": 114.1135327802915
          },
          "southwest": {
            "lat": 22.3703172197085,
            "lng": 114.1108348197085
          }
        }
      },
      "partial_match": true,
      "place_id": "EjflnLDkuIso6YOo5Lu9KeWPiiwgNTkgSGV1bmcgV28gU3QsIFRzdWVuIFdhbiwgSG9uZyBLb25nIi0aKwoWChQKEgm73CBb7vgDNBG_yUVzoyEL3BIR5Zyw5LiLKOmDqOS7vSnlj4o",
      "types": [
        "subpremise"
      ]
    },
    {
      "address_components": [
        {
          "long_name": "\u8343\u7063",
          "short_name": "\u8343\u7063",
          "types": [
            "neighborhood",
            "political"
          ]
        },
        {
          "long_name": "\u65b0\u754c",
          "short_name": "\u65b0\u754c",
          "types": [
            "administrative_area_level_1",
            "political"
          ]
        },
        {
          "long_name": "\u9999\u6e2f",
          "short_name": "HK",
          "types": [
            "country",
            "political"
          ]
        }
      ],
      "formatted_address": "\u9999\u6e2f\u8343\u7063",
      "geometry": {
        "location": {
          "lat": 22.3714886,
          "lng": 114.112346
        },
        "location_type": "GEOMETRIC_CENTER",
        "viewport": {
          "northeast": {
            "lat": 22.3728375802915,
            "lng": 114.1136949802915
          },
          "southwest": {
            "lat": 22.3701396197085,
            "lng": 114.1109970197085
          }
        }
      },
      "partial_match": true,
      "place_id": "ChIJhRt4W-74AzQRfTtvK7pAir0",
      "plus_code": {
        "compound_code": "94C6+HW \u9999\u6e2f",
        "global_code": "7PJP94C6+HW"
      },
      "types": [
        "establishment",
        "food",
        "point_of_interest",
        "restaurant"
      ]
    }
  ],
  "licno": "2292000135",
  "timestamp": 1564968756,
  "version": "1564966095"
}
