{
  "adr_en": "Lobby Lounge, G/F (MINOR PORTION), HARBOUR GRAND HONG KONG, 23 OIL STREET, NORTH POINT, HONG KONG",
  "adr_tc": "\u9999\u6e2f\u5317\u89d2\u6cb9\u885723\u865f\u6e2f\u5cf6\u6d77\u9038\u541b\u7dbd\u9152\u5e97\u5730\u4e0b(\u5c0f\u90e8\u4efd) Lobby Lounge",
  "geocode_en": [
    {
      "address_components": [
        {
          "long_name": "North Point",
          "short_name": "North Point",
          "types": [
            "neighborhood",
            "political"
          ]
        },
        {
          "long_name": "Hong Kong Island",
          "short_name": "Hong Kong Island",
          "types": [
            "administrative_area_level_1",
            "political"
          ]
        },
        {
          "long_name": "Hong Kong",
          "short_name": "HK",
          "types": [
            "country",
            "political"
          ]
        }
      ],
      "formatted_address": "\u9999\u6e2f\u5317\u89d2\u6cb9\u8857\u4e8c\u5341\u4e09\u865f, North Point, Hong Kong",
      "geometry": {
        "location": {
          "lat": 22.288991,
          "lng": 114.1917717
        },
        "location_type": "GEOMETRIC_CENTER",
        "viewport": {
          "northeast": {
            "lat": 22.2903399802915,
            "lng": 114.1931206802915
          },
          "southwest": {
            "lat": 22.2876420197085,
            "lng": 114.1904227197085
          }
        }
      },
      "partial_match": true,
      "place_id": "ChIJ1YGeAQIBBDQRcs0ePchsIgU",
      "plus_code": {
        "compound_code": "75QR+HP North Point, Hong Kong",
        "global_code": "7PJP75QR+HP"
      },
      "types": [
        "establishment",
        "lodging",
        "point_of_interest"
      ]
    }
  ],
  "geocode_tc": [
    {
      "address_components": [
        {
          "long_name": "North Point",
          "short_name": "North Point",
          "types": [
            "neighborhood",
            "political"
          ]
        },
        {
          "long_name": "Hong Kong Island",
          "short_name": "Hong Kong Island",
          "types": [
            "administrative_area_level_1",
            "political"
          ]
        },
        {
          "long_name": "\u9999\u6e2f",
          "short_name": "HK",
          "types": [
            "country",
            "political"
          ]
        }
      ],
      "formatted_address": "\u9999\u6e2f\u5317\u89d2\u6cb9\u8857\u4e8c\u5341\u4e09\u865f, North Point, \u9999\u6e2f",
      "geometry": {
        "location": {
          "lat": 22.288991,
          "lng": 114.1917717
        },
        "location_type": "GEOMETRIC_CENTER",
        "viewport": {
          "northeast": {
            "lat": 22.2903399802915,
            "lng": 114.1931206802915
          },
          "southwest": {
            "lat": 22.2876420197085,
            "lng": 114.1904227197085
          }
        }
      },
      "place_id": "ChIJ1YGeAQIBBDQRcs0ePchsIgU",
      "plus_code": {
        "compound_code": "75QR+HP \u9999\u6e2f\u5317\u89d2",
        "global_code": "7PJP75QR+HP"
      },
      "types": [
        "establishment",
        "lodging",
        "point_of_interest"
      ]
    },
    {
      "address_components": [
        {
          "long_name": "\u9999\u6e2f",
          "short_name": "HK",
          "types": [
            "country",
            "political"
          ]
        }
      ],
      "formatted_address": "\u9999\u6e2f\u5317\u89d2\u6cb9\u885723\u865f\u6e2f\u5cf6\u6d77\u9038\u541b\u7dbd\u9152\u5e9741\u6a13",
      "geometry": {
        "location": {
          "lat": 22.2889903,
          "lng": 114.1918463
        },
        "location_type": "GEOMETRIC_CENTER",
        "viewport": {
          "northeast": {
            "lat": 22.2903392802915,
            "lng": 114.1931952802915
          },
          "southwest": {
            "lat": 22.2876413197085,
            "lng": 114.1904973197085
          }
        }
      },
      "place_id": "ChIJ7U7ZHAIBBDQR3Kp_PgsCbEQ",
      "plus_code": {
        "compound_code": "75QR+HP \u9999\u6e2f",
        "global_code": "7PJP75QR+HP"
      },
      "types": [
        "establishment",
        "food",
        "point_of_interest",
        "restaurant"
      ]
    }
  ],
  "licno": "2211802354",
  "timestamp": 1564966180,
  "version": "1564966095"
}
