{
  "adr_en": "\u65b0\u8c50\u660e\u82d1\u8336\u9910\u5ef3, SHOP NO.138-143, 144 (MINOR PORTION), 1/F, PENINSULA CENTRE, 67 MODY ROAD, TSIM SHA TSUI EAST, KOWLOON",
  "adr_tc": "\u4e5d\u9f8d\u5c16\u6c99\u5480\u6771\u9ebc\u5730\u905367\u865f \u534a\u5cf6\u4e2d\u5fc31\u6a13138-143\u53ca 144\u865f\u8216(\u6b21\u90e8\u4efd) \u65b0\u8c50\u660e\u82d1\u8336\u9910\u5ef3",
  "geocode_en": [
    {
      "address_components": [
        {
          "long_name": "Hong Kong",
          "short_name": "HK",
          "types": [
            "country",
            "political"
          ]
        }
      ],
      "formatted_address": "Hong Kong, \u9ebd\u5730\u905367\u865f\u534a\u5cf6\u4e2d\u5fc31\u5c64138-144",
      "geometry": {
        "location": {
          "lat": 22.299066,
          "lng": 114.177328
        },
        "location_type": "GEOMETRIC_CENTER",
        "viewport": {
          "northeast": {
            "lat": 22.3004149802915,
            "lng": 114.1786769802915
          },
          "southwest": {
            "lat": 22.2977170197085,
            "lng": 114.1759790197085
          }
        }
      },
      "partial_match": true,
      "place_id": "ChIJqRbKqO8ABDQRTb-2wQsyc68",
      "types": [
        "establishment",
        "food",
        "point_of_interest",
        "restaurant"
      ]
    },
    {
      "address_components": [
        {
          "long_name": "67",
          "short_name": "67",
          "types": [
            "street_number"
          ]
        },
        {
          "long_name": "Mody Road",
          "short_name": "Mody Rd",
          "types": [
            "route"
          ]
        },
        {
          "long_name": "Tsim Sha Tsui",
          "short_name": "Tsim Sha Tsui",
          "types": [
            "neighborhood",
            "political"
          ]
        },
        {
          "long_name": "Kowloon",
          "short_name": "Kowloon",
          "types": [
            "administrative_area_level_1",
            "political"
          ]
        },
        {
          "long_name": "Hong Kong",
          "short_name": "HK",
          "types": [
            "country",
            "political"
          ]
        }
      ],
      "formatted_address": "67 Mody Rd, Tsim Sha Tsui, Hong Kong",
      "geometry": {
        "location": {
          "lat": 22.2990655,
          "lng": 114.177277
        },
        "location_type": "ROOFTOP",
        "viewport": {
          "northeast": {
            "lat": 22.3004144802915,
            "lng": 114.1786259802915
          },
          "southwest": {
            "lat": 22.29771651970849,
            "lng": 114.1759280197085
          }
        }
      },
      "partial_match": true,
      "place_id": "ChIJgV_KqO8ABDQRU1uJf7kqoac",
      "plus_code": {
        "compound_code": "75XG+JW Hong Kong",
        "global_code": "7PJP75XG+JW"
      },
      "types": [
        "establishment",
        "point_of_interest",
        "premise",
        "shopping_mall"
      ]
    }
  ],
  "geocode_tc": [
    {
      "address_components": [
        {
          "long_name": "67",
          "short_name": "67",
          "types": [
            "street_number"
          ]
        },
        {
          "long_name": "\u9ebc\u5730\u9053",
          "short_name": "\u9ebc\u5730\u9053",
          "types": [
            "route"
          ]
        },
        {
          "long_name": "\u5c16\u6c99\u5480",
          "short_name": "\u5c16\u6c99\u5480",
          "types": [
            "neighborhood",
            "political"
          ]
        },
        {
          "long_name": "\u4e5d\u9f8d",
          "short_name": "\u4e5d\u9f8d",
          "types": [
            "administrative_area_level_1",
            "political"
          ]
        },
        {
          "long_name": "\u9999\u6e2f",
          "short_name": "HK",
          "types": [
            "country",
            "political"
          ]
        }
      ],
      "formatted_address": "\u9999\u6e2f\u5c16\u6c99\u5480\u9ebc\u5730\u905367\u865f",
      "geometry": {
        "location": {
          "lat": 22.2990655,
          "lng": 114.177277
        },
        "location_type": "ROOFTOP",
        "viewport": {
          "northeast": {
            "lat": 22.3004144802915,
            "lng": 114.1786259802915
          },
          "southwest": {
            "lat": 22.29771651970849,
            "lng": 114.1759280197085
          }
        }
      },
      "partial_match": true,
      "place_id": "ChIJgV_KqO8ABDQRU1uJf7kqoac",
      "plus_code": {
        "compound_code": "75XG+JW \u9999\u6e2f",
        "global_code": "7PJP75XG+JW"
      },
      "types": [
        "establishment",
        "point_of_interest",
        "premise",
        "shopping_mall"
      ]
    },
    {
      "address_components": [
        {
          "long_name": "\u9999\u6e2f",
          "short_name": "HK",
          "types": [
            "country",
            "political"
          ]
        }
      ],
      "formatted_address": "\u9999\u6e2f\u9ebd\u5730\u905367\u865f\u534a\u5cf6\u4e2d\u5fc31\u5c64138-144",
      "geometry": {
        "location": {
          "lat": 22.299066,
          "lng": 114.177328
        },
        "location_type": "GEOMETRIC_CENTER",
        "viewport": {
          "northeast": {
            "lat": 22.3004149802915,
            "lng": 114.1786769802915
          },
          "southwest": {
            "lat": 22.2977170197085,
            "lng": 114.1759790197085
          }
        }
      },
      "partial_match": true,
      "place_id": "ChIJqRbKqO8ABDQRTb-2wQsyc68",
      "types": [
        "establishment",
        "food",
        "point_of_interest",
        "restaurant"
      ]
    }
  ],
  "licno": "2261183083",
  "timestamp": 1564968756,
  "version": "1564966095"
}
