{
  "adr_en": "MCDONALD'S, NO. 10-16 MARKET STREET, G/F & M/F,22 CHUEN LUNG STREET ON G/F & WHOLE 1/F OF TWTL 81, TSUEN WAN, NEW TERRITORIES",
  "adr_tc": "\u65b0\u754c\u8343\u7063\u8343\u7063\u5e02\u5730\u6bb581 \u5ddd\u9f8d\u885722\u865f\u5730\u4e0b\u53ca1\u6a13\u53ca\u8857\u5e02\u885710-16\u865f\u5730\u4e0b\u53ca\u95a3\u6a13 MCDONALD'S",
  "geocode_en": [
    {
      "address_components": [
        {
          "long_name": "Chuen Lung Street",
          "short_name": "Chuen Lung St",
          "types": [
            "route"
          ]
        },
        {
          "long_name": "Tsuen Wan",
          "short_name": "Tsuen Wan",
          "types": [
            "neighborhood",
            "political"
          ]
        },
        {
          "long_name": "New Territories",
          "short_name": "New Territories",
          "types": [
            "administrative_area_level_1",
            "political"
          ]
        },
        {
          "long_name": "Hong Kong",
          "short_name": "HK",
          "types": [
            "country",
            "political"
          ]
        }
      ],
      "formatted_address": "Chuen Lung St, Tsuen Wan, Hong Kong",
      "geometry": {
        "bounds": {
          "northeast": {
            "lat": 22.3725071,
            "lng": 114.1171808
          },
          "southwest": {
            "lat": 22.3685259,
            "lng": 114.1145795
          }
        },
        "location": {
          "lat": 22.3703889,
          "lng": 114.1159738
        },
        "location_type": "GEOMETRIC_CENTER",
        "viewport": {
          "northeast": {
            "lat": 22.3725071,
            "lng": 114.1172291302915
          },
          "southwest": {
            "lat": 22.3685259,
            "lng": 114.1145311697085
          }
        }
      },
      "partial_match": true,
      "place_id": "ChIJhZ6ttO34AzQRul-VKFKecjk",
      "types": [
        "route"
      ]
    }
  ],
  "geocode_tc": [
    {
      "address_components": [
        {
          "long_name": "\u5730\u4e0b\u53ca1\u6a13",
          "short_name": "\u5730\u4e0b\u53ca1\u6a13",
          "types": [
            "subpremise"
          ]
        },
        {
          "long_name": "\u5353\u660e\u6a13",
          "short_name": "\u5353\u660e\u6a13",
          "types": [
            "premise"
          ]
        },
        {
          "long_name": "22-26",
          "short_name": "22-26",
          "types": [
            "street_number"
          ]
        },
        {
          "long_name": "\u5ddd\u9f8d\u8857",
          "short_name": "\u5ddd\u9f8d\u8857",
          "types": [
            "route"
          ]
        },
        {
          "long_name": "\u8343\u7063",
          "short_name": "\u8343\u7063",
          "types": [
            "neighborhood",
            "political"
          ]
        },
        {
          "long_name": "\u65b0\u754c",
          "short_name": "\u65b0\u754c",
          "types": [
            "administrative_area_level_1",
            "political"
          ]
        },
        {
          "long_name": "\u9999\u6e2f",
          "short_name": "HK",
          "types": [
            "country",
            "political"
          ]
        }
      ],
      "formatted_address": "\u9999\u6e2f\u8343\u7063\u5ddd\u9f8d\u885722-26\u865f\u5353\u660e\u6a13\u5730\u4e0b\u53ca1\u6a13",
      "geometry": {
        "bounds": {
          "northeast": {
            "lat": 22.371965,
            "lng": 114.1167701
          },
          "southwest": {
            "lat": 22.371627,
            "lng": 114.1163691
          }
        },
        "location": {
          "lat": 22.3718023,
          "lng": 114.1165769
        },
        "location_type": "ROOFTOP",
        "viewport": {
          "northeast": {
            "lat": 22.3731449802915,
            "lng": 114.1179185802915
          },
          "southwest": {
            "lat": 22.3704470197085,
            "lng": 114.1152206197085
          }
        }
      },
      "partial_match": true,
      "place_id": "Ek3lnLDkuIvlj4ox5qiTLCBDaGV1ayBNaW5nIEJ1aWxkaW5nLCAyMi0yNiBDaHVlbiBMdW5nIFN0LCBUc3VlbiBXYW4sIEhvbmcgS29uZyIpGicKFgoUChIJfURwmO34AzQRDuyKVZYjEr4SDeWcsOS4i-WPijHmqJM",
      "types": [
        "subpremise"
      ]
    }
  ],
  "licno": "2292000278",
  "timestamp": 1564968756,
  "version": "1564966095"
}
