{
  "adr_en": "\u7965\u767c\u8336\u9910\u5ef3, SHOP NOS. 14-16, G/F, TSING YI GARDEN, 7-19 TSING LUK STREET, TSING YI, NEW TERRITORIES",
  "adr_tc": "\u65b0\u754c\u9752\u8863 \u9752\u7da0\u88577-19\u865f \u9752\u6021\u82b1\u5712\u5730\u4e0b14-16\u865f\u92ea \u7965\u767c\u8336\u9910\u5ef3",
  "geocode_en": [
    {
      "address_components": [
        {
          "long_name": "Hong Kong",
          "short_name": "HK",
          "types": [
            "country",
            "political"
          ]
        }
      ],
      "formatted_address": "Hong Kong, \u9752\u8863\u9752\u6021\u82b1\u5712\u5ee3\u5834\u5730\u4e0bG14\u865f\u8216",
      "geometry": {
        "location": {
          "lat": 22.353374,
          "lng": 114.104992
        },
        "location_type": "GEOMETRIC_CENTER",
        "viewport": {
          "northeast": {
            "lat": 22.3547229802915,
            "lng": 114.1063409802915
          },
          "southwest": {
            "lat": 22.3520250197085,
            "lng": 114.1036430197085
          }
        }
      },
      "partial_match": true,
      "place_id": "ChIJz5KqZNr4AzQRzAeVpK_xuDM",
      "plus_code": {
        "compound_code": "9433+8X Hong Kong",
        "global_code": "7PJP9433+8X"
      },
      "types": [
        "establishment",
        "food",
        "point_of_interest",
        "restaurant"
      ]
    },
    {
      "address_components": [
        {
          "long_name": "7",
          "short_name": "7",
          "types": [
            "street_number"
          ]
        },
        {
          "long_name": "Tsing Luk Street",
          "short_name": "Tsing Luk St",
          "types": [
            "route"
          ]
        },
        {
          "long_name": "Tsing Yi",
          "short_name": "Tsing Yi",
          "types": [
            "neighborhood",
            "political"
          ]
        },
        {
          "long_name": "New Territories",
          "short_name": "New Territories",
          "types": [
            "administrative_area_level_1",
            "political"
          ]
        },
        {
          "long_name": "Hong Kong",
          "short_name": "HK",
          "types": [
            "country",
            "political"
          ]
        }
      ],
      "formatted_address": "7 Tsing Luk St, Tsing Yi, Hong Kong",
      "geometry": {
        "location": {
          "lat": 22.3533525,
          "lng": 114.1048783
        },
        "location_type": "ROOFTOP",
        "viewport": {
          "northeast": {
            "lat": 22.3547014802915,
            "lng": 114.1062272802915
          },
          "southwest": {
            "lat": 22.3520035197085,
            "lng": 114.1035293197085
          }
        }
      },
      "partial_match": true,
      "place_id": "ChIJu15Se9r4AzQRYax9K7AoTcc",
      "plus_code": {
        "compound_code": "9433+8X Hong Kong",
        "global_code": "7PJP9433+8X"
      },
      "types": [
        "establishment",
        "point_of_interest"
      ]
    }
  ],
  "geocode_tc": [
    {
      "address_components": [
        {
          "long_name": "\u9999\u6e2f",
          "short_name": "HK",
          "types": [
            "country",
            "political"
          ]
        }
      ],
      "formatted_address": "\u9999\u6e2f\u9752\u8863\u9752\u6021\u82b1\u5712\u5ee3\u5834\u5730\u4e0bG14\u865f\u8216",
      "geometry": {
        "location": {
          "lat": 22.353374,
          "lng": 114.104992
        },
        "location_type": "GEOMETRIC_CENTER",
        "viewport": {
          "northeast": {
            "lat": 22.3547229802915,
            "lng": 114.1063409802915
          },
          "southwest": {
            "lat": 22.3520250197085,
            "lng": 114.1036430197085
          }
        }
      },
      "place_id": "ChIJz5KqZNr4AzQRzAeVpK_xuDM",
      "plus_code": {
        "compound_code": "9433+8X \u9999\u6e2f",
        "global_code": "7PJP9433+8X"
      },
      "types": [
        "establishment",
        "food",
        "point_of_interest",
        "restaurant"
      ]
    }
  ],
  "licno": "2291001478",
  "timestamp": 1564968756,
  "version": "1564966095"
}
