{
  "adr_en": "ZLIONG QING LILY HOTPOT, SHOP 12, G/F, GOLDEN JADE HEIGHTS, NO. 482-492 UN CHAU STREET, CHEUNG SHA WAN, KOWLOON",
  "adr_tc": "\u4e5d\u9f8d\u9577\u6c99\u7063\u5143\u6d32\u8857482-492\u865f\u91d1\u78a7\u95a3\u5730\u4e0b12\u865f\u8216 \u91cd\u6176\u4e8c\u59d0\u706b\u934b",
  "geocode_en": [
    {
      "address_components": [
        {
          "long_name": "Golden Jade Heights",
          "short_name": "Golden Jade Heights",
          "types": [
            "premise"
          ]
        },
        {
          "long_name": "482-492",
          "short_name": "482-492",
          "types": [
            "street_number"
          ]
        },
        {
          "long_name": "Un Chau Street",
          "short_name": "Un Chau St",
          "types": [
            "route"
          ]
        },
        {
          "long_name": "Cheung Sha Wan",
          "short_name": "Cheung Sha Wan",
          "types": [
            "neighborhood",
            "political"
          ]
        },
        {
          "long_name": "Kowloon",
          "short_name": "Kowloon",
          "types": [
            "administrative_area_level_1",
            "political"
          ]
        },
        {
          "long_name": "Hong Kong",
          "short_name": "HK",
          "types": [
            "country",
            "political"
          ]
        }
      ],
      "formatted_address": "Golden Jade Heights, 482-492 Un Chau St, Cheung Sha Wan, Hong Kong",
      "geometry": {
        "bounds": {
          "northeast": {
            "lat": 22.340074,
            "lng": 114.1539501
          },
          "southwest": {
            "lat": 22.3397599,
            "lng": 114.153601
          }
        },
        "location": {
          "lat": 22.3399559,
          "lng": 114.1537357
        },
        "location_type": "ROOFTOP",
        "viewport": {
          "northeast": {
            "lat": 22.3412659302915,
            "lng": 114.1551245302915
          },
          "southwest": {
            "lat": 22.3385679697085,
            "lng": 114.1524265697085
          }
        }
      },
      "partial_match": true,
      "place_id": "ChIJKR6rj1EHBDQRcrn7PKa5FOE",
      "types": [
        "premise"
      ]
    }
  ],
  "geocode_tc": [
    {
      "address_components": [
        {
          "long_name": "12",
          "short_name": "12",
          "types": [
            "street_number"
          ]
        },
        {
          "long_name": "Un Chau Street",
          "short_name": "Un Chau St",
          "types": [
            "route"
          ]
        },
        {
          "long_name": "\u9999\u6e2f",
          "short_name": "HK",
          "types": [
            "country",
            "political"
          ]
        }
      ],
      "formatted_address": "482 \u865f \u5730\u4e0b \u865f, 12 Un Chau St, \u9999\u6e2f",
      "geometry": {
        "location": {
          "lat": 22.3398884,
          "lng": 114.1537244
        },
        "location_type": "ROOFTOP",
        "viewport": {
          "northeast": {
            "lat": 22.3412373802915,
            "lng": 114.1550733802915
          },
          "southwest": {
            "lat": 22.3385394197085,
            "lng": 114.1523754197085
          }
        }
      },
      "partial_match": true,
      "place_id": "ChIJRScPj1EHBDQRC0o2ySgO1wA",
      "plus_code": {
        "compound_code": "85Q3+XF \u9999\u6e2f",
        "global_code": "7PJP85Q3+XF"
      },
      "types": [
        "establishment",
        "food",
        "point_of_interest",
        "restaurant"
      ]
    }
  ],
  "licno": "2263804085",
  "timestamp": 1564968756,
  "version": "1564966095"
}
