{
  "adr_en": "TO'S HOUSE, G/F., 1 SAN KAN SHI LANE, CHEUNG CHAU, HONG KONG",
  "adr_tc": "\u9999\u6e2f\u9577\u6d32\u65b0\u8857\u5e02\u91cc1\u865f\u5730\u4e0b \u6ed4\u4e4b\u5c4b",
  "geocode_en": [
    {
      "address_components": [
        {
          "long_name": "HOUSE, G",
          "short_name": "HOUSE, G",
          "types": [
            "subpremise"
          ]
        },
        {
          "long_name": "1",
          "short_name": "1",
          "types": [
            "street_number"
          ]
        },
        {
          "long_name": "San Kan Street",
          "short_name": "San Kan St",
          "types": [
            "route"
          ]
        },
        {
          "long_name": "Sheung Shui",
          "short_name": "Sheung Shui",
          "types": [
            "neighborhood",
            "political"
          ]
        },
        {
          "long_name": "New Territories",
          "short_name": "New Territories",
          "types": [
            "administrative_area_level_1",
            "political"
          ]
        },
        {
          "long_name": "Hong Kong",
          "short_name": "HK",
          "types": [
            "country",
            "political"
          ]
        }
      ],
      "formatted_address": "HOUSE, G, 1 San Kan St, Sheung Shui, Hong Kong",
      "geometry": {
        "location": {
          "lat": 22.504899,
          "lng": 114.127572
        },
        "location_type": "ROOFTOP",
        "viewport": {
          "northeast": {
            "lat": 22.5062479802915,
            "lng": 114.1289209802915
          },
          "southwest": {
            "lat": 22.5035500197085,
            "lng": 114.1262230197085
          }
        }
      },
      "partial_match": true,
      "place_id": "Ei5IT1VTRSwgRywgMSBTYW4gS2FuIFN0LCBTaGV1bmcgU2h1aSwgSG9uZyBLb25nIiQaIgoWChQKEgk75HznEfYDNBEqTRfLfogW4xIISE9VU0UsIEc",
      "types": [
        "subpremise"
      ]
    },
    {
      "address_components": [
        {
          "long_name": "Cheung Chau",
          "short_name": "Cheung Chau",
          "types": [
            "establishment",
            "natural_feature"
          ]
        },
        {
          "long_name": "New Territories",
          "short_name": "New Territories",
          "types": [
            "administrative_area_level_1",
            "political"
          ]
        },
        {
          "long_name": "Hong Kong",
          "short_name": "HK",
          "types": [
            "country",
            "political"
          ]
        }
      ],
      "formatted_address": "Cheung Chau, Hong Kong",
      "geometry": {
        "bounds": {
          "northeast": {
            "lat": 22.2232714,
            "lng": 114.0412322
          },
          "southwest": {
            "lat": 22.1957944,
            "lng": 114.0172153
          }
        },
        "location": {
          "lat": 22.2016179,
          "lng": 114.0265007
        },
        "location_type": "APPROXIMATE",
        "viewport": {
          "northeast": {
            "lat": 22.2232714,
            "lng": 114.0412322
          },
          "southwest": {
            "lat": 22.1957944,
            "lng": 114.0172153
          }
        }
      },
      "partial_match": true,
      "place_id": "ChIJ5Wwlvo1WATQRypCa2VQqYLM",
      "types": [
        "establishment",
        "natural_feature"
      ]
    }
  ],
  "geocode_tc": [
    {
      "address_components": [
        {
          "long_name": "\u65b0\u8857\u5e02\u91cc",
          "short_name": "\u65b0\u8857\u5e02\u91cc",
          "types": [
            "route"
          ]
        },
        {
          "long_name": "\u9577\u6d32",
          "short_name": "\u9577\u6d32",
          "types": [
            "neighborhood",
            "political"
          ]
        },
        {
          "long_name": "\u65b0\u754c",
          "short_name": "\u65b0\u754c",
          "types": [
            "administrative_area_level_1",
            "political"
          ]
        },
        {
          "long_name": "\u9999\u6e2f",
          "short_name": "HK",
          "types": [
            "country",
            "political"
          ]
        }
      ],
      "formatted_address": "\u9999\u6e2f\u9577\u6d32\u65b0\u8857\u5e02\u91cc",
      "geometry": {
        "bounds": {
          "northeast": {
            "lat": 22.2066365,
            "lng": 114.0284636
          },
          "southwest": {
            "lat": 22.206375,
            "lng": 114.0278945
          }
        },
        "location": {
          "lat": 22.2066099,
          "lng": 114.0278994
        },
        "location_type": "GEOMETRIC_CENTER",
        "viewport": {
          "northeast": {
            "lat": 22.2078547302915,
            "lng": 114.0295280302915
          },
          "southwest": {
            "lat": 22.2051567697085,
            "lng": 114.0268300697085
          }
        }
      },
      "partial_match": true,
      "place_id": "ChIJsRUcWZJWATQRLJOs1kMgHnU",
      "types": [
        "route"
      ]
    }
  ],
  "licno": "3117800710",
  "timestamp": 1564975666,
  "version": "1564966095"
}
