{
  "adr_en": "\u73cd\u771f\u98df\u5e97, SHOP 2, G/F, MAN YUE MANSION, NOS. 20-34A SHUNG LING STREET, SAN PO KONG, KOWLOON",
  "adr_tc": "\u4e5d\u9f8d\u65b0\u84b2\u5d17\u5d07\u9f61\u885720-34A\u865f\u842c\u7fa9\u5927\u5ec8\u5730\u4e0b2\u92ea \u73cd\u771f\u98df\u5e97",
  "geocode_en": [
    {
      "address_components": [
        {
          "long_name": "Hong Kong",
          "short_name": "HK",
          "types": [
            "country",
            "political"
          ]
        }
      ],
      "formatted_address": "Shop 2, G/F, Man Yue Mansion, Nos. 20-34A Shung Ling Street, San Po Kong, Kowloon, Hong Kong",
      "geometry": {
        "location": {
          "lat": 22.335611,
          "lng": 114.195811
        },
        "location_type": "GEOMETRIC_CENTER",
        "viewport": {
          "northeast": {
            "lat": 22.3369599802915,
            "lng": 114.1971599802915
          },
          "southwest": {
            "lat": 22.3342620197085,
            "lng": 114.1944620197085
          }
        }
      },
      "place_id": "ChIJvZfIH9cGBDQRp3BQJH4XLSs",
      "plus_code": {
        "compound_code": "85PW+68 Hong Kong",
        "global_code": "7PJP85PW+68"
      },
      "types": [
        "establishment",
        "point_of_interest"
      ]
    }
  ],
  "geocode_tc": [
    {
      "address_components": [
        {
          "long_name": "\u9999\u6e2f",
          "short_name": "HK",
          "types": [
            "country",
            "political"
          ]
        }
      ],
      "formatted_address": "\u9999\u6e2f\u65b0\u84b2\u5d17\u5d07\u9f61\u885732\u865f\u842c\u7fa9\u5927\u5ec8\u5730\u4e0b",
      "geometry": {
        "location": {
          "lat": 22.3353613,
          "lng": 114.1956982
        },
        "location_type": "GEOMETRIC_CENTER",
        "viewport": {
          "northeast": {
            "lat": 22.3367102802915,
            "lng": 114.1970471802915
          },
          "southwest": {
            "lat": 22.3340123197085,
            "lng": 114.1943492197085
          }
        }
      },
      "place_id": "ChIJ927_4NYGBDQR4Ajas330hzs",
      "plus_code": {
        "compound_code": "85PW+47 \u9999\u6e2f",
        "global_code": "7PJP85PW+47"
      },
      "types": [
        "establishment",
        "food",
        "point_of_interest",
        "restaurant"
      ]
    }
  ],
  "licno": "3153800510",
  "timestamp": 1564975666,
  "version": "1564966095"
}
