{
  "adr_en": "YUMAI, SHOP 7, G/F., PART OF WHITTY STREET COURT, NO. 30 WHITTY STREET, HONG KONG",
  "adr_tc": "\u9999\u6e2f\u5c48\u5730\u885730\u865f\u5c48\u5730\u5927\u5ec8(\u90e8\u4efd\u5730\u65b9)\u5730\u4e0b7\u865f\u8216 \u9b5a\u7c73",
  "geocode_en": [
    {
      "address_components": [
        {
          "long_name": "30",
          "short_name": "30",
          "types": [
            "street_number"
          ]
        },
        {
          "long_name": "Whitty Street",
          "short_name": "Whitty St",
          "types": [
            "route"
          ]
        },
        {
          "long_name": "Shek Tong Tsui",
          "short_name": "Shek Tong Tsui",
          "types": [
            "neighborhood",
            "political"
          ]
        },
        {
          "long_name": "Hong Kong Island",
          "short_name": "Hong Kong Island",
          "types": [
            "administrative_area_level_1",
            "political"
          ]
        },
        {
          "long_name": "Hong Kong",
          "short_name": "HK",
          "types": [
            "country",
            "political"
          ]
        }
      ],
      "formatted_address": "30 Whitty St, Shek Tong Tsui, Hong Kong",
      "geometry": {
        "location": {
          "lat": 22.2860503,
          "lng": 114.1363789
        },
        "location_type": "RANGE_INTERPOLATED",
        "viewport": {
          "northeast": {
            "lat": 22.2873992802915,
            "lng": 114.1377278802915
          },
          "southwest": {
            "lat": 22.2847013197085,
            "lng": 114.1350299197085
          }
        }
      },
      "partial_match": true,
      "place_id": "EiczMCBXaGl0dHkgU3QsIFNoZWsgVG9uZyBUc3VpLCBIb25nIEtvbmciGhIYChQKEgk1-g31g_8DNBEL08R6Bp7b4hAe",
      "types": [
        "street_address"
      ]
    }
  ],
  "geocode_tc": [
    {
      "address_components": [
        {
          "long_name": "\u865f\u8216",
          "short_name": "\u865f\u8216",
          "types": [
            "subpremise"
          ]
        },
        {
          "long_name": "\u5c48\u5730\u5927\u5ec8",
          "short_name": "\u5c48\u5730\u5927\u5ec8",
          "types": [
            "premise"
          ]
        },
        {
          "long_name": "22-44",
          "short_name": "22-44",
          "types": [
            "street_number"
          ]
        },
        {
          "long_name": "\u5c48\u5730\u8857",
          "short_name": "\u5c48\u5730\u8857",
          "types": [
            "route"
          ]
        },
        {
          "long_name": "\u897f\u74b0",
          "short_name": "\u897f\u74b0",
          "types": [
            "neighborhood",
            "political"
          ]
        },
        {
          "long_name": "\u9999\u6e2f\u5cf6",
          "short_name": "\u9999\u6e2f\u5cf6",
          "types": [
            "administrative_area_level_1",
            "political"
          ]
        },
        {
          "long_name": "\u9999\u6e2f",
          "short_name": "HK",
          "types": [
            "country",
            "political"
          ]
        }
      ],
      "formatted_address": "\u9999\u6e2f\u897f\u74b0\u5c48\u5730\u885722-44\u865f\u5c48\u5730\u5927\u5ec8\u865f\u8216",
      "geometry": {
        "bounds": {
          "northeast": {
            "lat": 22.286414,
            "lng": 114.1366321
          },
          "southwest": {
            "lat": 22.286085,
            "lng": 114.136253
          }
        },
        "location": {
          "lat": 22.2862521,
          "lng": 114.1364572
        },
        "location_type": "ROOFTOP",
        "viewport": {
          "northeast": {
            "lat": 22.2875984802915,
            "lng": 114.1377915302915
          },
          "southwest": {
            "lat": 22.2849005197085,
            "lng": 114.1350935697085
          }
        }
      },
      "partial_match": true,
      "place_id": "EjzomZ_oiJYsIFdoaXR0eSBCdWlsZGluZywgMjItNDQgV2hpdHR5IFN0LCBTYWkgV2FuLCBIb25nIEtvbmciIhogChYKFAoSCdvCRHWE_wM0EcYYJxlrK76uEgbomZ_oiJY",
      "types": [
        "subpremise"
      ]
    },
    {
      "address_components": [
        {
          "long_name": "\u5c48\u5730\u5927\u5ec8",
          "short_name": "\u5c48\u5730\u5927\u5ec8",
          "types": [
            "premise"
          ]
        },
        {
          "long_name": "22-44",
          "short_name": "22-44",
          "types": [
            "street_number"
          ]
        },
        {
          "long_name": "\u5c48\u5730\u8857",
          "short_name": "\u5c48\u5730\u8857",
          "types": [
            "route"
          ]
        },
        {
          "long_name": "\u897f\u74b0",
          "short_name": "\u897f\u74b0",
          "types": [
            "neighborhood",
            "political"
          ]
        },
        {
          "long_name": "\u9999\u6e2f\u5cf6",
          "short_name": "\u9999\u6e2f\u5cf6",
          "types": [
            "administrative_area_level_1",
            "political"
          ]
        },
        {
          "long_name": "\u9999\u6e2f",
          "short_name": "HK",
          "types": [
            "country",
            "political"
          ]
        }
      ],
      "formatted_address": "\u9999\u6e2f\u897f\u74b0\u5c48\u5730\u885722-44\u865f\u5c48\u5730\u5927\u5ec8",
      "geometry": {
        "bounds": {
          "northeast": {
            "lat": 22.286414,
            "lng": 114.1366321
          },
          "southwest": {
            "lat": 22.286085,
            "lng": 114.136253
          }
        },
        "location": {
          "lat": 22.2862521,
          "lng": 114.1364572
        },
        "location_type": "ROOFTOP",
        "viewport": {
          "northeast": {
            "lat": 22.2875984802915,
            "lng": 114.1377915302915
          },
          "southwest": {
            "lat": 22.2849005197085,
            "lng": 114.1350935697085
          }
        }
      },
      "partial_match": true,
      "place_id": "ChIJ28JEdYT_AzQRxhgnGWsrvq4",
      "types": [
        "premise"
      ]
    }
  ],
  "licno": "2218808607",
  "timestamp": 1564968756,
  "version": "1564966095"
}
