{
  "adr_en": "Tai Hing, SHOP NO. 308, 3/F, TSZ WAN SHAN SHOPPING CENTRE, TSZ LOK ESTATE, TSZ WAN SHAN, KOWLOON",
  "adr_tc": "\u4e5d\u9f8d\u6148\u96f2\u5c71\u6148\u6a02\u90a8\u6148\u96f2\u5c71\u4e2d\u5fc33\u6a13308\u865f\u8216 \u592a\u8208",
  "geocode_en": [
    {
      "address_components": [
        {
          "long_name": "23\u865f",
          "short_name": "23\u865f",
          "types": [
            "street_number"
          ]
        },
        {
          "long_name": "Yuk Wah Street",
          "short_name": "Yuk Wah St",
          "types": [
            "route"
          ]
        },
        {
          "long_name": "Tsz Wan Shan",
          "short_name": "Tsz Wan Shan",
          "types": [
            "neighborhood",
            "political"
          ]
        },
        {
          "long_name": "Kowloon",
          "short_name": "Kowloon",
          "types": [
            "administrative_area_level_1",
            "political"
          ]
        },
        {
          "long_name": "Hong Kong",
          "short_name": "HK",
          "types": [
            "country",
            "political"
          ]
        }
      ],
      "formatted_address": "23\u865f Yuk Wah St, Tsz Wan Shan, Hong Kong",
      "geometry": {
        "location": {
          "lat": 22.3482388,
          "lng": 114.2005514
        },
        "location_type": "ROOFTOP",
        "viewport": {
          "northeast": {
            "lat": 22.3495877802915,
            "lng": 114.2019003802915
          },
          "southwest": {
            "lat": 22.3468898197085,
            "lng": 114.1992024197085
          }
        }
      },
      "partial_match": true,
      "place_id": "ChIJD0ZReN0GBDQRh4wK8mw1uCg",
      "plus_code": {
        "compound_code": "86X2+76 Tsz Wan Shan, Hong Kong",
        "global_code": "7PJP86X2+76"
      },
      "types": [
        "establishment",
        "point_of_interest",
        "shopping_mall"
      ]
    },
    {
      "address_components": [
        {
          "long_name": "Tsz Wan Shan",
          "short_name": "Tsz Wan Shan",
          "types": [
            "neighborhood",
            "political"
          ]
        },
        {
          "long_name": "Kowloon",
          "short_name": "Kowloon",
          "types": [
            "administrative_area_level_1",
            "political"
          ]
        },
        {
          "long_name": "Hong Kong",
          "short_name": "HK",
          "types": [
            "country",
            "political"
          ]
        }
      ],
      "formatted_address": "Tsz Wan Shan, Hong Kong",
      "geometry": {
        "location": {
          "lat": 22.348923,
          "lng": 114.199371
        },
        "location_type": "GEOMETRIC_CENTER",
        "viewport": {
          "northeast": {
            "lat": 22.3502719802915,
            "lng": 114.2007199802915
          },
          "southwest": {
            "lat": 22.3475740197085,
            "lng": 114.1980220197085
          }
        }
      },
      "partial_match": true,
      "place_id": "ChIJ5-7hid0GBDQRZOoAvbQKmDA",
      "plus_code": {
        "compound_code": "85XX+HP Hong Kong",
        "global_code": "7PJP85XX+HP"
      },
      "types": [
        "establishment",
        "parking",
        "point_of_interest"
      ]
    }
  ],
  "geocode_tc": [
    {
      "address_components": [
        {
          "long_name": "\u9999\u6e2f",
          "short_name": "HK",
          "types": [
            "country",
            "political"
          ]
        }
      ],
      "formatted_address": "\u6148\u96f2 \u5c71 \u4e2d\u5fc3 3 \u6a13 308 \u865f \u92ea, \u9999\u6e2f",
      "geometry": {
        "location": {
          "lat": 22.348145,
          "lng": 114.2006
        },
        "location_type": "GEOMETRIC_CENTER",
        "viewport": {
          "northeast": {
            "lat": 22.3494939802915,
            "lng": 114.2019489802915
          },
          "southwest": {
            "lat": 22.3467960197085,
            "lng": 114.1992510197085
          }
        }
      },
      "place_id": "ChIJJ1ezed0GBDQRkhHhgovs7Cc",
      "plus_code": {
        "compound_code": "86X2+76 \u9999\u6e2f",
        "global_code": "7PJP86X2+76"
      },
      "types": [
        "establishment",
        "food",
        "point_of_interest",
        "restaurant"
      ]
    }
  ],
  "licno": "2253803201",
  "timestamp": 1564968756,
  "version": "1564966095"
}
