{
  "adr_en": "Munakata Beef House, SHOP B & E, G/F, HOI KWOK BUILDING, 44-54 LI TAK STREET, 20 KOK CHEUNG STREET, TAI KOK TSUI, MONG KOK, KOWLOON",
  "adr_tc": "\u4e5d\u9f8d\u65fa\u89d2\u5927\u89d2\u5480\u89d2\u7965\u885720\u865f\u5229\u5f97\u885744-54\u865f\u6d77\u89d2\u6a13\u5730\u4e0b B\u53caE\u8216 \u5b97\u50cf\u725b\u8089\u5c4b",
  "geocode_en": [
    {
      "address_components": [
        {
          "long_name": "52",
          "short_name": "52",
          "types": [
            "street_number"
          ]
        },
        {
          "long_name": "Li Tak Street",
          "short_name": "Li Tak St",
          "types": [
            "route"
          ]
        },
        {
          "long_name": "Tai Kok Tsui",
          "short_name": "Tai Kok Tsui",
          "types": [
            "neighborhood",
            "political"
          ]
        },
        {
          "long_name": "Kowloon",
          "short_name": "Kowloon",
          "types": [
            "administrative_area_level_1",
            "political"
          ]
        },
        {
          "long_name": "Hong Kong",
          "short_name": "HK",
          "types": [
            "country",
            "political"
          ]
        }
      ],
      "formatted_address": "52 Li Tak St, Tai Kok Tsui, Hong Kong",
      "geometry": {
        "location": {
          "lat": 22.3209806,
          "lng": 114.1605487
        },
        "location_type": "ROOFTOP",
        "viewport": {
          "northeast": {
            "lat": 22.3223295802915,
            "lng": 114.1618976802915
          },
          "southwest": {
            "lat": 22.3196316197085,
            "lng": 114.1591997197085
          }
        }
      },
      "partial_match": true,
      "place_id": "ChIJ87BjDroABDQR-9NklOgaEQw",
      "plus_code": {
        "compound_code": "85C6+96 Hong Kong",
        "global_code": "7PJP85C6+96"
      },
      "types": [
        "establishment",
        "food",
        "point_of_interest",
        "restaurant"
      ]
    },
    {
      "address_components": [
        {
          "long_name": "Hoi Kwok Building",
          "short_name": "Hoi Kwok Building",
          "types": [
            "premise"
          ]
        },
        {
          "long_name": "44-52",
          "short_name": "44-52",
          "types": [
            "street_number"
          ]
        },
        {
          "long_name": "Li Tak Street",
          "short_name": "Li Tak St",
          "types": [
            "route"
          ]
        },
        {
          "long_name": "Tai Kok Tsui",
          "short_name": "Tai Kok Tsui",
          "types": [
            "neighborhood",
            "political"
          ]
        },
        {
          "long_name": "Kowloon",
          "short_name": "Kowloon",
          "types": [
            "administrative_area_level_1",
            "political"
          ]
        },
        {
          "long_name": "Hong Kong",
          "short_name": "HK",
          "types": [
            "country",
            "political"
          ]
        }
      ],
      "formatted_address": "Hoi Kwok Building, 44-52 Li Tak St, Tai Kok Tsui, Hong Kong",
      "geometry": {
        "bounds": {
          "northeast": {
            "lat": 22.3211111,
            "lng": 114.160807
          },
          "southwest": {
            "lat": 22.320961,
            "lng": 114.16044
          }
        },
        "location": {
          "lat": 22.3210574,
          "lng": 114.160633
        },
        "location_type": "ROOFTOP",
        "viewport": {
          "northeast": {
            "lat": 22.3223850302915,
            "lng": 114.1619724802915
          },
          "southwest": {
            "lat": 22.3196870697085,
            "lng": 114.1592745197085
          }
        }
      },
      "partial_match": true,
      "place_id": "ChIJNSzTDboABDQRGjEpq4F5CNE",
      "types": [
        "premise"
      ]
    }
  ],
  "geocode_tc": [
    {
      "address_components": [
        {
          "long_name": "\u6d77\u89d2\u6a13",
          "short_name": "\u6d77\u89d2\u6a13",
          "types": [
            "premise"
          ]
        },
        {
          "long_name": "44-52",
          "short_name": "44-52",
          "types": [
            "street_number"
          ]
        },
        {
          "long_name": "\u5229\u5f97\u8857",
          "short_name": "\u5229\u5f97\u8857",
          "types": [
            "route"
          ]
        },
        {
          "long_name": "\u5927\u89d2\u5480",
          "short_name": "\u5927\u89d2\u5480",
          "types": [
            "neighborhood",
            "political"
          ]
        },
        {
          "long_name": "\u4e5d\u9f8d",
          "short_name": "\u4e5d\u9f8d",
          "types": [
            "administrative_area_level_1",
            "political"
          ]
        },
        {
          "long_name": "\u9999\u6e2f",
          "short_name": "HK",
          "types": [
            "country",
            "political"
          ]
        }
      ],
      "formatted_address": "\u9999\u6e2f\u5927\u89d2\u5480\u5229\u5f97\u885744-52\u865f\u6d77\u89d2\u6a13",
      "geometry": {
        "bounds": {
          "northeast": {
            "lat": 22.3211111,
            "lng": 114.160807
          },
          "southwest": {
            "lat": 22.320961,
            "lng": 114.16044
          }
        },
        "location": {
          "lat": 22.3210574,
          "lng": 114.160633
        },
        "location_type": "ROOFTOP",
        "viewport": {
          "northeast": {
            "lat": 22.3223850302915,
            "lng": 114.1619724802915
          },
          "southwest": {
            "lat": 22.3196870697085,
            "lng": 114.1592745197085
          }
        }
      },
      "partial_match": true,
      "place_id": "ChIJNSzTDboABDQRGjEpq4F5CNE",
      "types": [
        "premise"
      ]
    },
    {
      "address_components": [
        {
          "long_name": "20",
          "short_name": "20",
          "types": [
            "street_number"
          ]
        },
        {
          "long_name": "\u89d2\u7965\u8857",
          "short_name": "\u89d2\u7965\u8857",
          "types": [
            "route"
          ]
        },
        {
          "long_name": "\u5927\u89d2\u5480",
          "short_name": "\u5927\u89d2\u5480",
          "types": [
            "neighborhood",
            "political"
          ]
        },
        {
          "long_name": "\u4e5d\u9f8d",
          "short_name": "\u4e5d\u9f8d",
          "types": [
            "administrative_area_level_1",
            "political"
          ]
        },
        {
          "long_name": "\u9999\u6e2f",
          "short_name": "HK",
          "types": [
            "country",
            "political"
          ]
        }
      ],
      "formatted_address": "\u9999\u6e2f\u5927\u89d2\u5480\u89d2\u7965\u885720\u865f",
      "geometry": {
        "location": {
          "lat": 22.321072,
          "lng": 114.160491
        },
        "location_type": "ROOFTOP",
        "viewport": {
          "northeast": {
            "lat": 22.3224209802915,
            "lng": 114.1618399802915
          },
          "southwest": {
            "lat": 22.31972301970849,
            "lng": 114.1591420197085
          }
        }
      },
      "partial_match": true,
      "place_id": "ChIJP3BUDLoABDQRuOI_ERCx-BQ",
      "plus_code": {
        "compound_code": "85C6+C5 \u9999\u6e2f",
        "global_code": "7PJP85C6+C5"
      },
      "types": [
        "street_address"
      ]
    },
    {
      "address_components": [
        {
          "long_name": "52",
          "short_name": "52",
          "types": [
            "street_number"
          ]
        },
        {
          "long_name": "\u5229\u5f97\u8857",
          "short_name": "\u5229\u5f97\u8857",
          "types": [
            "route"
          ]
        },
        {
          "long_name": "\u5927\u89d2\u5480",
          "short_name": "\u5927\u89d2\u5480",
          "types": [
            "neighborhood",
            "political"
          ]
        },
        {
          "long_name": "\u4e5d\u9f8d",
          "short_name": "\u4e5d\u9f8d",
          "types": [
            "administrative_area_level_1",
            "political"
          ]
        },
        {
          "long_name": "\u9999\u6e2f",
          "short_name": "HK",
          "types": [
            "country",
            "political"
          ]
        }
      ],
      "formatted_address": "\u9999\u6e2f\u5927\u89d2\u5480\u5229\u5f97\u885752\u865f",
      "geometry": {
        "location": {
          "lat": 22.3209806,
          "lng": 114.1605487
        },
        "location_type": "ROOFTOP",
        "viewport": {
          "northeast": {
            "lat": 22.3223295802915,
            "lng": 114.1618976802915
          },
          "southwest": {
            "lat": 22.3196316197085,
            "lng": 114.1591997197085
          }
        }
      },
      "partial_match": true,
      "place_id": "ChIJ87BjDroABDQR-9NklOgaEQw",
      "plus_code": {
        "compound_code": "85C6+96 \u9999\u6e2f",
        "global_code": "7PJP85C6+96"
      },
      "types": [
        "establishment",
        "food",
        "point_of_interest",
        "restaurant"
      ]
    }
  ],
  "licno": "2262813493",
  "timestamp": 1564968756,
  "version": "1564966095"
}
