{
  "adr_en": "Cafe de Coral, SHOP NO. 101A, 1/F, KWONG TIN SHOPPING CENTRE, LAM TIN, KOWLOON",
  "adr_tc": "\u4e5d\u9f8d\u85cd\u7530\u5ee3\u7530\u5546\u5834\u4e00\u6a13101A\u865f\u8216 \u5927\u5bb6\u6a02",
  "geocode_en": [
    {
      "address_components": [
        {
          "long_name": "168",
          "short_name": "168",
          "types": [
            "street_number"
          ]
        },
        {
          "long_name": "Pik Wan Road",
          "short_name": "Pik Wan Rd",
          "types": [
            "route"
          ]
        },
        {
          "long_name": "Kwun Tong",
          "short_name": "Kwun Tong",
          "types": [
            "neighborhood",
            "political"
          ]
        },
        {
          "long_name": "Kowloon",
          "short_name": "Kowloon",
          "types": [
            "administrative_area_level_1",
            "political"
          ]
        },
        {
          "long_name": "Hong Kong",
          "short_name": "HK",
          "types": [
            "country",
            "political"
          ]
        }
      ],
      "formatted_address": "\u865f, 168 Pik Wan Rd, Kwun Tong, Hong Kong",
      "geometry": {
        "location": {
          "lat": 22.3028979,
          "lng": 114.2396449
        },
        "location_type": "ROOFTOP",
        "viewport": {
          "northeast": {
            "lat": 22.3042468802915,
            "lng": 114.2409938802915
          },
          "southwest": {
            "lat": 22.30154891970849,
            "lng": 114.2382959197085
          }
        }
      },
      "partial_match": true,
      "place_id": "ChIJt7IV--EDBDQRPC3cF2U434U",
      "plus_code": {
        "compound_code": "863Q+5V Hong Kong",
        "global_code": "7PJP863Q+5V"
      },
      "types": [
        "establishment",
        "point_of_interest",
        "shopping_mall"
      ]
    },
    {
      "address_components": [
        {
          "long_name": "Lam Tin",
          "short_name": "Lam Tin",
          "types": [
            "neighborhood",
            "political"
          ]
        },
        {
          "long_name": "Kowloon",
          "short_name": "Kowloon",
          "types": [
            "administrative_area_level_1",
            "political"
          ]
        },
        {
          "long_name": "Hong Kong",
          "short_name": "HK",
          "types": [
            "country",
            "political"
          ]
        }
      ],
      "formatted_address": "Lam Tin, Hong Kong",
      "geometry": {
        "bounds": {
          "northeast": {
            "lat": 22.3176442,
            "lng": 114.2445409
          },
          "southwest": {
            "lat": 22.3034356,
            "lng": 114.2307665
          }
        },
        "location": {
          "lat": 22.3080199,
          "lng": 114.2375638
        },
        "location_type": "APPROXIMATE",
        "viewport": {
          "northeast": {
            "lat": 22.3176442,
            "lng": 114.2445409
          },
          "southwest": {
            "lat": 22.3034356,
            "lng": 114.2307665
          }
        }
      },
      "partial_match": true,
      "place_id": "ChIJhfHoFlgBBDQRYMo4jzN3Q3Y",
      "types": [
        "neighborhood",
        "political"
      ]
    }
  ],
  "geocode_tc": [
    {
      "address_components": [
        {
          "long_name": "\u85cd\u7530",
          "short_name": "\u85cd\u7530",
          "types": [
            "neighborhood",
            "political"
          ]
        },
        {
          "long_name": "\u9999\u6e2f",
          "short_name": "HK",
          "types": [
            "country",
            "political"
          ]
        }
      ],
      "formatted_address": "\u9999\u6e2f\u85cd\u7530\u5ee3\u7530\u5546\u58341\u6a13101A\u865f\u8216",
      "geometry": {
        "location": {
          "lat": 22.302647,
          "lng": 114.2400613
        },
        "location_type": "GEOMETRIC_CENTER",
        "viewport": {
          "northeast": {
            "lat": 22.3039959802915,
            "lng": 114.2414102802915
          },
          "southwest": {
            "lat": 22.3012980197085,
            "lng": 114.2387123197085
          }
        }
      },
      "place_id": "ChIJt7IV--EDBDQRTX6To7kcw9k",
      "plus_code": {
        "compound_code": "863R+32 \u9999\u6e2f",
        "global_code": "7PJP863R+32"
      },
      "types": [
        "establishment",
        "food",
        "point_of_interest",
        "restaurant"
      ]
    }
  ],
  "licno": "2251801919",
  "timestamp": 1564968756,
  "version": "1564966095"
}
