{
  "adr_en": "Shiki Etsu Japanese Restaurant / Seasons Plus, SHOP NOS. 101, 102, 103, 104 AND 105, 1/F., MANHATTAN PLACE, NO. 23 WANG TAI ROAD, KOWLOON BAY, KOWLOON",
  "adr_tc": "\u4e5d\u9f8d\u4e5d\u9f8d\u7063\u5b8f\u6cf0\u905323\u865fMANHATTAN PLACE 1\u6a13101,102,103,104\u53ca105\u865f\u8216 \u56db\u5b63\u6085\u65e5\u672c\u9910\u5ef3 / ---",
  "geocode_en": [
    {
      "address_components": [
        {
          "long_name": "Hong Kong",
          "short_name": "HK",
          "types": [
            "country",
            "political"
          ]
        }
      ],
      "formatted_address": "Hong Kong, \u91d1\u9418\u590f\u6128\u905316\u865f\u9060\u6771\u91d1\u878d\u4e2d\u5fc3\u95a3\u6a13",
      "geometry": {
        "location": {
          "lat": 22.2799422,
          "lng": 114.1640932
        },
        "location_type": "GEOMETRIC_CENTER",
        "viewport": {
          "northeast": {
            "lat": 22.28129118029151,
            "lng": 114.1654421802915
          },
          "southwest": {
            "lat": 22.2785932197085,
            "lng": 114.1627442197085
          }
        }
      },
      "partial_match": true,
      "place_id": "ChIJJ0RA5WYABDQRfHPhV5SFJio",
      "plus_code": {
        "compound_code": "75H7+XJ Hong Kong",
        "global_code": "7PJP75H7+XJ"
      },
      "types": [
        "establishment",
        "food",
        "point_of_interest",
        "restaurant"
      ]
    },
    {
      "address_components": [
        {
          "long_name": "1/F",
          "short_name": "1/F",
          "types": [
            "subpremise"
          ]
        },
        {
          "long_name": "Manhattan Place",
          "short_name": "Manhattan Place",
          "types": [
            "premise"
          ]
        },
        {
          "long_name": "Kowloon Bay",
          "short_name": "Kowloon Bay",
          "types": [
            "neighborhood",
            "political"
          ]
        },
        {
          "long_name": "Hong Kong",
          "short_name": "HK",
          "types": [
            "country",
            "political"
          ]
        }
      ],
      "formatted_address": "Shop 4-5, 1/F, Manhattan Place, Kowloon Bay, Hong Kong",
      "geometry": {
        "location": {
          "lat": 22.3198319,
          "lng": 114.2102576
        },
        "location_type": "ROOFTOP",
        "viewport": {
          "northeast": {
            "lat": 22.3211808802915,
            "lng": 114.2116065802915
          },
          "southwest": {
            "lat": 22.3184829197085,
            "lng": 114.2089086197085
          }
        }
      },
      "partial_match": true,
      "place_id": "ChIJn4H7a20BBDQRvGwIAGcZFMc",
      "plus_code": {
        "compound_code": "8696+W4 Hong Kong",
        "global_code": "7PJP8696+W4"
      },
      "types": [
        "establishment",
        "food",
        "point_of_interest",
        "restaurant"
      ]
    },
    {
      "address_components": [
        {
          "long_name": "105",
          "short_name": "105",
          "types": [
            "subpremise"
          ]
        },
        {
          "long_name": "Manhattan Place",
          "short_name": "Manhattan Place",
          "types": [
            "premise"
          ]
        },
        {
          "long_name": "Sheung Yee Road",
          "short_name": "Sheung Yee Rd",
          "types": [
            "route"
          ]
        },
        {
          "long_name": "Kowloon Bay",
          "short_name": "Kowloon Bay",
          "types": [
            "neighborhood",
            "political"
          ]
        },
        {
          "long_name": "Kowloon",
          "short_name": "Kowloon",
          "types": [
            "administrative_area_level_1",
            "political"
          ]
        },
        {
          "long_name": "Hong Kong",
          "short_name": "HK",
          "types": [
            "country",
            "political"
          ]
        }
      ],
      "formatted_address": "105, Manhattan Place, Sheung Yee Rd, Kowloon Bay, Hong Kong",
      "geometry": {
        "bounds": {
          "northeast": {
            "lat": 22.3202321,
            "lng": 114.210551
          },
          "southwest": {
            "lat": 22.31946,
            "lng": 114.209891
          }
        },
        "location": {
          "lat": 22.3198319,
          "lng": 114.2102576
        },
        "location_type": "ROOFTOP",
        "viewport": {
          "northeast": {
            "lat": 22.3211950302915,
            "lng": 114.2115699802915
          },
          "southwest": {
            "lat": 22.3184970697085,
            "lng": 114.2088720197085
          }
        }
      },
      "partial_match": true,
      "place_id": "EjsxMDUsIE1hbmhhdHRhbiBQbGFjZSwgU2hldW5nIFllZSBSZCwgS293bG9vbiBCYXksIEhvbmcgS29uZyIfGh0KFgoUChIJ8QX9GjQBBDQRlF_getGOPH0SAzEwNQ",
      "types": [
        "subpremise"
      ]
    },
    {
      "address_components": [
        {
          "long_name": "23",
          "short_name": "23",
          "types": [
            "street_number"
          ]
        },
        {
          "long_name": "Wang Tai Road",
          "short_name": "Wang Tai Rd",
          "types": [
            "route"
          ]
        },
        {
          "long_name": "Kowloon Bay",
          "short_name": "Kowloon Bay",
          "types": [
            "neighborhood",
            "political"
          ]
        },
        {
          "long_name": "Kowloon",
          "short_name": "Kowloon",
          "types": [
            "administrative_area_level_1",
            "political"
          ]
        },
        {
          "long_name": "Hong Kong",
          "short_name": "HK",
          "types": [
            "country",
            "political"
          ]
        }
      ],
      "formatted_address": "23 Wang Tai Rd, Kowloon Bay, Hong Kong",
      "geometry": {
        "location": {
          "lat": 22.3200265,
          "lng": 114.2099297
        },
        "location_type": "ROOFTOP",
        "viewport": {
          "northeast": {
            "lat": 22.3213754802915,
            "lng": 114.2112786802915
          },
          "southwest": {
            "lat": 22.3186775197085,
            "lng": 114.2085807197085
          }
        }
      },
      "partial_match": true,
      "place_id": "ChIJnSGgBTQBBDQR1hfVadislKM",
      "plus_code": {
        "compound_code": "86C5+2X Hong Kong",
        "global_code": "7PJP86C5+2X"
      },
      "types": [
        "street_address"
      ]
    }
  ],
  "geocode_tc": [
    {
      "address_components": [
        {
          "long_name": "23",
          "short_name": "23",
          "types": [
            "street_number"
          ]
        },
        {
          "long_name": "\u5b8f\u6cf0\u9053",
          "short_name": "\u5b8f\u6cf0\u9053",
          "types": [
            "route"
          ]
        },
        {
          "long_name": "\u4e5d\u9f8d\u7063",
          "short_name": "\u4e5d\u9f8d\u7063",
          "types": [
            "neighborhood",
            "political"
          ]
        },
        {
          "long_name": "\u4e5d\u9f8d",
          "short_name": "\u4e5d\u9f8d",
          "types": [
            "administrative_area_level_1",
            "political"
          ]
        },
        {
          "long_name": "\u9999\u6e2f",
          "short_name": "HK",
          "types": [
            "country",
            "political"
          ]
        }
      ],
      "formatted_address": "\u9999\u6e2f\u4e5d\u9f8d\u7063\u5b8f\u6cf0\u905323\u865f",
      "geometry": {
        "location": {
          "lat": 22.3200265,
          "lng": 114.2099297
        },
        "location_type": "ROOFTOP",
        "viewport": {
          "northeast": {
            "lat": 22.3213754802915,
            "lng": 114.2112786802915
          },
          "southwest": {
            "lat": 22.3186775197085,
            "lng": 114.2085807197085
          }
        }
      },
      "partial_match": true,
      "place_id": "ChIJnSGgBTQBBDQR1hfVadislKM",
      "plus_code": {
        "compound_code": "86C5+2X \u9999\u6e2f",
        "global_code": "7PJP86C5+2X"
      },
      "types": [
        "street_address"
      ]
    },
    {
      "address_components": [
        {
          "long_name": "\u865f\u8216",
          "short_name": "\u865f\u8216",
          "types": [
            "subpremise"
          ]
        },
        {
          "long_name": "Manhattan Place",
          "short_name": "Manhattan Place",
          "types": [
            "premise"
          ]
        },
        {
          "long_name": "Sheung Yee Road",
          "short_name": "Sheung Yee Rd",
          "types": [
            "route"
          ]
        },
        {
          "long_name": "Kowloon Bay",
          "short_name": "Kowloon Bay",
          "types": [
            "neighborhood",
            "political"
          ]
        },
        {
          "long_name": "Kowloon",
          "short_name": "Kowloon",
          "types": [
            "administrative_area_level_1",
            "political"
          ]
        },
        {
          "long_name": "\u9999\u6e2f",
          "short_name": "HK",
          "types": [
            "country",
            "political"
          ]
        }
      ],
      "formatted_address": "\u865f\u8216, Manhattan Place, Sheung Yee Rd, Kowloon Bay, \u9999\u6e2f",
      "geometry": {
        "bounds": {
          "northeast": {
            "lat": 22.3202321,
            "lng": 114.210551
          },
          "southwest": {
            "lat": 22.31946,
            "lng": 114.209891
          }
        },
        "location": {
          "lat": 22.3198319,
          "lng": 114.2102576
        },
        "location_type": "ROOFTOP",
        "viewport": {
          "northeast": {
            "lat": 22.3211950302915,
            "lng": 114.2115699802915
          },
          "southwest": {
            "lat": 22.3184970697085,
            "lng": 114.2088720197085
          }
        }
      },
      "partial_match": true,
      "place_id": "Ej7omZ_oiJYsIE1hbmhhdHRhbiBQbGFjZSwgU2hldW5nIFllZSBSZCwgS293bG9vbiBCYXksIEhvbmcgS29uZyIiGiAKFgoUChIJ8QX9GjQBBDQRlF_getGOPH0SBuiZn-iIlg",
      "types": [
        "subpremise"
      ]
    },
    {
      "address_components": [
        {
          "long_name": "1",
          "short_name": "1",
          "types": [
            "subpremise"
          ]
        },
        {
          "long_name": "Manhattan Place",
          "short_name": "Manhattan Place",
          "types": [
            "premise"
          ]
        },
        {
          "long_name": "Sheung Yee Road",
          "short_name": "Sheung Yee Rd",
          "types": [
            "route"
          ]
        },
        {
          "long_name": "Kowloon Bay",
          "short_name": "Kowloon Bay",
          "types": [
            "neighborhood",
            "political"
          ]
        },
        {
          "long_name": "Kowloon",
          "short_name": "Kowloon",
          "types": [
            "administrative_area_level_1",
            "political"
          ]
        },
        {
          "long_name": "\u9999\u6e2f",
          "short_name": "HK",
          "types": [
            "country",
            "political"
          ]
        }
      ],
      "formatted_address": "1, Manhattan Place, Sheung Yee Rd, Kowloon Bay, \u9999\u6e2f",
      "geometry": {
        "bounds": {
          "northeast": {
            "lat": 22.3202321,
            "lng": 114.210551
          },
          "southwest": {
            "lat": 22.31946,
            "lng": 114.209891
          }
        },
        "location": {
          "lat": 22.3198319,
          "lng": 114.2102576
        },
        "location_type": "ROOFTOP",
        "viewport": {
          "northeast": {
            "lat": 22.3211950302915,
            "lng": 114.2115699802915
          },
          "southwest": {
            "lat": 22.3184970697085,
            "lng": 114.2088720197085
          }
        }
      },
      "partial_match": true,
      "place_id": "EjkxLCBNYW5oYXR0YW4gUGxhY2UsIFNoZXVuZyBZZWUgUmQsIEtvd2xvb24gQmF5LCBIb25nIEtvbmciHRobChYKFAoSCfEF_Ro0AQQ0EZRf4HrRjjx9EgEx",
      "types": [
        "subpremise"
      ]
    },
    {
      "address_components": [
        {
          "long_name": "\u9999\u6e2f",
          "short_name": "HK",
          "types": [
            "country",
            "political"
          ]
        }
      ],
      "formatted_address": "\u9999\u6e2f\u91d1\u9418\u590f\u6128\u905316\u865f\u9060\u6771\u91d1\u878d\u4e2d\u5fc3\u95a3\u6a13",
      "geometry": {
        "location": {
          "lat": 22.2799422,
          "lng": 114.1640932
        },
        "location_type": "GEOMETRIC_CENTER",
        "viewport": {
          "northeast": {
            "lat": 22.28129118029151,
            "lng": 114.1654421802915
          },
          "southwest": {
            "lat": 22.2785932197085,
            "lng": 114.1627442197085
          }
        }
      },
      "partial_match": true,
      "place_id": "ChIJJ0RA5WYABDQRfHPhV5SFJio",
      "plus_code": {
        "compound_code": "75H7+XJ \u9999\u6e2f",
        "global_code": "7PJP75H7+XJ"
      },
      "types": [
        "establishment",
        "food",
        "point_of_interest",
        "restaurant"
      ]
    }
  ],
  "licno": "3851807569",
  "timestamp": 1564975666,
  "version": "1564966095"
}
