{
  "adr_en": "No Record, SHOP 5, G/F., KIN LEE BUILDING, NO. 140 JAFFE ROAD, WANCHAI, HONG KONG",
  "adr_tc": "\u9999\u6e2f\u7063\u4ed4\u8b1d\u6590\u9053140\u865f\u5efa\u5229\u5927\u5ec8\u5730\u4e0b5\u865f\u92ea \u6c92\u6709\u8a18\u9304",
  "geocode_en": [
    {
      "address_components": [
        {
          "long_name": "Kin Lee Building Block B",
          "short_name": "Kin Lee Building Block B",
          "types": [
            "premise"
          ]
        },
        {
          "long_name": "9-13A",
          "short_name": "9-13A",
          "types": [
            "street_number"
          ]
        },
        {
          "long_name": "O'brien Road",
          "short_name": "O'brien Rd",
          "types": [
            "route"
          ]
        },
        {
          "long_name": "Wan Chai",
          "short_name": "Wan Chai",
          "types": [
            "neighborhood",
            "political"
          ]
        },
        {
          "long_name": "Hong Kong Island",
          "short_name": "Hong Kong Island",
          "types": [
            "administrative_area_level_1",
            "political"
          ]
        },
        {
          "long_name": "Hong Kong",
          "short_name": "HK",
          "types": [
            "country",
            "political"
          ]
        }
      ],
      "formatted_address": "Kin Lee Building Block B, 9-13A O'brien Rd, Wan Chai, Hong Kong",
      "geometry": {
        "bounds": {
          "northeast": {
            "lat": 22.278656,
            "lng": 114.173561
          },
          "southwest": {
            "lat": 22.278521,
            "lng": 114.173344
          }
        },
        "location": {
          "lat": 22.2785778,
          "lng": 114.1734518
        },
        "location_type": "ROOFTOP",
        "viewport": {
          "northeast": {
            "lat": 22.2799374802915,
            "lng": 114.1748014802915
          },
          "southwest": {
            "lat": 22.27723951970849,
            "lng": 114.1721035197085
          }
        }
      },
      "partial_match": true,
      "place_id": "ChIJg3_5dlwABDQRUqW30I7lHp4",
      "types": [
        "premise"
      ]
    },
    {
      "address_components": [
        {
          "long_name": "140",
          "short_name": "140",
          "types": [
            "street_number"
          ]
        },
        {
          "long_name": "Jaffe Road",
          "short_name": "Jaffe Rd",
          "types": [
            "route"
          ]
        },
        {
          "long_name": "Wan Chai",
          "short_name": "Wan Chai",
          "types": [
            "neighborhood",
            "political"
          ]
        },
        {
          "long_name": "Hong Kong Island",
          "short_name": "Hong Kong Island",
          "types": [
            "administrative_area_level_1",
            "political"
          ]
        },
        {
          "long_name": "Hong Kong",
          "short_name": "HK",
          "types": [
            "country",
            "political"
          ]
        }
      ],
      "formatted_address": "140 Jaffe Rd, Wan Chai, Hong Kong",
      "geometry": {
        "location": {
          "lat": 22.2786195,
          "lng": 114.1737513
        },
        "location_type": "RANGE_INTERPOLATED",
        "viewport": {
          "northeast": {
            "lat": 22.2799684802915,
            "lng": 114.1751002802915
          },
          "southwest": {
            "lat": 22.27727051970849,
            "lng": 114.1724023197085
          }
        }
      },
      "partial_match": true,
      "place_id": "EiExNDAgSmFmZmUgUmQsIFdhbiBDaGFpLCBIb25nIEtvbmciGxIZChQKEgkDCx6KWwAENBH9CGCrj4MTbxCMAQ",
      "types": [
        "street_address"
      ]
    }
  ],
  "geocode_tc": [
    {
      "address_components": [
        {
          "long_name": "140",
          "short_name": "140",
          "types": [
            "street_number"
          ]
        },
        {
          "long_name": "\u8b1d\u6590\u9053",
          "short_name": "\u8b1d\u6590\u9053",
          "types": [
            "route"
          ]
        },
        {
          "long_name": "\u7063\u4ed4",
          "short_name": "\u7063\u4ed4",
          "types": [
            "neighborhood",
            "political"
          ]
        },
        {
          "long_name": "\u9999\u6e2f\u5cf6",
          "short_name": "\u9999\u6e2f\u5cf6",
          "types": [
            "administrative_area_level_1",
            "political"
          ]
        },
        {
          "long_name": "\u9999\u6e2f",
          "short_name": "HK",
          "types": [
            "country",
            "political"
          ]
        }
      ],
      "formatted_address": "\u9999\u6e2f\u7063\u4ed4\u8b1d\u6590\u9053140\u865f",
      "geometry": {
        "location": {
          "lat": 22.2786195,
          "lng": 114.1737513
        },
        "location_type": "RANGE_INTERPOLATED",
        "viewport": {
          "northeast": {
            "lat": 22.2799684802915,
            "lng": 114.1751002802915
          },
          "southwest": {
            "lat": 22.27727051970849,
            "lng": 114.1724023197085
          }
        }
      },
      "partial_match": true,
      "place_id": "EiExNDAgSmFmZmUgUmQsIFdhbiBDaGFpLCBIb25nIEtvbmciGxIZChQKEgkDCx6KWwAENBH9CGCrj4MTbxCMAQ",
      "types": [
        "street_address"
      ]
    },
    {
      "address_components": [
        {
          "long_name": "\u865f\u92ea",
          "short_name": "\u865f\u92ea",
          "types": [
            "subpremise"
          ]
        },
        {
          "long_name": "\u5efa\u5229\u5927\u5ec8B\u5ea7",
          "short_name": "\u5efa\u5229\u5927\u5ec8B\u5ea7",
          "types": [
            "premise"
          ]
        },
        {
          "long_name": "9-13A",
          "short_name": "9-13A",
          "types": [
            "street_number"
          ]
        },
        {
          "long_name": "\u67ef\u5e03\u9023\u9053",
          "short_name": "\u67ef\u5e03\u9023\u9053",
          "types": [
            "route"
          ]
        },
        {
          "long_name": "\u7063\u4ed4",
          "short_name": "\u7063\u4ed4",
          "types": [
            "neighborhood",
            "political"
          ]
        },
        {
          "long_name": "\u9999\u6e2f\u5cf6",
          "short_name": "\u9999\u6e2f\u5cf6",
          "types": [
            "administrative_area_level_1",
            "political"
          ]
        },
        {
          "long_name": "\u9999\u6e2f",
          "short_name": "HK",
          "types": [
            "country",
            "political"
          ]
        }
      ],
      "formatted_address": "\u9999\u6e2f\u7063\u4ed4\u67ef\u5e03\u9023\u90539-13A\u865f\u5efa\u5229\u5927\u5ec8B\u5ea7\u865f\u92ea",
      "geometry": {
        "bounds": {
          "northeast": {
            "lat": 22.278656,
            "lng": 114.173561
          },
          "southwest": {
            "lat": 22.278521,
            "lng": 114.173344
          }
        },
        "location": {
          "lat": 22.2785778,
          "lng": 114.1734518
        },
        "location_type": "ROOFTOP",
        "viewport": {
          "northeast": {
            "lat": 22.2799374802915,
            "lng": 114.1748014802915
          },
          "southwest": {
            "lat": 22.27723951970849,
            "lng": 114.1721035197085
          }
        }
      },
      "partial_match": true,
      "place_id": "EkfomZ_pi6osIEtpbiBMZWUgQnVpbGRpbmcgQmxvY2sgQiwgOS0xM0EgTydicmllbiBSZCwgV2FuIENoYWksIEhvbmcgS29uZyIiGiAKFgoUChIJg3_5dlwABDQRUqW30I7lHp4SBuiZn-mLqg",
      "types": [
        "subpremise"
      ]
    }
  ],
  "licno": "2212803901",
  "timestamp": 1564966180,
  "version": "1564966095"
}
