{
  "adr_en": "\u7cb5\u8700\u6a02, G/F. REAR BLOCK, 50 PENG CHAU WING ON STREET, PENG CHAU, NEW TERRITORIES",
  "adr_tc": "\u576a\u6d32\u6c38\u5b89\u885750\u865f\u5730\u4e0b\u5f8c\u5ea7 \u7cb5\u8700\u6a02",
  "geocode_en": [
    {
      "address_components": [
        {
          "long_name": "\u6a02, G/F. REAR",
          "short_name": "\u6a02, G/F. REAR",
          "types": [
            "subpremise"
          ]
        },
        {
          "long_name": "50",
          "short_name": "50",
          "types": [
            "street_number"
          ]
        },
        {
          "long_name": "Peng Chau Wing On Street",
          "short_name": "Peng Chau Wing On St",
          "types": [
            "route"
          ]
        },
        {
          "long_name": "Peng Chau",
          "short_name": "Peng Chau",
          "types": [
            "neighborhood",
            "political"
          ]
        },
        {
          "long_name": "New Territories",
          "short_name": "New Territories",
          "types": [
            "administrative_area_level_1",
            "political"
          ]
        },
        {
          "long_name": "Hong Kong",
          "short_name": "HK",
          "types": [
            "country",
            "political"
          ]
        }
      ],
      "formatted_address": "\u6a02, G/F. REAR, 50 Peng Chau Wing On St, Peng Chau, Hong Kong",
      "geometry": {
        "location": {
          "lat": 22.2855378,
          "lng": 114.038316
        },
        "location_type": "RANGE_INTERPOLATED",
        "viewport": {
          "northeast": {
            "lat": 22.2868867802915,
            "lng": 114.0396649802915
          },
          "southwest": {
            "lat": 22.2841888197085,
            "lng": 114.0369670197085
          }
        }
      },
      "partial_match": true,
      "place_id": "Ej3mqIIsIEcvRi4gUkVBUiwgNTAgUGVuZyBDaGF1IFdpbmcgT24gU3QsIFBlbmcgQ2hhdSwgSG9uZyBLb25nIi4aLAoaEhgKFAoSCX_4NWfd_QM0EdapXqJDIGjhEDISDuaogiwgRy9GLiBSRUFS",
      "types": [
        "subpremise"
      ]
    }
  ],
  "geocode_tc": [
    {
      "address_components": [
        {
          "long_name": "\u576a\u6d32\u6c38\u5b89\u8857",
          "short_name": "\u576a\u6d32\u6c38\u5b89\u8857",
          "types": [
            "route"
          ]
        },
        {
          "long_name": "\u576a\u6d32",
          "short_name": "\u576a\u6d32",
          "types": [
            "neighborhood",
            "political"
          ]
        },
        {
          "long_name": "\u65b0\u754c",
          "short_name": "\u65b0\u754c",
          "types": [
            "administrative_area_level_1",
            "political"
          ]
        },
        {
          "long_name": "\u9999\u6e2f",
          "short_name": "HK",
          "types": [
            "country",
            "political"
          ]
        }
      ],
      "formatted_address": "\u9999\u6e2f\u576a\u6d32\u576a\u6d32\u6c38\u5b89\u8857",
      "geometry": {
        "bounds": {
          "northeast": {
            "lat": 22.2863256,
            "lng": 114.0393233
          },
          "southwest": {
            "lat": 22.2839114,
            "lng": 114.0372792
          }
        },
        "location": {
          "lat": 22.2853921,
          "lng": 114.0384302
        },
        "location_type": "GEOMETRIC_CENTER",
        "viewport": {
          "northeast": {
            "lat": 22.2864674802915,
            "lng": 114.0396502302915
          },
          "southwest": {
            "lat": 22.2837695197085,
            "lng": 114.0369522697085
          }
        }
      },
      "partial_match": true,
      "place_id": "ChIJldTIX939AzQR15w4X51YF7s",
      "types": [
        "route"
      ]
    }
  ],
  "licno": "3117001085",
  "timestamp": 1564975666,
  "version": "1564966095"
}
