{
  "adr_en": "PP THAI FOOD, SHOP 1B, G/F, PHASE 1, HANG FUK BUILDING, 19 PING WUI STREET, YUEN LONG, NEW TERRITORIES",
  "adr_tc": "\u65b0\u754c\u5143\u6717\u5c4f\u6703\u885719\u865f\u5e78\u798f\u6a13\u4e00\u671f\u5730\u4e0b1B\u865f\u92ea PP THAI FOOD",
  "geocode_en": [
    {
      "address_components": [
        {
          "long_name": "Yuen Long",
          "short_name": "Yuen Long",
          "types": [
            "neighborhood",
            "political"
          ]
        },
        {
          "long_name": "New Territories",
          "short_name": "New Territories",
          "types": [
            "administrative_area_level_1",
            "political"
          ]
        },
        {
          "long_name": "Hong Kong",
          "short_name": "HK",
          "types": [
            "country",
            "political"
          ]
        }
      ],
      "formatted_address": "Yuen Long, Hong Kong",
      "geometry": {
        "location": {
          "lat": 22.4467039,
          "lng": 114.0211716
        },
        "location_type": "GEOMETRIC_CENTER",
        "viewport": {
          "northeast": {
            "lat": 22.4480528802915,
            "lng": 114.0225205802915
          },
          "southwest": {
            "lat": 22.4453549197085,
            "lng": 114.0198226197085
          }
        }
      },
      "partial_match": true,
      "place_id": "ChIJ16xDWJ7wAzQRt5qnO4Ob4mU",
      "plus_code": {
        "compound_code": "C2WC+MF Hong Kong",
        "global_code": "7PJPC2WC+MF"
      },
      "types": [
        "establishment",
        "food",
        "point_of_interest",
        "restaurant"
      ]
    },
    {
      "address_components": [
        {
          "long_name": "Hing Fook Building Phase I",
          "short_name": "Hing Fook Building Phase I",
          "types": [
            "premise"
          ]
        },
        {
          "long_name": "19",
          "short_name": "19",
          "types": [
            "street_number"
          ]
        },
        {
          "long_name": "Ping Wui Street",
          "short_name": "Ping Wui St",
          "types": [
            "route"
          ]
        },
        {
          "long_name": "Yuen Long",
          "short_name": "Yuen Long",
          "types": [
            "neighborhood",
            "political"
          ]
        },
        {
          "long_name": "New Territories",
          "short_name": "New Territories",
          "types": [
            "administrative_area_level_1",
            "political"
          ]
        },
        {
          "long_name": "Hong Kong",
          "short_name": "HK",
          "types": [
            "country",
            "political"
          ]
        }
      ],
      "formatted_address": "Hing Fook Building Phase I, 19 Ping Wui St, Yuen Long, Hong Kong",
      "geometry": {
        "bounds": {
          "northeast": {
            "lat": 22.4471039,
            "lng": 114.021933
          },
          "southwest": {
            "lat": 22.446629,
            "lng": 114.021147
          }
        },
        "location": {
          "lat": 22.4468877,
          "lng": 114.0215992
        },
        "location_type": "ROOFTOP",
        "viewport": {
          "northeast": {
            "lat": 22.4482154302915,
            "lng": 114.0228889802915
          },
          "southwest": {
            "lat": 22.4455174697085,
            "lng": 114.0201910197085
          }
        }
      },
      "partial_match": true,
      "place_id": "ChIJw6jv-J7wAzQRAID-PWWMUiI",
      "types": [
        "premise"
      ]
    }
  ],
  "geocode_tc": [
    {
      "address_components": [
        {
          "long_name": "\u5e78\u798f\u6a13\u4e00\u671f",
          "short_name": "\u5e78\u798f\u6a13\u4e00\u671f",
          "types": [
            "premise"
          ]
        },
        {
          "long_name": "19",
          "short_name": "19",
          "types": [
            "street_number"
          ]
        },
        {
          "long_name": "\u5c4f\u6703\u8857",
          "short_name": "\u5c4f\u6703\u8857",
          "types": [
            "route"
          ]
        },
        {
          "long_name": "\u5143\u6717",
          "short_name": "\u5143\u6717",
          "types": [
            "neighborhood",
            "political"
          ]
        },
        {
          "long_name": "\u65b0\u754c",
          "short_name": "\u65b0\u754c",
          "types": [
            "administrative_area_level_1",
            "political"
          ]
        },
        {
          "long_name": "\u9999\u6e2f",
          "short_name": "HK",
          "types": [
            "country",
            "political"
          ]
        }
      ],
      "formatted_address": "\u9999\u6e2f\u5143\u6717\u5c4f\u6703\u885719\u865f\u5e78\u798f\u6a13\u4e00\u671f",
      "geometry": {
        "bounds": {
          "northeast": {
            "lat": 22.4471039,
            "lng": 114.021933
          },
          "southwest": {
            "lat": 22.446629,
            "lng": 114.021147
          }
        },
        "location": {
          "lat": 22.4468877,
          "lng": 114.0215992
        },
        "location_type": "ROOFTOP",
        "viewport": {
          "northeast": {
            "lat": 22.4482154302915,
            "lng": 114.0228889802915
          },
          "southwest": {
            "lat": 22.4455174697085,
            "lng": 114.0201910197085
          }
        }
      },
      "partial_match": true,
      "place_id": "ChIJw6jv-J7wAzQRAID-PWWMUiI",
      "types": [
        "premise"
      ]
    },
    {
      "address_components": [
        {
          "long_name": "\u5143\u6717",
          "short_name": "\u5143\u6717",
          "types": [
            "neighborhood",
            "political"
          ]
        },
        {
          "long_name": "\u65b0\u754c",
          "short_name": "\u65b0\u754c",
          "types": [
            "administrative_area_level_1",
            "political"
          ]
        },
        {
          "long_name": "\u9999\u6e2f",
          "short_name": "HK",
          "types": [
            "country",
            "political"
          ]
        }
      ],
      "formatted_address": "\u9999\u6e2f\u5143\u6717",
      "geometry": {
        "location": {
          "lat": 22.4467039,
          "lng": 114.0211716
        },
        "location_type": "GEOMETRIC_CENTER",
        "viewport": {
          "northeast": {
            "lat": 22.4480528802915,
            "lng": 114.0225205802915
          },
          "southwest": {
            "lat": 22.4453549197085,
            "lng": 114.0198226197085
          }
        }
      },
      "partial_match": true,
      "place_id": "ChIJ16xDWJ7wAzQRt5qnO4Ob4mU",
      "plus_code": {
        "compound_code": "C2WC+MF \u9999\u6e2f",
        "global_code": "7PJPC2WC+MF"
      },
      "types": [
        "establishment",
        "food",
        "point_of_interest",
        "restaurant"
      ]
    }
  ],
  "licno": "3194801646",
  "timestamp": 1564975666,
  "version": "1564966095"
}
