{
  "adr_en": "\u7235\u58eb\u62c9\u9eb5, SHOPS 6 AND 7 ON THE GROUND FLOOR OF COMFORT COURT, NOS. 65-73 LUEN WO ROAD, FANLING, NEW TERRITORIES",
  "adr_tc": "\u65b0\u754c\u7c89\u5dba\u806f\u548c\u905365-73\u865f\u9326\u798f\u5927\u5ec8\u5730\u4e0b6\u865f\u53ca7\u865f\u92ea \u7235\u58eb\u62c9\u9eb5",
  "geocode_en": [
    {
      "address_components": [
        {
          "long_name": "Hong Kong",
          "short_name": "HK",
          "types": [
            "country",
            "political"
          ]
        }
      ],
      "formatted_address": "Hong Kong, \u7c89\u5dba\u806f\u548c\u589f\u806f\u660c\u88572\u865fA\u9326\u798f\u5927\u5ec8\u5730\u4e0b6\u865f\u8216",
      "geometry": {
        "location": {
          "lat": 22.498897,
          "lng": 114.1438478
        },
        "location_type": "GEOMETRIC_CENTER",
        "viewport": {
          "northeast": {
            "lat": 22.5002459802915,
            "lng": 114.1451967802915
          },
          "southwest": {
            "lat": 22.4975480197085,
            "lng": 114.1424988197085
          }
        }
      },
      "partial_match": true,
      "place_id": "ChIJRfntiR32AzQRJRYyruL9oPY",
      "plus_code": {
        "compound_code": "F4XV+HG Hong Kong",
        "global_code": "7PJPF4XV+HG"
      },
      "types": [
        "establishment",
        "food",
        "point_of_interest",
        "restaurant"
      ]
    },
    {
      "address_components": [
        {
          "long_name": "Comfort Court",
          "short_name": "Comfort Court",
          "types": [
            "premise"
          ]
        },
        {
          "long_name": "65-73",
          "short_name": "65-73",
          "types": [
            "street_number"
          ]
        },
        {
          "long_name": "Luen Wo Road",
          "short_name": "Luen Wo Rd",
          "types": [
            "route"
          ]
        },
        {
          "long_name": "Fanling",
          "short_name": "Fanling",
          "types": [
            "neighborhood",
            "political"
          ]
        },
        {
          "long_name": "New Territories",
          "short_name": "New Territories",
          "types": [
            "administrative_area_level_1",
            "political"
          ]
        },
        {
          "long_name": "Hong Kong",
          "short_name": "HK",
          "types": [
            "country",
            "political"
          ]
        }
      ],
      "formatted_address": "Comfort Court, 65-73 Luen Wo Rd, Fanling, Hong Kong",
      "geometry": {
        "bounds": {
          "northeast": {
            "lat": 22.4991009,
            "lng": 114.143954
          },
          "southwest": {
            "lat": 22.498923,
            "lng": 114.1437751
          }
        },
        "location": {
          "lat": 22.4990197,
          "lng": 114.1438773
        },
        "location_type": "ROOFTOP",
        "viewport": {
          "northeast": {
            "lat": 22.5003609302915,
            "lng": 114.1452135302915
          },
          "southwest": {
            "lat": 22.4976629697085,
            "lng": 114.1425155697085
          }
        }
      },
      "partial_match": true,
      "place_id": "ChIJu_7tiR32AzQRJnsBB0xJe1s",
      "types": [
        "premise"
      ]
    }
  ],
  "geocode_tc": [
    {
      "address_components": [
        {
          "long_name": "\u9999\u6e2f",
          "short_name": "HK",
          "types": [
            "country",
            "political"
          ]
        }
      ],
      "formatted_address": "\u9999\u6e2f\u7c89\u5dba\u806f\u548c\u589f\u806f\u660c\u88572\u865fA\u9326\u798f\u5927\u5ec8\u5730\u4e0b6\u865f\u8216",
      "geometry": {
        "location": {
          "lat": 22.498897,
          "lng": 114.1438478
        },
        "location_type": "GEOMETRIC_CENTER",
        "viewport": {
          "northeast": {
            "lat": 22.5002459802915,
            "lng": 114.1451967802915
          },
          "southwest": {
            "lat": 22.4975480197085,
            "lng": 114.1424988197085
          }
        }
      },
      "place_id": "ChIJRfntiR32AzQRJRYyruL9oPY",
      "plus_code": {
        "compound_code": "F4XV+HG \u9999\u6e2f",
        "global_code": "7PJPF4XV+HG"
      },
      "types": [
        "establishment",
        "food",
        "point_of_interest",
        "restaurant"
      ]
    }
  ],
  "licno": "3196800647",
  "timestamp": 1564975666,
  "version": "1564966095"
}
