{
  "adr_en": "\u5473\u7687\u9910\u5ef3\u5c0f\u5eda, G/F., LAI SHING BUILDING, 495A-497 NATHAN ROAD, YAU MA TEI, KOWLOON",
  "adr_tc": "\u4e5d\u9f8d\u6cb9\u9ebb\u5730\u5f4c\u6566\u9053495A-497\u865f \u9e97\u661f\u5927\u5ec8\u5730\u4e0b \u5473\u7687\u9910\u5ef3\u5c0f\u5eda",
  "geocode_en": [
    {
      "address_components": [
        {
          "long_name": "Kowloon",
          "short_name": "Kowloon",
          "types": [
            "administrative_area_level_1",
            "political"
          ]
        },
        {
          "long_name": "Hong Kong",
          "short_name": "HK",
          "types": [
            "country",
            "political"
          ]
        }
      ],
      "formatted_address": "Hong Kong, \u5f4c\u6566\u9053495A\u53ca497\u865f\u9e97\u661f\u5927\u5ec8\u5730\u4e0b",
      "geometry": {
        "location": {
          "lat": 22.3120028,
          "lng": 114.1706957
        },
        "location_type": "GEOMETRIC_CENTER",
        "viewport": {
          "northeast": {
            "lat": 22.3133517802915,
            "lng": 114.1720446802915
          },
          "southwest": {
            "lat": 22.3106538197085,
            "lng": 114.1693467197085
          }
        }
      },
      "place_id": "ChIJ9Z16_sAABDQR8AFYbSJpO0E",
      "plus_code": {
        "compound_code": "856C+R7 Hong Kong",
        "global_code": "7PJP856C+R7"
      },
      "types": [
        "establishment",
        "food",
        "point_of_interest",
        "restaurant"
      ]
    }
  ],
  "geocode_tc": [
    {
      "address_components": [
        {
          "long_name": "\u4e5d\u9f8d",
          "short_name": "\u4e5d\u9f8d",
          "types": [
            "administrative_area_level_1",
            "political"
          ]
        },
        {
          "long_name": "\u9999\u6e2f",
          "short_name": "HK",
          "types": [
            "country",
            "political"
          ]
        }
      ],
      "formatted_address": "\u9999\u6e2f\u5f4c\u6566\u9053495A\u53ca497\u865f\u9e97\u661f\u5927\u5ec8\u5730\u4e0b",
      "geometry": {
        "location": {
          "lat": 22.3120028,
          "lng": 114.1706957
        },
        "location_type": "GEOMETRIC_CENTER",
        "viewport": {
          "northeast": {
            "lat": 22.3133517802915,
            "lng": 114.1720446802915
          },
          "southwest": {
            "lat": 22.3106538197085,
            "lng": 114.1693467197085
          }
        }
      },
      "place_id": "ChIJ9Z16_sAABDQR8AFYbSJpO0E",
      "plus_code": {
        "compound_code": "856C+R7 \u9999\u6e2f",
        "global_code": "7PJP856C+R7"
      },
      "types": [
        "establishment",
        "food",
        "point_of_interest",
        "restaurant"
      ]
    },
    {
      "address_components": [
        {
          "long_name": "534",
          "short_name": "534",
          "types": [
            "street_number"
          ]
        },
        {
          "long_name": "\u5f4c\u6566\u9053",
          "short_name": "\u5f4c\u6566\u9053",
          "types": [
            "route"
          ]
        },
        {
          "long_name": "\u6cb9\u9ebb\u5730",
          "short_name": "\u6cb9\u9ebb\u5730",
          "types": [
            "neighborhood",
            "political"
          ]
        },
        {
          "long_name": "\u9999\u6e2f",
          "short_name": "HK",
          "types": [
            "country",
            "political"
          ]
        }
      ],
      "formatted_address": "\u9999\u6e2f\u6cb9\u9ebb\u5730\u5f4c\u6566\u9053534\u865f\u865f",
      "geometry": {
        "location": {
          "lat": 22.313523,
          "lng": 114.170822
        },
        "location_type": "ROOFTOP",
        "viewport": {
          "northeast": {
            "lat": 22.3148719802915,
            "lng": 114.1721709802915
          },
          "southwest": {
            "lat": 22.3121740197085,
            "lng": 114.1694730197085
          }
        }
      },
      "place_id": "ChIJpeClJ8EABDQR_I6mafy0SQQ",
      "plus_code": {
        "compound_code": "857C+C8 \u9999\u6e2f",
        "global_code": "7PJP857C+C8"
      },
      "types": [
        "establishment",
        "food",
        "point_of_interest",
        "restaurant"
      ]
    }
  ],
  "licno": "2261801028",
  "timestamp": 1564968756,
  "version": "1564966095"
}
