{
  "adr_en": "\u65b0\u5357\u5c71\u51b0\u5ba4, 101-102, G/F, NAM FUNG HOUSE, NAM SHAN ESTATE, SHEK KIP MEI, SHAM SHUI PO, KOWLOON",
  "adr_tc": "\u4e5d\u9f8d\u77f3\u7864\u5c3e\u5357\u5c71\u90a8\u5357\u8c50\u6a13\u5730\u4e0b 101 - 102 \u5ba4 \u65b0\u5357\u5c71\u51b0\u5ba4",
  "geocode_en": [
    {
      "address_components": [
        {
          "long_name": "Nam Shan Estate",
          "short_name": "Nam Shan Estate",
          "types": [
            "establishment",
            "point_of_interest",
            "transit_station"
          ]
        },
        {
          "long_name": "Kowloon",
          "short_name": "Kowloon",
          "types": [
            "administrative_area_level_1",
            "political"
          ]
        },
        {
          "long_name": "Hong Kong",
          "short_name": "HK",
          "types": [
            "country",
            "political"
          ]
        }
      ],
      "formatted_address": "Nam Shan Estate, Hong Kong",
      "geometry": {
        "location": {
          "lat": 22.332789,
          "lng": 114.170269
        },
        "location_type": "GEOMETRIC_CENTER",
        "viewport": {
          "northeast": {
            "lat": 22.3341379802915,
            "lng": 114.1716179802915
          },
          "southwest": {
            "lat": 22.3314400197085,
            "lng": 114.1689200197085
          }
        }
      },
      "place_id": "ChIJgxwmGTUHBDQRCSITy2p-ZMQ",
      "plus_code": {
        "compound_code": "85MC+44 Hong Kong",
        "global_code": "7PJP85MC+44"
      },
      "types": [
        "establishment",
        "point_of_interest",
        "transit_station"
      ]
    }
  ],
  "geocode_tc": [
    {
      "address_components": [
        {
          "long_name": "\u9999\u6e2f",
          "short_name": "HK",
          "types": [
            "country",
            "political"
          ]
        }
      ],
      "formatted_address": "\u9999\u6e2f\u77f3\u7864\u5c3e\u5357\u5c71\u6751\u5357\u8c50\u6a13101-102\u865f\u5730\u4e0b",
      "geometry": {
        "location": {
          "lat": 22.3332224,
          "lng": 114.1703809
        },
        "location_type": "GEOMETRIC_CENTER",
        "viewport": {
          "northeast": {
            "lat": 22.3345713802915,
            "lng": 114.1717298802915
          },
          "southwest": {
            "lat": 22.3318734197085,
            "lng": 114.1690319197085
          }
        }
      },
      "place_id": "ChIJA0U_HTUHBDQR0VL-IAH6dcc",
      "plus_code": {
        "compound_code": "85MC+75 \u9999\u6e2f",
        "global_code": "7PJP85MC+75"
      },
      "types": [
        "establishment",
        "food",
        "point_of_interest",
        "restaurant"
      ]
    }
  ],
  "licno": "2263804571",
  "timestamp": 1564968756,
  "version": "1564966095"
}
