{
  "adr_en": "\u592a\u5b50\u7c89\u9eb5, STALL NOS. 37-39, LG4,  CHEUNG HANG MARKET, CHEUNG HANG SHOPPING CENTRE, CHEUNG HANG ESTATE, TSING YI, NEW TERRITORIES",
  "adr_tc": "\u65b0\u754c\u9752\u8863\u9577\u4ea8\u90a8\u9577\u4ea8\u5546\u5834\u9577\u4ea8\u8857\u5e02LG4\u6a1337-39\u865f\u6a94 \u592a\u5b50\u7c89\u9eb5",
  "geocode_en": [
    {
      "address_components": [
        {
          "long_name": "Hong Kong",
          "short_name": "HK",
          "types": [
            "country",
            "political"
          ]
        }
      ],
      "formatted_address": "Hong Kong, \u5f4c\u6566\u905313\u865f\u8216",
      "geometry": {
        "location": {
          "lat": 22.324048,
          "lng": 114.168932
        },
        "location_type": "GEOMETRIC_CENTER",
        "viewport": {
          "northeast": {
            "lat": 22.3253969802915,
            "lng": 114.1702809802915
          },
          "southwest": {
            "lat": 22.3226990197085,
            "lng": 114.1675830197085
          }
        }
      },
      "partial_match": true,
      "place_id": "ChIJdWsvxskABDQRouV4gAac8Fw",
      "plus_code": {
        "compound_code": "85F9+JH Hong Kong",
        "global_code": "7PJP85F9+JH"
      },
      "types": [
        "establishment",
        "food",
        "point_of_interest",
        "restaurant"
      ]
    }
  ],
  "geocode_tc": [
    {
      "address_components": [
        {
          "long_name": "6",
          "short_name": "6",
          "types": [
            "street_number"
          ]
        },
        {
          "long_name": "\u5bee\u809a\u8def",
          "short_name": "\u5bee\u809a\u8def",
          "types": [
            "route"
          ]
        },
        {
          "long_name": "\u9752\u8863",
          "short_name": "\u9752\u8863",
          "types": [
            "neighborhood",
            "political"
          ]
        },
        {
          "long_name": "\u65b0\u754c",
          "short_name": "\u65b0\u754c",
          "types": [
            "administrative_area_level_1",
            "political"
          ]
        },
        {
          "long_name": "\u9999\u6e2f",
          "short_name": "HK",
          "types": [
            "country",
            "political"
          ]
        }
      ],
      "formatted_address": "\u9999\u6e2f\u9752\u8863\u5bee\u809a\u8def6\u865f",
      "geometry": {
        "location": {
          "lat": 22.354523,
          "lng": 114.097823
        },
        "location_type": "ROOFTOP",
        "viewport": {
          "northeast": {
            "lat": 22.3558719802915,
            "lng": 114.0991719802915
          },
          "southwest": {
            "lat": 22.3531740197085,
            "lng": 114.0964740197085
          }
        }
      },
      "partial_match": true,
      "place_id": "ChIJ-97kF9j4AzQRgACihXHDWlI",
      "plus_code": {
        "compound_code": "933X+R4 \u9999\u6e2f",
        "global_code": "7PJP933X+R4"
      },
      "types": [
        "establishment",
        "point_of_interest"
      ]
    },
    {
      "address_components": [
        {
          "long_name": "\u9999\u6e2f",
          "short_name": "HK",
          "types": [
            "country",
            "political"
          ]
        }
      ],
      "formatted_address": "\u9999\u6e2f\u5f4c\u6566\u905313\u865f\u8216",
      "geometry": {
        "location": {
          "lat": 22.324048,
          "lng": 114.168932
        },
        "location_type": "GEOMETRIC_CENTER",
        "viewport": {
          "northeast": {
            "lat": 22.3253969802915,
            "lng": 114.1702809802915
          },
          "southwest": {
            "lat": 22.3226990197085,
            "lng": 114.1675830197085
          }
        }
      },
      "partial_match": true,
      "place_id": "ChIJdWsvxskABDQRouV4gAac8Fw",
      "plus_code": {
        "compound_code": "85F9+JH \u9999\u6e2f",
        "global_code": "7PJP85F9+JH"
      },
      "types": [
        "establishment",
        "food",
        "point_of_interest",
        "restaurant"
      ]
    }
  ],
  "licno": "3191801399",
  "timestamp": 1564975666,
  "version": "1564966095"
}
