{
  "adr_en": "\u8b5a\u4ed4\u4e09\u54e5\u7c73\u7dda, UNITS 6, 7 AND 8, UPPER GROUND FLOOR, ENERGY PLAZA, 92 GRANVILLE ROAD, TSIM SHA TSUI EAST, KOWLOON",
  "adr_tc": "\u4e5d\u9f8d\u5c16\u6c99\u5480\u52a0\u9023\u5a01\u8001\u905392\u865f\u5e78\u798f\u4e2d\u5fc3\u9ad8\u5c64\u5730\u4e0b6,7\u53ca8\u865f\u55ae\u4f4d \u8b5a\u4ed4\u4e09\u54e5\u7c73\u7dda",
  "geocode_en": [
    {
      "address_components": [
        {
          "long_name": "\u5929\u8000\u90a8",
          "short_name": "\u5929\u8000\u90a8",
          "types": [
            "establishment",
            "point_of_interest"
          ]
        },
        {
          "long_name": "Tin Yiu Plaza",
          "short_name": "Tin Yiu Plaza",
          "types": [
            "premise"
          ]
        },
        {
          "long_name": "Tin Wu Road",
          "short_name": "Tin Wu Rd",
          "types": [
            "route"
          ]
        },
        {
          "long_name": "Tin Shui Wai",
          "short_name": "Tin Shui Wai",
          "types": [
            "neighborhood",
            "political"
          ]
        },
        {
          "long_name": "New Territories",
          "short_name": "New Territories",
          "types": [
            "administrative_area_level_1",
            "political"
          ]
        },
        {
          "long_name": "Hong Kong",
          "short_name": "HK",
          "types": [
            "country",
            "political"
          ]
        }
      ],
      "formatted_address": "Hong Kong, Tin Shui Wai, Tin Wu Rd, Tin Yiu Plaza, \u5929\u8000\u90a8\u4f4e\u5c64\u5730\u4e0b\u4e00\u6a13LG29\u53caLG30\u865f\u8216",
      "geometry": {
        "location": {
          "lat": 22.4509111,
          "lng": 114.0033633
        },
        "location_type": "ROOFTOP",
        "viewport": {
          "northeast": {
            "lat": 22.4522600802915,
            "lng": 114.0047122802915
          },
          "southwest": {
            "lat": 22.4495621197085,
            "lng": 114.0020143197085
          }
        }
      },
      "partial_match": true,
      "place_id": "ChIJr1e9wIDwAzQR6cQxMKnFTMo",
      "plus_code": {
        "compound_code": "F223+98 Hong Kong",
        "global_code": "7PJPF223+98"
      },
      "types": [
        "establishment",
        "food",
        "point_of_interest",
        "restaurant"
      ]
    },
    {
      "address_components": [
        {
          "long_name": "Energy Plaza",
          "short_name": "Energy Plaza",
          "types": [
            "premise"
          ]
        },
        {
          "long_name": "92",
          "short_name": "92",
          "types": [
            "street_number"
          ]
        },
        {
          "long_name": "Granville Road",
          "short_name": "Granville Rd",
          "types": [
            "route"
          ]
        },
        {
          "long_name": "Tsim Sha Tsui East",
          "short_name": "Tsim Sha Tsui East",
          "types": [
            "neighborhood",
            "political"
          ]
        },
        {
          "long_name": "Kowloon",
          "short_name": "Kowloon",
          "types": [
            "administrative_area_level_1",
            "political"
          ]
        },
        {
          "long_name": "Hong Kong",
          "short_name": "HK",
          "types": [
            "country",
            "political"
          ]
        }
      ],
      "formatted_address": "Energy Plaza, 92 Granville Rd, Tsim Sha Tsui East, Hong Kong",
      "geometry": {
        "bounds": {
          "northeast": {
            "lat": 22.3002771,
            "lng": 114.176996
          },
          "southwest": {
            "lat": 22.299724,
            "lng": 114.1764049
          }
        },
        "location": {
          "lat": 22.2999261,
          "lng": 114.1767262
        },
        "location_type": "ROOFTOP",
        "viewport": {
          "northeast": {
            "lat": 22.3013495302915,
            "lng": 114.1780494302915
          },
          "southwest": {
            "lat": 22.2986515697085,
            "lng": 114.1753514697085
          }
        }
      },
      "partial_match": true,
      "place_id": "ChIJu-djAu8ABDQRihCk9bsNRKA",
      "types": [
        "premise"
      ]
    }
  ],
  "geocode_tc": [
    {
      "address_components": [
        {
          "long_name": "\u9999\u6e2f",
          "short_name": "HK",
          "types": [
            "country",
            "political"
          ]
        }
      ],
      "formatted_address": "\u9999\u6e2f\u5c16\u6c99\u5480\u52a0\u9023\u5a01\u8001\u905392\u865f\u5e78\u798f\u4e2d\u5fc3UG 6-8\u865f\u8216",
      "geometry": {
        "location": {
          "lat": 22.300001,
          "lng": 114.1767
        },
        "location_type": "GEOMETRIC_CENTER",
        "viewport": {
          "northeast": {
            "lat": 22.3013499802915,
            "lng": 114.1780489802915
          },
          "southwest": {
            "lat": 22.29865201970849,
            "lng": 114.1753510197085
          }
        }
      },
      "place_id": "ChIJQ3xhAu8ABDQREsb88QAZAB8",
      "plus_code": {
        "compound_code": "852G+2M \u9999\u6e2f",
        "global_code": "7PJP852G+2M"
      },
      "types": [
        "establishment",
        "food",
        "point_of_interest",
        "restaurant"
      ]
    }
  ],
  "licno": "3161803891",
  "timestamp": 1564975666,
  "version": "1564966095"
}
