{
  "adr_en": "\u6d77\u71d5, G/F, 6 NG CHAU ROAD, PING CHE, FANLING, NEW TERRITORIES",
  "adr_tc": "\u65b0\u754c\u7c89\u5dba \u576a\u8f0b\u4e94\u6d32\u8def 6\u865f\u5730\u4e0b \u6d77\u71d5",
  "geocode_en": [
    {
      "address_components": [
        {
          "long_name": "Hong Kong",
          "short_name": "HK",
          "types": [
            "country",
            "political"
          ]
        }
      ],
      "formatted_address": "G/F, 6 Ng Chau Road, Ping Che, Fanling, New Territories, Hong Kong",
      "geometry": {
        "location": {
          "lat": 22.5236091,
          "lng": 114.1614712
        },
        "location_type": "GEOMETRIC_CENTER",
        "viewport": {
          "northeast": {
            "lat": 22.5249580802915,
            "lng": 114.1628201802915
          },
          "southwest": {
            "lat": 22.52226011970849,
            "lng": 114.1601222197085
          }
        }
      },
      "partial_match": true,
      "place_id": "ChIJWUrwchYKBDQRW4PO9onhoX4",
      "plus_code": {
        "compound_code": "G5F6+CH Hong Kong",
        "global_code": "7PJPG5F6+CH"
      },
      "types": [
        "establishment",
        "food",
        "point_of_interest",
        "restaurant"
      ]
    }
  ],
  "geocode_tc": [
    {
      "address_components": [
        {
          "long_name": "\u4e94\u6d32\u8def",
          "short_name": "\u4e94\u6d32\u8def",
          "types": [
            "route"
          ]
        },
        {
          "long_name": "\u576a\u8f0b",
          "short_name": "\u576a\u8f0b",
          "types": [
            "neighborhood",
            "political"
          ]
        },
        {
          "long_name": "\u65b0\u754c",
          "short_name": "\u65b0\u754c",
          "types": [
            "administrative_area_level_1",
            "political"
          ]
        },
        {
          "long_name": "\u9999\u6e2f",
          "short_name": "HK",
          "types": [
            "country",
            "political"
          ]
        }
      ],
      "formatted_address": "\u9999\u6e2f\u576a\u8f0b\u4e94\u6d32\u8def",
      "geometry": {
        "bounds": {
          "northeast": {
            "lat": 22.5322692,
            "lng": 114.1706884
          },
          "southwest": {
            "lat": 22.5220522,
            "lng": 114.1602846
          }
        },
        "location": {
          "lat": 22.5266302,
          "lng": 114.1660707
        },
        "location_type": "GEOMETRIC_CENTER",
        "viewport": {
          "northeast": {
            "lat": 22.5322692,
            "lng": 114.1706884
          },
          "southwest": {
            "lat": 22.5220522,
            "lng": 114.1602846
          }
        }
      },
      "partial_match": true,
      "place_id": "ChIJhV6KdBYKBDQRiwQ75GfTk2k",
      "types": [
        "route"
      ]
    },
    {
      "address_components": [
        {
          "long_name": "\u9999\u6e2f",
          "short_name": "HK",
          "types": [
            "country",
            "political"
          ]
        }
      ],
      "formatted_address": "G/F, 6 Ng Chau Road, Ping Che, Fanling, New Territories, \u9999\u6e2f",
      "geometry": {
        "location": {
          "lat": 22.5236091,
          "lng": 114.1614712
        },
        "location_type": "GEOMETRIC_CENTER",
        "viewport": {
          "northeast": {
            "lat": 22.5249580802915,
            "lng": 114.1628201802915
          },
          "southwest": {
            "lat": 22.52226011970849,
            "lng": 114.1601222197085
          }
        }
      },
      "partial_match": true,
      "place_id": "ChIJWUrwchYKBDQRW4PO9onhoX4",
      "plus_code": {
        "compound_code": "G5F6+CH \u9999\u6e2f",
        "global_code": "7PJPG5F6+CH"
      },
      "types": [
        "establishment",
        "food",
        "point_of_interest",
        "restaurant"
      ]
    }
  ],
  "licno": "3196000034",
  "timestamp": 1564975666,
  "version": "1564966095"
}
