{
  "adr_en": "MOCHI CAFE, SHOP D, G/F, HART AVENUE COURT, 19-23 HART AVENUE, TSIM SHA TSUI, KOWLOON",
  "adr_tc": "\u4e5d\u9f8d\u5c16\u6c99\u5480\u8d6b\u5fb7\u905319-23\u865f \u590f\u8559\u95a3\u5730\u4e0bD\u8216 \u4e07\u8c5a\u5c4b",
  "geocode_en": [
    {
      "address_components": [
        {
          "long_name": "19",
          "short_name": "19",
          "types": [
            "street_number"
          ]
        },
        {
          "long_name": "Hart Avenue",
          "short_name": "Hart Ave",
          "types": [
            "route"
          ]
        },
        {
          "long_name": "Tsim Sha Tsui",
          "short_name": "Tsim Sha Tsui",
          "types": [
            "neighborhood",
            "political"
          ]
        },
        {
          "long_name": "Kowloon",
          "short_name": "Kowloon",
          "types": [
            "administrative_area_level_1",
            "political"
          ]
        },
        {
          "long_name": "Hong Kong",
          "short_name": "HK",
          "types": [
            "country",
            "political"
          ]
        }
      ],
      "formatted_address": "19 Hart Ave, Tsim Sha Tsui, Hong Kong",
      "geometry": {
        "location": {
          "lat": 22.2980046,
          "lng": 114.1749031
        },
        "location_type": "ROOFTOP",
        "viewport": {
          "northeast": {
            "lat": 22.2993535802915,
            "lng": 114.1762520802915
          },
          "southwest": {
            "lat": 22.2966556197085,
            "lng": 114.1735541197085
          }
        }
      },
      "place_id": "ChIJswa8Fu4ABDQR9Y6-iy6lUH4",
      "plus_code": {
        "compound_code": "75XF+6X Hong Kong",
        "global_code": "7PJP75XF+6X"
      },
      "types": [
        "establishment",
        "food",
        "point_of_interest",
        "restaurant"
      ]
    }
  ],
  "geocode_tc": [
    {
      "address_components": [
        {
          "long_name": "\u5730\u4e0bD\u8216 \u4e07",
          "short_name": "\u5730\u4e0bD\u8216 \u4e07",
          "types": [
            "subpremise"
          ]
        },
        {
          "long_name": "\u590f\u8559\u95a3",
          "short_name": "\u590f\u8559\u95a3",
          "types": [
            "premise"
          ]
        },
        {
          "long_name": "19-23",
          "short_name": "19-23",
          "types": [
            "street_number"
          ]
        },
        {
          "long_name": "\u8d6b\u5fb7\u9053",
          "short_name": "\u8d6b\u5fb7\u9053",
          "types": [
            "route"
          ]
        },
        {
          "long_name": "\u5c16\u6c99\u5480",
          "short_name": "\u5c16\u6c99\u5480",
          "types": [
            "neighborhood",
            "political"
          ]
        },
        {
          "long_name": "\u4e5d\u9f8d",
          "short_name": "\u4e5d\u9f8d",
          "types": [
            "administrative_area_level_1",
            "political"
          ]
        },
        {
          "long_name": "\u9999\u6e2f",
          "short_name": "HK",
          "types": [
            "country",
            "political"
          ]
        }
      ],
      "formatted_address": "\u9999\u6e2f\u5c16\u6c99\u5480\u8d6b\u5fb7\u905319-23\u865f\u590f\u8559\u95a3\u5730\u4e0bD\u8216 \u4e07",
      "geometry": {
        "bounds": {
          "northeast": {
            "lat": 22.2979721,
            "lng": 114.1750111
          },
          "southwest": {
            "lat": 22.297826,
            "lng": 114.174889
          }
        },
        "location": {
          "lat": 22.297919,
          "lng": 114.1749381
        },
        "location_type": "ROOFTOP",
        "viewport": {
          "northeast": {
            "lat": 22.2992480302915,
            "lng": 114.1762990302915
          },
          "southwest": {
            "lat": 22.29655006970849,
            "lng": 114.1736010697085
          }
        }
      },
      "partial_match": true,
      "place_id": "EkvlnLDkuItE6IiWIOS4hywgSGFydCBBdmVudWUgQ291cnQsIDE5LTIzIEhhcnQgQXZlLCBUc2ltIFNoYSBUc3VpLCBIb25nIEtvbmciKhooChYKFAoSCZed9xbuAAQ0EZ6PslUIGuWwEg7lnLDkuItE6IiWIOS4hw",
      "types": [
        "subpremise"
      ]
    },
    {
      "address_components": [
        {
          "long_name": "\u9999\u6e2f",
          "short_name": "HK",
          "types": [
            "country",
            "political"
          ]
        }
      ],
      "formatted_address": "\u9999\u6e2f\u5c16\u6c99\u5480\u91d1\u99ac\u502b\u905342-44\u865f\u83ef\u61cb\u91d1\u99ac\u502b\u4e2d\u5fc3\u5730\u4e0b",
      "geometry": {
        "location": {
          "lat": 22.2985521,
          "lng": 114.1746439
        },
        "location_type": "GEOMETRIC_CENTER",
        "viewport": {
          "northeast": {
            "lat": 22.29990108029151,
            "lng": 114.1759928802915
          },
          "southwest": {
            "lat": 22.2972031197085,
            "lng": 114.1732949197085
          }
        }
      },
      "partial_match": true,
      "place_id": "ChIJPz29aO4ABDQR0HETl_ViCmI",
      "plus_code": {
        "compound_code": "75XF+CV \u9999\u6e2f",
        "global_code": "7PJP75XF+CV"
      },
      "types": [
        "establishment",
        "food",
        "point_of_interest",
        "restaurant"
      ]
    }
  ],
  "licno": "2261222852",
  "timestamp": 1564968756,
  "version": "1564966095"
}
