{
  "adr_en": "YING YING, PORTION D, 4/F., YOUTH SQUARE, 238 CHAI WAN ROAD, CHAI WAN, HONG KONG",
  "adr_tc": "\u9999\u6e2f\u67f4\u7063\u67f4\u7063\u9053238\u865f\u9752\u5e74\u5ee3\u58344/F, D\u90e8\u4efd \u701b\u76c8",
  "geocode_en": [
    {
      "address_components": [
        {
          "long_name": "Hong Kong",
          "short_name": "HK",
          "types": [
            "country",
            "political"
          ]
        }
      ],
      "formatted_address": "4/F, Youth Square, 238 Chai Wan Road, Hong Kong, Hong Kong",
      "geometry": {
        "location": {
          "lat": 22.263032,
          "lng": 114.236809
        },
        "location_type": "GEOMETRIC_CENTER",
        "viewport": {
          "northeast": {
            "lat": 22.2643809802915,
            "lng": 114.2381579802915
          },
          "southwest": {
            "lat": 22.2616830197085,
            "lng": 114.2354600197085
          }
        }
      },
      "place_id": "ChIJ238yW4gBBDQRlu_I12W966o",
      "plus_code": {
        "compound_code": "767P+6P Hong Kong",
        "global_code": "7PJP767P+6P"
      },
      "types": [
        "establishment",
        "food",
        "point_of_interest",
        "restaurant"
      ]
    }
  ],
  "geocode_tc": [
    {
      "address_components": [
        {
          "long_name": "\u9752\u5e74\u5ee3\u5834",
          "short_name": "\u9752\u5e74\u5ee3\u5834",
          "types": [
            "premise"
          ]
        },
        {
          "long_name": "238",
          "short_name": "238",
          "types": [
            "street_number"
          ]
        },
        {
          "long_name": "\u67f4\u7063\u9053",
          "short_name": "\u67f4\u7063\u9053",
          "types": [
            "route"
          ]
        },
        {
          "long_name": "\u67f4\u7063",
          "short_name": "\u67f4\u7063",
          "types": [
            "neighborhood",
            "political"
          ]
        },
        {
          "long_name": "\u9999\u6e2f\u5cf6",
          "short_name": "\u9999\u6e2f\u5cf6",
          "types": [
            "administrative_area_level_1",
            "political"
          ]
        },
        {
          "long_name": "\u9999\u6e2f",
          "short_name": "HK",
          "types": [
            "country",
            "political"
          ]
        }
      ],
      "formatted_address": "\u9999\u6e2f\u67f4\u7063\u67f4\u7063\u9053238\u865f\u9752\u5e74\u5ee3\u5834",
      "geometry": {
        "bounds": {
          "northeast": {
            "lat": 22.263291,
            "lng": 114.237085
          },
          "southwest": {
            "lat": 22.2627291,
            "lng": 114.2361219
          }
        },
        "location": {
          "lat": 22.263088,
          "lng": 114.2367279
        },
        "location_type": "ROOFTOP",
        "viewport": {
          "northeast": {
            "lat": 22.2643590302915,
            "lng": 114.2379524302915
          },
          "southwest": {
            "lat": 22.2616610697085,
            "lng": 114.2352544697085
          }
        }
      },
      "partial_match": true,
      "place_id": "ChIJQwhTWogBBDQRYtrRKzWzU8k",
      "types": [
        "premise"
      ]
    },
    {
      "address_components": [
        {
          "long_name": "\u9999\u6e2f",
          "short_name": "HK",
          "types": [
            "country",
            "political"
          ]
        }
      ],
      "formatted_address": "4/F, Youth Square, 238 Chai Wan Road, Hong Kong, \u9999\u6e2f",
      "geometry": {
        "location": {
          "lat": 22.263032,
          "lng": 114.236809
        },
        "location_type": "GEOMETRIC_CENTER",
        "viewport": {
          "northeast": {
            "lat": 22.2643809802915,
            "lng": 114.2381579802915
          },
          "southwest": {
            "lat": 22.2616830197085,
            "lng": 114.2354600197085
          }
        }
      },
      "partial_match": true,
      "place_id": "ChIJ238yW4gBBDQRlu_I12W966o",
      "plus_code": {
        "compound_code": "767P+6P \u9999\u6e2f",
        "global_code": "7PJP767P+6P"
      },
      "types": [
        "establishment",
        "food",
        "point_of_interest",
        "restaurant"
      ]
    }
  ],
  "licno": "2211805007",
  "timestamp": 1564966180,
  "version": "1564966095"
}
