{
  "adr_en": "Golden Traditional Noodles, SHOP NO. 8, G/F, UN CHAU SHOPPING CENTRE CAR PARK, UN CHAU ESTATE, 303 UN CHAU STREET, CHEUNG SHA WAN, KOWLOON",
  "adr_tc": "\u4e5d\u9f8d\u9577\u6c99\u7063\u5143\u5dde\u8857303\u865f\u5143\u5dde\u90a8\u5143\u5dde\u5546\u5834\u505c\u8eca\u5834\u5730\u4e0b8\u865f\u8216 \u91d1\u4ed4\u7c73\u7dda",
  "geocode_en": [
    {
      "address_components": [
        {
          "long_name": "Hong Kong",
          "short_name": "HK",
          "types": [
            "country",
            "political"
          ]
        }
      ],
      "formatted_address": "Hong Kong, \u9577\u6c99\u7063 \u5143\u5dde\u90a8\u5143\u5dde\u5546\u5834\u5730\u4e0b8\u865f\u8216",
      "geometry": {
        "location": {
          "lat": 22.3382076,
          "lng": 114.1553843
        },
        "location_type": "GEOMETRIC_CENTER",
        "viewport": {
          "northeast": {
            "lat": 22.3395565802915,
            "lng": 114.1567332802915
          },
          "southwest": {
            "lat": 22.3368586197085,
            "lng": 114.1540353197085
          }
        }
      },
      "partial_match": true,
      "place_id": "ChIJO2DDDlIHBDQRPBguAOOzK84",
      "plus_code": {
        "compound_code": "85Q4+75 Hong Kong",
        "global_code": "7PJP85Q4+75"
      },
      "types": [
        "establishment",
        "food",
        "point_of_interest",
        "restaurant"
      ]
    }
  ],
  "geocode_tc": [
    {
      "address_components": [
        {
          "long_name": "303",
          "short_name": "303",
          "types": [
            "street_number"
          ]
        },
        {
          "long_name": "\u5143\u5dde\u8857",
          "short_name": "\u5143\u5dde\u8857",
          "types": [
            "route"
          ]
        },
        {
          "long_name": "\u9577\u6c99\u7063",
          "short_name": "\u9577\u6c99\u7063",
          "types": [
            "neighborhood",
            "political"
          ]
        },
        {
          "long_name": "\u4e5d\u9f8d",
          "short_name": "\u4e5d\u9f8d",
          "types": [
            "administrative_area_level_1",
            "political"
          ]
        },
        {
          "long_name": "\u9999\u6e2f",
          "short_name": "HK",
          "types": [
            "country",
            "political"
          ]
        }
      ],
      "formatted_address": "\u9999\u6e2f\u9577\u6c99\u7063\u5143\u5dde\u8857303\u865f",
      "geometry": {
        "location": {
          "lat": 22.3372802,
          "lng": 114.1564573
        },
        "location_type": "ROOFTOP",
        "viewport": {
          "northeast": {
            "lat": 22.3386291802915,
            "lng": 114.1578062802915
          },
          "southwest": {
            "lat": 22.3359312197085,
            "lng": 114.1551083197085
          }
        }
      },
      "place_id": "ChIJH-n5kU0HBDQRT4G0fkoEzhk",
      "plus_code": {
        "compound_code": "85P4+WH \u9999\u6e2f",
        "global_code": "7PJP85P4+WH"
      },
      "types": [
        "establishment",
        "point_of_interest",
        "shopping_mall"
      ]
    },
    {
      "address_components": [
        {
          "long_name": "\u9999\u6e2f",
          "short_name": "HK",
          "types": [
            "country",
            "political"
          ]
        }
      ],
      "formatted_address": "\u9999\u6e2f\u9577\u6c99\u7063 \u5143\u5dde\u90a8\u5143\u5dde\u5546\u5834\u5730\u4e0b8\u865f\u8216",
      "geometry": {
        "location": {
          "lat": 22.3382076,
          "lng": 114.1553843
        },
        "location_type": "GEOMETRIC_CENTER",
        "viewport": {
          "northeast": {
            "lat": 22.3395565802915,
            "lng": 114.1567332802915
          },
          "southwest": {
            "lat": 22.3368586197085,
            "lng": 114.1540353197085
          }
        }
      },
      "place_id": "ChIJO2DDDlIHBDQRPBguAOOzK84",
      "plus_code": {
        "compound_code": "85Q4+75 \u9999\u6e2f",
        "global_code": "7PJP85Q4+75"
      },
      "types": [
        "establishment",
        "food",
        "point_of_interest",
        "restaurant"
      ]
    }
  ],
  "licno": "2263803091",
  "timestamp": 1564968756,
  "version": "1564966095"
}
