{
  "adr_en": "\u9802\u5143\u9b5a\u86cb\u5927\u738b, G/F. & COCKLOFT, NO. 36 GILMAN'S BAZAAR, CENTRAL, HONG KONG",
  "adr_tc": "\u9999\u6e2f\u4e2d\u74b0\u6a5f\u5229\u6587\u65b0\u885736\u865f\u5730\u4e0b\u53ca\u95a3\u6a13 \u9802\u5143\u9b5a\u86cb\u5927\u738b",
  "geocode_en": [
    {
      "address_components": [
        {
          "long_name": "Yow San Building",
          "short_name": "Yow San Building",
          "types": [
            "premise"
          ]
        },
        {
          "long_name": "36",
          "short_name": "36",
          "types": [
            "street_number"
          ]
        },
        {
          "long_name": "Gilman's Bazaar",
          "short_name": "Gilman's Bazaar",
          "types": [
            "route"
          ]
        },
        {
          "long_name": "Central",
          "short_name": "Central",
          "types": [
            "neighborhood",
            "political"
          ]
        },
        {
          "long_name": "Hong Kong Island",
          "short_name": "Hong Kong Island",
          "types": [
            "administrative_area_level_1",
            "political"
          ]
        },
        {
          "long_name": "Hong Kong",
          "short_name": "HK",
          "types": [
            "country",
            "political"
          ]
        }
      ],
      "formatted_address": "Yow San Building, 36 Gilman's Bazaar, Central, Hong Kong",
      "geometry": {
        "bounds": {
          "northeast": {
            "lat": 22.285374,
            "lng": 114.1544661
          },
          "southwest": {
            "lat": 22.285305,
            "lng": 114.1543909
          }
        },
        "location": {
          "lat": 22.2853386,
          "lng": 114.1544266
        },
        "location_type": "ROOFTOP",
        "viewport": {
          "northeast": {
            "lat": 22.2866884802915,
            "lng": 114.1557774802915
          },
          "southwest": {
            "lat": 22.2839905197085,
            "lng": 114.1530795197085
          }
        }
      },
      "partial_match": true,
      "place_id": "ChIJxxZownwABDQRcmnqRCZey0I",
      "types": [
        "premise"
      ]
    }
  ],
  "geocode_tc": [
    {
      "address_components": [
        {
          "long_name": "\u5730\u4e0b\u53ca",
          "short_name": "\u5730\u4e0b\u53ca",
          "types": [
            "subpremise"
          ]
        },
        {
          "long_name": "\u53c8\u65b0\u6a13",
          "short_name": "\u53c8\u65b0\u6a13",
          "types": [
            "premise"
          ]
        },
        {
          "long_name": "36",
          "short_name": "36",
          "types": [
            "street_number"
          ]
        },
        {
          "long_name": "\u6a5f\u5229\u6587\u65b0\u8857",
          "short_name": "\u6a5f\u5229\u6587\u65b0\u8857",
          "types": [
            "route"
          ]
        },
        {
          "long_name": "\u4e2d\u74b0",
          "short_name": "\u4e2d\u74b0",
          "types": [
            "neighborhood",
            "political"
          ]
        },
        {
          "long_name": "\u9999\u6e2f\u5cf6",
          "short_name": "\u9999\u6e2f\u5cf6",
          "types": [
            "administrative_area_level_1",
            "political"
          ]
        },
        {
          "long_name": "\u9999\u6e2f",
          "short_name": "HK",
          "types": [
            "country",
            "political"
          ]
        }
      ],
      "formatted_address": "\u9999\u6e2f\u4e2d\u74b0\u6a5f\u5229\u6587\u65b0\u885736\u865f\u53c8\u65b0\u6a13\u5730\u4e0b\u53ca",
      "geometry": {
        "bounds": {
          "northeast": {
            "lat": 22.285374,
            "lng": 114.1544661
          },
          "southwest": {
            "lat": 22.285305,
            "lng": 114.1543909
          }
        },
        "location": {
          "lat": 22.2853386,
          "lng": 114.1544266
        },
        "location_type": "ROOFTOP",
        "viewport": {
          "northeast": {
            "lat": 22.2866884802915,
            "lng": 114.1557774802915
          },
          "southwest": {
            "lat": 22.2839905197085,
            "lng": 114.1530795197085
          }
        }
      },
      "partial_match": true,
      "place_id": "EkPlnLDkuIvlj4osIFlvdyBTYW4gQnVpbGRpbmcsIDM2IEdpbG1hbidzIEJhemFhciwgQ2VudHJhbCwgSG9uZyBLb25nIiUaIwoWChQKEgnHFmjCfAAENBFyaepEJl7LQhIJ5Zyw5LiL5Y-K",
      "types": [
        "subpremise"
      ]
    }
  ],
  "licno": "3818814212",
  "timestamp": 1564975666,
  "version": "1564966095"
}
