{
  "adr_en": "TAKE FIVE, PORTION OF 2/F, 101 WAI YIP STREET, KWUN TONG, KOWLOON",
  "adr_tc": "\u4e5d\u9f8d\u89c0\u5858\u5049\u696d\u8857101\u865f\u4e8c\u6a13(\u90e8\u4efd) TAKE FIVE",
  "geocode_en": [
    {
      "address_components": [
        {
          "long_name": "2",
          "short_name": "2",
          "types": [
            "subpremise"
          ]
        },
        {
          "long_name": "Harbour View Tower",
          "short_name": "Harbour View Tower",
          "types": [
            "premise"
          ]
        },
        {
          "long_name": "101",
          "short_name": "101",
          "types": [
            "street_number"
          ]
        },
        {
          "long_name": "Wai Yip Street",
          "short_name": "Wai Yip St",
          "types": [
            "route"
          ]
        },
        {
          "long_name": "Kowloon",
          "short_name": "Kowloon",
          "types": [
            "administrative_area_level_1",
            "political"
          ]
        },
        {
          "long_name": "Hong Kong",
          "short_name": "HK",
          "types": [
            "country",
            "political"
          ]
        }
      ],
      "formatted_address": "2, Harbour View Tower, 101 Wai Yip St, Hong Kong",
      "geometry": {
        "bounds": {
          "northeast": {
            "lat": 22.316167,
            "lng": 114.2152041
          },
          "southwest": {
            "lat": 22.316025,
            "lng": 114.2150461
          }
        },
        "location": {
          "lat": 22.3160795,
          "lng": 114.2151106
        },
        "location_type": "ROOFTOP",
        "viewport": {
          "northeast": {
            "lat": 22.3174449802915,
            "lng": 114.2164740802915
          },
          "southwest": {
            "lat": 22.3147470197085,
            "lng": 114.2137761197085
          }
        }
      },
      "partial_match": true,
      "place_id": "EjAyLCBIYXJib3VyIFZpZXcgVG93ZXIsIDEwMSBXYWkgWWlwIFN0LCBIb25nIEtvbmciHRobChYKFAoSCQkwKCo2AQQ0ESbKNrsUyHZFEgEy",
      "types": [
        "subpremise"
      ]
    },
    {
      "address_components": [
        {
          "long_name": "F",
          "short_name": "F",
          "types": [
            "subpremise"
          ]
        },
        {
          "long_name": "Harbour View Tower",
          "short_name": "Harbour View Tower",
          "types": [
            "premise"
          ]
        },
        {
          "long_name": "101",
          "short_name": "101",
          "types": [
            "street_number"
          ]
        },
        {
          "long_name": "Wai Yip Street",
          "short_name": "Wai Yip St",
          "types": [
            "route"
          ]
        },
        {
          "long_name": "Kowloon",
          "short_name": "Kowloon",
          "types": [
            "administrative_area_level_1",
            "political"
          ]
        },
        {
          "long_name": "Hong Kong",
          "short_name": "HK",
          "types": [
            "country",
            "political"
          ]
        }
      ],
      "formatted_address": "F, Harbour View Tower, 101 Wai Yip St, Hong Kong",
      "geometry": {
        "bounds": {
          "northeast": {
            "lat": 22.316167,
            "lng": 114.2152041
          },
          "southwest": {
            "lat": 22.316025,
            "lng": 114.2150461
          }
        },
        "location": {
          "lat": 22.3160795,
          "lng": 114.2151106
        },
        "location_type": "ROOFTOP",
        "viewport": {
          "northeast": {
            "lat": 22.3174449802915,
            "lng": 114.2164740802915
          },
          "southwest": {
            "lat": 22.3147470197085,
            "lng": 114.2137761197085
          }
        }
      },
      "partial_match": true,
      "place_id": "EjBGLCBIYXJib3VyIFZpZXcgVG93ZXIsIDEwMSBXYWkgWWlwIFN0LCBIb25nIEtvbmciHRobChYKFAoSCQkwKCo2AQQ0ESbKNrsUyHZFEgFG",
      "types": [
        "subpremise"
      ]
    }
  ],
  "geocode_tc": [
    {
      "address_components": [
        {
          "long_name": "\u6a13(\u90e8\u4efd",
          "short_name": "\u6a13(\u90e8\u4efd",
          "types": [
            "subpremise"
          ]
        },
        {
          "long_name": "\u5b8f\u8208\u5de5\u696d\u5927\u5ec8",
          "short_name": "\u5b8f\u8208\u5de5\u696d\u5927\u5ec8",
          "types": [
            "premise"
          ]
        },
        {
          "long_name": "101A",
          "short_name": "101A",
          "types": [
            "street_number"
          ]
        },
        {
          "long_name": "\u5049\u696d\u8857",
          "short_name": "\u5049\u696d\u8857",
          "types": [
            "route"
          ]
        },
        {
          "long_name": "\u4e5d\u9f8d",
          "short_name": "\u4e5d\u9f8d",
          "types": [
            "administrative_area_level_1",
            "political"
          ]
        },
        {
          "long_name": "\u9999\u6e2f",
          "short_name": "HK",
          "types": [
            "country",
            "political"
          ]
        }
      ],
      "formatted_address": "\u9999\u6e2f\u5049\u696d\u8857101A\u865f\u5b8f\u8208\u5de5\u696d\u5927\u5ec8\u6a13(\u90e8\u4efd",
      "geometry": {
        "bounds": {
          "northeast": {
            "lat": 22.3161119,
            "lng": 114.215289
          },
          "southwest": {
            "lat": 22.315949,
            "lng": 114.2151099
          }
        },
        "location": {
          "lat": 22.3160212,
          "lng": 114.2152034
        },
        "location_type": "ROOFTOP",
        "viewport": {
          "northeast": {
            "lat": 22.3173794302915,
            "lng": 114.2165484302915
          },
          "southwest": {
            "lat": 22.3146814697085,
            "lng": 114.2138504697085
          }
        }
      },
      "partial_match": true,
      "place_id": "EkPmqJMo6YOo5Lu9LCBGZW4gSGluIEluZHVzdHJpYWwgQnVpbGRpbmcsIDEwMUEgV2FpIFlpcCBTdCwgSG9uZyBLb25nIiYaJAoWChQKEgkT2xYqNgEENBFIlK9QiQ5GsRIK5qiTKOmDqOS7vQ",
      "types": [
        "subpremise"
      ]
    },
    {
      "address_components": [
        {
          "long_name": "\u6d77\u666f\u4e2d\u5fc3",
          "short_name": "\u6d77\u666f\u4e2d\u5fc3",
          "types": [
            "premise"
          ]
        },
        {
          "long_name": "101",
          "short_name": "101",
          "types": [
            "street_number"
          ]
        },
        {
          "long_name": "\u5049\u696d\u8857",
          "short_name": "\u5049\u696d\u8857",
          "types": [
            "route"
          ]
        },
        {
          "long_name": "\u4e5d\u9f8d",
          "short_name": "\u4e5d\u9f8d",
          "types": [
            "administrative_area_level_1",
            "political"
          ]
        },
        {
          "long_name": "\u9999\u6e2f",
          "short_name": "HK",
          "types": [
            "country",
            "political"
          ]
        }
      ],
      "formatted_address": "\u9999\u6e2f\u5049\u696d\u8857101\u865f\u6d77\u666f\u4e2d\u5fc3",
      "geometry": {
        "bounds": {
          "northeast": {
            "lat": 22.316167,
            "lng": 114.2152041
          },
          "southwest": {
            "lat": 22.316025,
            "lng": 114.2150461
          }
        },
        "location": {
          "lat": 22.3160795,
          "lng": 114.2151106
        },
        "location_type": "ROOFTOP",
        "viewport": {
          "northeast": {
            "lat": 22.3174449802915,
            "lng": 114.2164740802915
          },
          "southwest": {
            "lat": 22.3147470197085,
            "lng": 114.2137761197085
          }
        }
      },
      "partial_match": true,
      "place_id": "ChIJCTAoKjYBBDQRJso2uxTIdkU",
      "types": [
        "premise"
      ]
    }
  ],
  "licno": "3951802769",
  "timestamp": 1564975666,
  "version": "1564966095"
}
