{
  "adr_en": "OCEAN CITY KARAOKE NIGHT CLUB, 8/F, BUCKINGHAM BUILDING, 317-321 NATHAN ROAD, JORDAN, KOWLOON",
  "adr_tc": "\u4e5d\u9f8d\u4f50\u6566\u5f4c\u6566\u9053317-321\u865f\u91d1\u6f22\u5927\u5ec88\u5b57\u6a13 \u6d77\u57ce\u5361\u62c9OK\u591c\u7e3d\u6703",
  "geocode_en": [
    {
      "address_components": [
        {
          "long_name": "Ocean City",
          "short_name": "Ocean City",
          "types": [
            "locality",
            "political"
          ]
        },
        {
          "long_name": "10, Ocean City",
          "short_name": "10, Ocean City",
          "types": [
            "administrative_area_level_3",
            "political"
          ]
        },
        {
          "long_name": "Worcester County",
          "short_name": "Worcester County",
          "types": [
            "administrative_area_level_2",
            "political"
          ]
        },
        {
          "long_name": "Maryland",
          "short_name": "MD",
          "types": [
            "administrative_area_level_1",
            "political"
          ]
        },
        {
          "long_name": "United States",
          "short_name": "US",
          "types": [
            "country",
            "political"
          ]
        }
      ],
      "formatted_address": "Ocean City, MD, USA",
      "geometry": {
        "bounds": {
          "northeast": {
            "lat": 38.451304,
            "lng": -75.04245759999999
          },
          "southwest": {
            "lat": 38.324385,
            "lng": -75.092918
          }
        },
        "location": {
          "lat": 38.3365032,
          "lng": -75.0849058
        },
        "location_type": "APPROXIMATE",
        "viewport": {
          "northeast": {
            "lat": 38.451304,
            "lng": -75.04245759999999
          },
          "southwest": {
            "lat": 38.324385,
            "lng": -75.092918
          }
        }
      },
      "partial_match": true,
      "place_id": "ChIJi96TrHHWuIkRchbzOlpxvLQ",
      "types": [
        "locality",
        "political"
      ]
    },
    {
      "address_components": [
        {
          "long_name": "Buckingham Building",
          "short_name": "Buckingham Building",
          "types": [
            "premise"
          ]
        },
        {
          "long_name": "317-321",
          "short_name": "317-321",
          "types": [
            "street_number"
          ]
        },
        {
          "long_name": "Nathan Road",
          "short_name": "Nathan Rd",
          "types": [
            "route"
          ]
        },
        {
          "long_name": "Yau Ma Tei",
          "short_name": "Yau Ma Tei",
          "types": [
            "neighborhood",
            "political"
          ]
        },
        {
          "long_name": "Kowloon",
          "short_name": "Kowloon",
          "types": [
            "administrative_area_level_1",
            "political"
          ]
        },
        {
          "long_name": "Hong Kong",
          "short_name": "HK",
          "types": [
            "country",
            "political"
          ]
        }
      ],
      "formatted_address": "Buckingham Building, 317-321 Nathan Rd, Yau Ma Tei, Hong Kong",
      "geometry": {
        "bounds": {
          "northeast": {
            "lat": 22.3064649,
            "lng": 114.1713949
          },
          "southwest": {
            "lat": 22.3061971,
            "lng": 114.171121
          }
        },
        "location": {
          "lat": 22.3063194,
          "lng": 114.1712922
        },
        "location_type": "ROOFTOP",
        "viewport": {
          "northeast": {
            "lat": 22.3076799802915,
            "lng": 114.1726069302915
          },
          "southwest": {
            "lat": 22.3049820197085,
            "lng": 114.1699089697085
          }
        }
      },
      "partial_match": true,
      "place_id": "ChIJq-GcUeoABDQRCpYaUILvb5A",
      "types": [
        "premise"
      ]
    }
  ],
  "geocode_tc": [
    {
      "address_components": [
        {
          "long_name": "\u9999\u6e2f",
          "short_name": "HK",
          "types": [
            "country",
            "political"
          ]
        }
      ],
      "formatted_address": "\u9999\u6e2f\u4f50\u6566\u5f4c\u6566\u9053317-321\u865f\u91d1\u6f22\u5927\u5ec88\u5b57\u6a13",
      "geometry": {
        "location": {
          "lat": 22.306272,
          "lng": 114.171259
        },
        "location_type": "GEOMETRIC_CENTER",
        "viewport": {
          "northeast": {
            "lat": 22.3076209802915,
            "lng": 114.1726079802915
          },
          "southwest": {
            "lat": 22.3049230197085,
            "lng": 114.1699100197085
          }
        }
      },
      "place_id": "ChIJO1EqUuoABDQRus4X7XEFCO4",
      "plus_code": {
        "compound_code": "854C+GG \u9999\u6e2f",
        "global_code": "7PJP854C+GG"
      },
      "types": [
        "establishment",
        "point_of_interest"
      ]
    },
    {
      "address_components": [
        {
          "long_name": "\u9999\u6e2f",
          "short_name": "HK",
          "types": [
            "country",
            "political"
          ]
        }
      ],
      "formatted_address": "\u9999\u6e2f\u4e5d\u9f8d\u4f50\u6566\u5f4c\u6566\u9053317-321\u865f4\u6a13",
      "geometry": {
        "location": {
          "lat": 22.306272,
          "lng": 114.171259
        },
        "location_type": "GEOMETRIC_CENTER",
        "viewport": {
          "northeast": {
            "lat": 22.3076209802915,
            "lng": 114.1726079802915
          },
          "southwest": {
            "lat": 22.3049230197085,
            "lng": 114.1699100197085
          }
        }
      },
      "place_id": "ChIJO1EqUuoABDQRnrnJr3X-gGE",
      "plus_code": {
        "compound_code": "854C+GG \u9999\u6e2f",
        "global_code": "7PJP854C+GG"
      },
      "types": [
        "establishment",
        "point_of_interest"
      ]
    }
  ],
  "licno": "3161801910",
  "timestamp": 1564975666,
  "version": "1564966095"
}
