{
  "adr_en": "SAPPORO RAMEN MISO NO. 1 KARAMI CURRY, SHOP G05, G/F, THE PARKSIDE, 18 TONG CHUN STREET, TSEUNG KWAN O, SAI KUNG, NEW TERRITORIES",
  "adr_tc": "\u65b0\u754c\u897f\u8ca2\u5c07\u8ecd\u6fb3\u5510\u4fca\u885718\u865fTHE PARKSIDE \u5730\u4e0b G05\u865f\u92ea \u672d\u5e4c\u62c9\u9eb5\u5473\u564c\u58f9\u8f9b\u5473\u5c4b",
  "geocode_en": [
    {
      "address_components": [
        {
          "long_name": "Sapporo",
          "short_name": "Sapporo",
          "types": [
            "locality",
            "political"
          ]
        },
        {
          "long_name": "Hokkaido",
          "short_name": "Hokkaido",
          "types": [
            "administrative_area_level_1",
            "political"
          ]
        },
        {
          "long_name": "Japan",
          "short_name": "JP",
          "types": [
            "country",
            "political"
          ]
        }
      ],
      "formatted_address": "Sapporo, Hokkaido, Japan",
      "geometry": {
        "bounds": {
          "northeast": {
            "lat": 43.190037,
            "lng": 141.5054669
          },
          "southwest": {
            "lat": 42.780728,
            "lng": 140.990491
          }
        },
        "location": {
          "lat": 43.0617713,
          "lng": 141.3544507
        },
        "location_type": "APPROXIMATE",
        "viewport": {
          "northeast": {
            "lat": 43.190037,
            "lng": 141.5054669
          },
          "southwest": {
            "lat": 42.780728,
            "lng": 140.990491
          }
        }
      },
      "partial_match": true,
      "place_id": "ChIJMzaXWnXUCl8R1bqHRp1-kzM",
      "types": [
        "locality",
        "political"
      ]
    },
    {
      "address_components": [
        {
          "long_name": "15\u865f",
          "short_name": "15\u865f",
          "types": [
            "street_number"
          ]
        },
        {
          "long_name": "Tong Chun Street",
          "short_name": "Tong Chun St",
          "types": [
            "route"
          ]
        },
        {
          "long_name": "Tseung Kwan O",
          "short_name": "Tseung Kwan O",
          "types": [
            "neighborhood",
            "political"
          ]
        },
        {
          "long_name": "New Territories",
          "short_name": "New Territories",
          "types": [
            "administrative_area_level_1",
            "political"
          ]
        },
        {
          "long_name": "Hong Kong",
          "short_name": "HK",
          "types": [
            "country",
            "political"
          ]
        }
      ],
      "formatted_address": "15\u865f Tong Chun St, Tseung Kwan O, Hong Kong",
      "geometry": {
        "location": {
          "lat": 22.3052945,
          "lng": 114.2606228
        },
        "location_type": "ROOFTOP",
        "viewport": {
          "northeast": {
            "lat": 22.3066434802915,
            "lng": 114.2619717802915
          },
          "southwest": {
            "lat": 22.3039455197085,
            "lng": 114.2592738197085
          }
        }
      },
      "partial_match": true,
      "place_id": "ChIJdW7OZO0DBDQRYuQxFZBLLRk",
      "plus_code": {
        "compound_code": "8746+46 Hong Kong",
        "global_code": "7PJP8746+46"
      },
      "types": [
        "establishment",
        "food",
        "point_of_interest",
        "restaurant"
      ]
    }
  ],
  "geocode_tc": [
    {
      "address_components": [
        {
          "long_name": "15\u865f",
          "short_name": "15\u865f",
          "types": [
            "street_number"
          ]
        },
        {
          "long_name": "\u5510\u4fca\u8857",
          "short_name": "\u5510\u4fca\u8857",
          "types": [
            "route"
          ]
        },
        {
          "long_name": "\u5c07\u8ecd\u6fb3",
          "short_name": "\u5c07\u8ecd\u6fb3",
          "types": [
            "neighborhood",
            "political"
          ]
        },
        {
          "long_name": "\u65b0\u754c",
          "short_name": "\u65b0\u754c",
          "types": [
            "administrative_area_level_1",
            "political"
          ]
        },
        {
          "long_name": "\u9999\u6e2f",
          "short_name": "HK",
          "types": [
            "country",
            "political"
          ]
        }
      ],
      "formatted_address": "\u9999\u6e2f\u5c07\u8ecd\u6fb3\u5510\u4fca\u885715\u865f",
      "geometry": {
        "location": {
          "lat": 22.3052945,
          "lng": 114.2606228
        },
        "location_type": "ROOFTOP",
        "viewport": {
          "northeast": {
            "lat": 22.3066434802915,
            "lng": 114.2619717802915
          },
          "southwest": {
            "lat": 22.3039455197085,
            "lng": 114.2592738197085
          }
        }
      },
      "partial_match": true,
      "place_id": "ChIJdW7OZO0DBDQRYuQxFZBLLRk",
      "plus_code": {
        "compound_code": "8746+46 \u9999\u6e2f",
        "global_code": "7PJP8746+46"
      },
      "types": [
        "establishment",
        "food",
        "point_of_interest",
        "restaurant"
      ]
    }
  ],
  "licno": "2298803253",
  "timestamp": 1564975666,
  "version": "1564966095"
}
