{
  "adr_en": "Xinrongji, SHOP E ON THE GROUND FLOOR AND SHOP D ON THE FIRST FLOOR WITH ENTRANCE ON THE GROUND FLOOR FRONTING HENNESSY ROAD, CHINA OVERSEAS BUILDING, NO. 139 HENNESSY ROAD AND NO. 138 LOCKHART ROAD, WAN CHAI, HONG KONG",
  "adr_tc": "\u9999\u6e2f\u7063\u4ed4\u8ed2\u5c3c\u8a69\u9053139\u865f\u53ca\u99f1\u514b\u9053138\u865f\u4e2d\u570b\u6d77\u5916\u5927\u5ec8 \u5730\u4e0bE\u92ea\u53ca\u4e00\u6a13D\u92ea\u9023\u5730\u4e0b\u9762\u5411\u8ed2\u5c3c\u8a69\u9053\u4e4b\u5165\u53e3 \u65b0\u69ae\u8a18",
  "geocode_en": [
    {
      "address_components": [
        {
          "long_name": "China Overseas Building",
          "short_name": "China Overseas Building",
          "types": [
            "premise"
          ]
        },
        {
          "long_name": "\u5730\u4e0b",
          "short_name": "\u5730\u4e0b",
          "types": [
            "neighborhood",
            "political"
          ]
        },
        {
          "long_name": "Hong Kong Island",
          "short_name": "Hong Kong Island",
          "types": [
            "administrative_area_level_1",
            "political"
          ]
        },
        {
          "long_name": "Hong Kong",
          "short_name": "HK",
          "types": [
            "country",
            "political"
          ]
        }
      ],
      "formatted_address": "China Overseas Building, \u5730\u4e0b Hong Kong",
      "geometry": {
        "location": {
          "lat": 22.2780278,
          "lng": 114.1727432
        },
        "location_type": "ROOFTOP",
        "viewport": {
          "northeast": {
            "lat": 22.2793767802915,
            "lng": 114.1740921802915
          },
          "southwest": {
            "lat": 22.2766788197085,
            "lng": 114.1713942197085
          }
        }
      },
      "partial_match": true,
      "place_id": "ChIJmacJY1wABDQRmhKRRZZuikI",
      "plus_code": {
        "compound_code": "75HF+63 Hong Kong",
        "global_code": "7PJP75HF+63"
      },
      "types": [
        "establishment",
        "food",
        "point_of_interest",
        "restaurant"
      ]
    },
    {
      "address_components": [
        {
          "long_name": "China Overseas Building",
          "short_name": "China Overseas Building",
          "types": [
            "premise"
          ]
        },
        {
          "long_name": "139",
          "short_name": "139",
          "types": [
            "street_number"
          ]
        },
        {
          "long_name": "Hennessy Road",
          "short_name": "Hennessy Rd",
          "types": [
            "route"
          ]
        },
        {
          "long_name": "Wan Chai",
          "short_name": "Wan Chai",
          "types": [
            "neighborhood",
            "political"
          ]
        },
        {
          "long_name": "Hong Kong Island",
          "short_name": "Hong Kong Island",
          "types": [
            "administrative_area_level_1",
            "political"
          ]
        },
        {
          "long_name": "Hong Kong",
          "short_name": "HK",
          "types": [
            "country",
            "political"
          ]
        }
      ],
      "formatted_address": "China Overseas Building, 139 Hennessy Rd, Wan Chai, Hong Kong",
      "geometry": {
        "bounds": {
          "northeast": {
            "lat": 22.277904,
            "lng": 114.1729869
          },
          "southwest": {
            "lat": 22.277689,
            "lng": 114.172568
          }
        },
        "location": {
          "lat": 22.2778337,
          "lng": 114.1727784
        },
        "location_type": "ROOFTOP",
        "viewport": {
          "northeast": {
            "lat": 22.2791454802915,
            "lng": 114.1741264302915
          },
          "southwest": {
            "lat": 22.27644751970849,
            "lng": 114.1714284697085
          }
        }
      },
      "partial_match": true,
      "place_id": "ChIJr8uCYlwABDQRtJrk7SfUjRg",
      "types": [
        "premise"
      ]
    }
  ],
  "geocode_tc": [
    {
      "address_components": [
        {
          "long_name": "138",
          "short_name": "138",
          "types": [
            "street_number"
          ]
        },
        {
          "long_name": "\u99f1\u514b\u9053",
          "short_name": "\u99f1\u514b\u9053",
          "types": [
            "route"
          ]
        },
        {
          "long_name": "\u7063\u4ed4",
          "short_name": "\u7063\u4ed4",
          "types": [
            "neighborhood",
            "political"
          ]
        },
        {
          "long_name": "\u9999\u6e2f\u5cf6",
          "short_name": "\u9999\u6e2f\u5cf6",
          "types": [
            "administrative_area_level_1",
            "political"
          ]
        },
        {
          "long_name": "\u9999\u6e2f",
          "short_name": "HK",
          "types": [
            "country",
            "political"
          ]
        }
      ],
      "formatted_address": "\u9999\u6e2f\u7063\u4ed4\u99f1\u514b\u9053138\u865f",
      "geometry": {
        "location": {
          "lat": 22.2779553,
          "lng": 114.1728493
        },
        "location_type": "RANGE_INTERPOLATED",
        "viewport": {
          "northeast": {
            "lat": 22.2793042802915,
            "lng": 114.1741982802915
          },
          "southwest": {
            "lat": 22.2766063197085,
            "lng": 114.1715003197085
          }
        }
      },
      "partial_match": true,
      "place_id": "EiQxMzggTG9ja2hhcnQgUmQsIFdhbiBDaGFpLCBIb25nIEtvbmciGxIZChQKEgm3iQpjXAAENBFbggla8YfNzxCKAQ",
      "types": [
        "street_address"
      ]
    },
    {
      "address_components": [
        {
          "long_name": "\u4e2d\u570b\u6d77\u5916\u5927\u5ec8",
          "short_name": "\u4e2d\u570b\u6d77\u5916\u5927\u5ec8",
          "types": [
            "premise"
          ]
        },
        {
          "long_name": "\u5730\u4e0b",
          "short_name": "\u5730\u4e0b",
          "types": [
            "neighborhood",
            "political"
          ]
        },
        {
          "long_name": "\u9999\u6e2f\u5cf6",
          "short_name": "\u9999\u6e2f\u5cf6",
          "types": [
            "administrative_area_level_1",
            "political"
          ]
        },
        {
          "long_name": "\u9999\u6e2f",
          "short_name": "HK",
          "types": [
            "country",
            "political"
          ]
        }
      ],
      "formatted_address": "\u9999\u6e2f\u5730\u4e0b\u4e2d\u570b\u6d77\u5916\u5927\u5ec8",
      "geometry": {
        "location": {
          "lat": 22.2780278,
          "lng": 114.1727432
        },
        "location_type": "ROOFTOP",
        "viewport": {
          "northeast": {
            "lat": 22.2793767802915,
            "lng": 114.1740921802915
          },
          "southwest": {
            "lat": 22.2766788197085,
            "lng": 114.1713942197085
          }
        }
      },
      "partial_match": true,
      "place_id": "ChIJmacJY1wABDQRmhKRRZZuikI",
      "plus_code": {
        "compound_code": "75HF+63 \u9999\u6e2f",
        "global_code": "7PJP75HF+63"
      },
      "types": [
        "establishment",
        "food",
        "point_of_interest",
        "restaurant"
      ]
    },
    {
      "address_components": [
        {
          "long_name": "\u4e2d\u570b\u6d77\u5916\u5927\u5ec8",
          "short_name": "\u4e2d\u570b\u6d77\u5916\u5927\u5ec8",
          "types": [
            "premise"
          ]
        },
        {
          "long_name": "139",
          "short_name": "139",
          "types": [
            "street_number"
          ]
        },
        {
          "long_name": "\u8ed2\u5c3c\u8a69\u9053",
          "short_name": "\u8ed2\u5c3c\u8a69\u9053",
          "types": [
            "route"
          ]
        },
        {
          "long_name": "\u7063\u4ed4",
          "short_name": "\u7063\u4ed4",
          "types": [
            "neighborhood",
            "political"
          ]
        },
        {
          "long_name": "\u9999\u6e2f\u5cf6",
          "short_name": "\u9999\u6e2f\u5cf6",
          "types": [
            "administrative_area_level_1",
            "political"
          ]
        },
        {
          "long_name": "\u9999\u6e2f",
          "short_name": "HK",
          "types": [
            "country",
            "political"
          ]
        }
      ],
      "formatted_address": "\u9999\u6e2f\u7063\u4ed4\u8ed2\u5c3c\u8a69\u9053139\u865f\u4e2d\u570b\u6d77\u5916\u5927\u5ec8",
      "geometry": {
        "bounds": {
          "northeast": {
            "lat": 22.277904,
            "lng": 114.1729869
          },
          "southwest": {
            "lat": 22.277689,
            "lng": 114.172568
          }
        },
        "location": {
          "lat": 22.2778337,
          "lng": 114.1727784
        },
        "location_type": "ROOFTOP",
        "viewport": {
          "northeast": {
            "lat": 22.2791454802915,
            "lng": 114.1741264302915
          },
          "southwest": {
            "lat": 22.27644751970849,
            "lng": 114.1714284697085
          }
        }
      },
      "partial_match": true,
      "place_id": "ChIJr8uCYlwABDQRtJrk7SfUjRg",
      "types": [
        "premise"
      ]
    }
  ],
  "licno": "2212815494",
  "timestamp": 1564968756,
  "version": "1564966095"
}
