{
  "adr_en": "\u8fd4\u5c0b\u5473\u5c0f\u5eda, SHOP NO. 11, 1/F., SHUI KING BUILDING, KCTL 241, WO YI HOP ROAD, KWAI CHUNG, NEW TERRITORIES",
  "adr_tc": "\u65b0\u754c\u8475\u6d8c 241\u5730\u6bb5\u548c\u5b9c\u5408\u9053 \u745e\u666f\u5927\u5ec8\u4e00\u6a1311\u865f\u92ea \u8fd4\u5c0b\u5473\u5c0f\u5eda",
  "geocode_en": [
    {
      "address_components": [
        {
          "long_name": "New Territories",
          "short_name": "New Territories",
          "types": [
            "administrative_area_level_1",
            "political"
          ]
        },
        {
          "long_name": "Hong Kong",
          "short_name": "HK",
          "types": [
            "country",
            "political"
          ]
        }
      ],
      "formatted_address": "Hong Kong, \u8475\u6d8c\u548c\u5b9c\u5408\u9053168\u865f\u745e\u666f\u5927\u53a61\u5b57\u6a1311\u865f\u8216",
      "geometry": {
        "location": {
          "lat": 22.3693628,
          "lng": 114.1392441
        },
        "location_type": "GEOMETRIC_CENTER",
        "viewport": {
          "northeast": {
            "lat": 22.3707117802915,
            "lng": 114.1405930802915
          },
          "southwest": {
            "lat": 22.36801381970849,
            "lng": 114.1378951197085
          }
        }
      },
      "partial_match": true,
      "place_id": "ChIJBTybMQVP_xMRLB3j6L79CdM",
      "plus_code": {
        "compound_code": "949Q+PM Hong Kong",
        "global_code": "7PJP949Q+PM"
      },
      "types": [
        "establishment",
        "food",
        "point_of_interest",
        "restaurant"
      ]
    },
    {
      "address_components": [
        {
          "long_name": "Shui King Building",
          "short_name": "Shui King Building",
          "types": [
            "premise"
          ]
        },
        {
          "long_name": "138-172",
          "short_name": "138-172",
          "types": [
            "street_number"
          ]
        },
        {
          "long_name": "Wo Yi Hop Road",
          "short_name": "Wo Yi Hop Rd",
          "types": [
            "route"
          ]
        },
        {
          "long_name": "Shek Yam",
          "short_name": "Shek Yam",
          "types": [
            "neighborhood",
            "political"
          ]
        },
        {
          "long_name": "New Territories",
          "short_name": "New Territories",
          "types": [
            "administrative_area_level_1",
            "political"
          ]
        },
        {
          "long_name": "Hong Kong",
          "short_name": "HK",
          "types": [
            "country",
            "political"
          ]
        }
      ],
      "formatted_address": "Shui King Building, 138-172 Wo Yi Hop Rd, Shek Yam, Hong Kong",
      "geometry": {
        "bounds": {
          "northeast": {
            "lat": 22.3696429,
            "lng": 114.1395066
          },
          "southwest": {
            "lat": 22.3690833,
            "lng": 114.1389501
          }
        },
        "location": {
          "lat": 22.3694074,
          "lng": 114.139205
        },
        "location_type": "ROOFTOP",
        "viewport": {
          "northeast": {
            "lat": 22.3707120802915,
            "lng": 114.1405773302915
          },
          "southwest": {
            "lat": 22.3680141197085,
            "lng": 114.1378793697085
          }
        }
      },
      "partial_match": true,
      "place_id": "ChIJ4Qv0tJz4AzQRbq63s6weGOc",
      "types": [
        "premise"
      ]
    }
  ],
  "geocode_tc": [
    {
      "address_components": [
        {
          "long_name": "\u65b0\u754c",
          "short_name": "\u65b0\u754c",
          "types": [
            "administrative_area_level_1",
            "political"
          ]
        },
        {
          "long_name": "\u9999\u6e2f",
          "short_name": "HK",
          "types": [
            "country",
            "political"
          ]
        }
      ],
      "formatted_address": "\u9999\u6e2f\u8475\u6d8c\u548c\u5b9c\u5408\u9053168\u865f\u745e\u666f\u5927\u53a61\u5b57\u6a1311\u865f\u8216",
      "geometry": {
        "location": {
          "lat": 22.3693628,
          "lng": 114.1392441
        },
        "location_type": "GEOMETRIC_CENTER",
        "viewport": {
          "northeast": {
            "lat": 22.3707117802915,
            "lng": 114.1405930802915
          },
          "southwest": {
            "lat": 22.36801381970849,
            "lng": 114.1378951197085
          }
        }
      },
      "partial_match": true,
      "place_id": "ChIJBTybMQVP_xMRLB3j6L79CdM",
      "plus_code": {
        "compound_code": "949Q+PM \u9999\u6e2f",
        "global_code": "7PJP949Q+PM"
      },
      "types": [
        "establishment",
        "food",
        "point_of_interest",
        "restaurant"
      ]
    }
  ],
  "licno": "2291000651",
  "timestamp": 1564968756,
  "version": "1564966095"
}
