{
  "adr_en": "GYUHACHI / DOHTONBORI / KYOTO MACHA AN-MARUKYU KOYAMAEN AUTHORIZED RETAILER - K11 Shop, SHOP NOS. 209-211, LEVEL 2, K11, NO. 18 HANOI ROAD, TSIM SHA TSUI, KOWLOON",
  "adr_tc": "\u4e5d\u9f8d\u5c16\u6c99\u5480\u6cb3\u5167\u905318\u865f K11 \u4e8c\u5c64209-211\u865f\u8216 \u725b\u516b/\u9053\u9813\u5800/\u4eac\u90fd\u62b9\u8336\u5eb5\u4e38\u4e45\u5c0f\u5c71\u5712\u65e5\u672c\u8336\u8ca9\u8ce3\u5e97-K",
  "geocode_en": [
    {
      "address_components": [
        {
          "long_name": "Kyoto",
          "short_name": "Kyoto",
          "types": [
            "locality",
            "political"
          ]
        },
        {
          "long_name": "Kyoto",
          "short_name": "Kyoto",
          "types": [
            "administrative_area_level_1",
            "political"
          ]
        },
        {
          "long_name": "Japan",
          "short_name": "JP",
          "types": [
            "country",
            "political"
          ]
        }
      ],
      "formatted_address": "Kyoto, Japan",
      "geometry": {
        "bounds": {
          "northeast": {
            "lat": 35.321258,
            "lng": 135.878769
          },
          "southwest": {
            "lat": 34.875222,
            "lng": 135.5589789
          }
        },
        "location": {
          "lat": 35.011564,
          "lng": 135.7681489
        },
        "location_type": "APPROXIMATE",
        "viewport": {
          "northeast": {
            "lat": 35.321258,
            "lng": 135.878769
          },
          "southwest": {
            "lat": 34.875222,
            "lng": 135.5589789
          }
        }
      },
      "partial_match": true,
      "place_id": "ChIJ8cM8zdaoAWARPR27azYdlsA",
      "types": [
        "locality",
        "political"
      ]
    },
    {
      "address_components": [
        {
          "long_name": "18\u865f",
          "short_name": "18\u865f",
          "types": [
            "street_number"
          ]
        },
        {
          "long_name": "Hanoi Road",
          "short_name": "Hanoi Rd",
          "types": [
            "route"
          ]
        },
        {
          "long_name": "Tsim Sha Tsui",
          "short_name": "Tsim Sha Tsui",
          "types": [
            "neighborhood",
            "political"
          ]
        },
        {
          "long_name": "Kowloon",
          "short_name": "Kowloon",
          "types": [
            "administrative_area_level_1",
            "political"
          ]
        },
        {
          "long_name": "Hong Kong",
          "short_name": "HK",
          "types": [
            "country",
            "political"
          ]
        }
      ],
      "formatted_address": "18\u865f Hanoi Rd, Tsim Sha Tsui, Hong Kong",
      "geometry": {
        "location": {
          "lat": 22.2973557,
          "lng": 114.1735418
        },
        "location_type": "ROOFTOP",
        "viewport": {
          "northeast": {
            "lat": 22.2987046802915,
            "lng": 114.1748907802915
          },
          "southwest": {
            "lat": 22.2960067197085,
            "lng": 114.1721928197085
          }
        }
      },
      "partial_match": true,
      "place_id": "ChIJ_yMf_u0ABDQRFUSKts8Cq0U",
      "plus_code": {
        "compound_code": "75WF+WC Tsim Sha Tsui, Hong Kong",
        "global_code": "7PJP75WF+WC"
      },
      "types": [
        "establishment",
        "point_of_interest",
        "shopping_mall"
      ]
    },
    {
      "address_components": [
        {
          "long_name": "209-211, LEVEL",
          "short_name": "209-211, LEVEL",
          "types": [
            "subpremise"
          ]
        },
        {
          "long_name": "K11",
          "short_name": "K11",
          "types": [
            "premise"
          ]
        },
        {
          "long_name": "18",
          "short_name": "18",
          "types": [
            "street_number"
          ]
        },
        {
          "long_name": "Hanoi Road",
          "short_name": "Hanoi Rd",
          "types": [
            "route"
          ]
        },
        {
          "long_name": "Tsim Sha Tsui",
          "short_name": "Tsim Sha Tsui",
          "types": [
            "neighborhood",
            "political"
          ]
        },
        {
          "long_name": "Kowloon",
          "short_name": "Kowloon",
          "types": [
            "administrative_area_level_1",
            "political"
          ]
        },
        {
          "long_name": "Hong Kong",
          "short_name": "HK",
          "types": [
            "country",
            "political"
          ]
        }
      ],
      "formatted_address": "209-211, LEVEL, K11, 18 Hanoi Rd, Tsim Sha Tsui, Hong Kong",
      "geometry": {
        "bounds": {
          "northeast": {
            "lat": 22.298022,
            "lng": 114.1744225
          },
          "southwest": {
            "lat": 22.2971471,
            "lng": 114.1731593
          }
        },
        "location": {
          "lat": 22.2974299,
          "lng": 114.1737537
        },
        "location_type": "ROOFTOP",
        "viewport": {
          "northeast": {
            "lat": 22.2989335302915,
            "lng": 114.1751398802915
          },
          "southwest": {
            "lat": 22.2962355697085,
            "lng": 114.1724419197085
          }
        }
      },
      "partial_match": true,
      "place_id": "EjoyMDktMjExLCBMRVZFTCwgSzExLCAxOCBIYW5vaSBSZCwgVHNpbSBTaGEgVHN1aSwgSG9uZyBLb25nIioaKAoWChQKEgkB6E4H7gAENBH62-L6fT3r8xIOMjA5LTIxMSwgTEVWRUw",
      "types": [
        "subpremise"
      ]
    }
  ],
  "geocode_tc": [
    {
      "address_components": [
        {
          "long_name": "\u9999\u6e2fK11",
          "short_name": "\u9999\u6e2fK11",
          "types": [
            "premise"
          ]
        },
        {
          "long_name": "18",
          "short_name": "18",
          "types": [
            "street_number"
          ]
        },
        {
          "long_name": "\u6cb3\u5167\u9053",
          "short_name": "\u6cb3\u5167\u9053",
          "types": [
            "route"
          ]
        },
        {
          "long_name": "\u5c16\u6c99\u5480",
          "short_name": "\u5c16\u6c99\u5480",
          "types": [
            "neighborhood",
            "political"
          ]
        },
        {
          "long_name": "\u4e5d\u9f8d",
          "short_name": "\u4e5d\u9f8d",
          "types": [
            "administrative_area_level_1",
            "political"
          ]
        },
        {
          "long_name": "\u9999\u6e2f",
          "short_name": "HK",
          "types": [
            "country",
            "political"
          ]
        }
      ],
      "formatted_address": "\u9999\u6e2f\u5c16\u6c99\u5480\u6cb3\u5167\u905318\u865f\u9999\u6e2fK11",
      "geometry": {
        "bounds": {
          "northeast": {
            "lat": 22.298022,
            "lng": 114.1744225
          },
          "southwest": {
            "lat": 22.2971471,
            "lng": 114.1731593
          }
        },
        "location": {
          "lat": 22.2974299,
          "lng": 114.1737537
        },
        "location_type": "ROOFTOP",
        "viewport": {
          "northeast": {
            "lat": 22.2989335302915,
            "lng": 114.1751398802915
          },
          "southwest": {
            "lat": 22.2962355697085,
            "lng": 114.1724419197085
          }
        }
      },
      "partial_match": true,
      "place_id": "ChIJAehOB-4ABDQR-tvi-n096_M",
      "types": [
        "premise"
      ]
    },
    {
      "address_components": [
        {
          "long_name": "19",
          "short_name": "19",
          "types": [
            "street_number"
          ]
        },
        {
          "long_name": "Carnarvon Road",
          "short_name": "Carnarvon Rd",
          "types": [
            "route"
          ]
        },
        {
          "long_name": "Tsim Sha Tsui",
          "short_name": "Tsim Sha Tsui",
          "types": [
            "neighborhood",
            "political"
          ]
        },
        {
          "long_name": "\u9999\u6e2f",
          "short_name": "HK",
          "types": [
            "country",
            "political"
          ]
        }
      ],
      "formatted_address": "Shop 210, K11 Mall,, 19 Carnarvon Rd, Tsim Sha Tsui, \u9999\u6e2f",
      "geometry": {
        "location": {
          "lat": 22.297685,
          "lng": 114.1734607
        },
        "location_type": "ROOFTOP",
        "viewport": {
          "northeast": {
            "lat": 22.2990339802915,
            "lng": 114.1748096802915
          },
          "southwest": {
            "lat": 22.2963360197085,
            "lng": 114.1721117197085
          }
        }
      },
      "partial_match": true,
      "place_id": "ChIJJa5N_O0ABDQR0Fux8WYwwTI",
      "plus_code": {
        "compound_code": "75XF+39 \u9999\u6e2f",
        "global_code": "7PJP75XF+39"
      },
      "types": [
        "establishment",
        "food",
        "point_of_interest"
      ]
    }
  ],
  "licno": "2261814532",
  "timestamp": 1564968756,
  "version": "1564966095"
}
