{
  "adr_en": "\u5fb7\u8208, SHOP 12, G/F., KO FU HOUSE, DD 215, LOT 952, FOOK MAN ROAD, SAI KUNG, NEW TERRITORIES",
  "adr_tc": "\u65b0\u754c\u897f\u8ca2 215\u7d04\u7b2c952\u5730\u6bb5 \u798f\u6c11\u8def\u9ad8\u5bcc\u6a13\u5730\u4e0b12\u865f\u92ea \u5fb7\u8208",
  "geocode_en": [
    {
      "address_components": [
        {
          "long_name": "Sai Kung",
          "short_name": "Sai Kung",
          "types": [
            "neighborhood",
            "political"
          ]
        },
        {
          "long_name": "New Territories",
          "short_name": "New Territories",
          "types": [
            "administrative_area_level_1",
            "political"
          ]
        },
        {
          "long_name": "Hong Kong",
          "short_name": "HK",
          "types": [
            "country",
            "political"
          ]
        }
      ],
      "formatted_address": "Sai Kung, Hong Kong",
      "geometry": {
        "bounds": {
          "northeast": {
            "lat": 22.480709,
            "lng": 114.405739
          },
          "southwest": {
            "lat": 22.3352659,
            "lng": 114.227958
          }
        },
        "location": {
          "lat": 22.383689,
          "lng": 114.2707867
        },
        "location_type": "APPROXIMATE",
        "viewport": {
          "northeast": {
            "lat": 22.480709,
            "lng": 114.405739
          },
          "southwest": {
            "lat": 22.3352659,
            "lng": 114.227958
          }
        }
      },
      "partial_match": true,
      "place_id": "ChIJMVcosp4FBDQRoHRigpbDAAo",
      "types": [
        "neighborhood",
        "political"
      ]
    }
  ],
  "geocode_tc": [
    {
      "address_components": [
        {
          "long_name": "\u9ad8\u5bcc\u6a13D\u5ea7",
          "short_name": "\u9ad8\u5bcc\u6a13D\u5ea7",
          "types": [
            "premise"
          ]
        },
        {
          "long_name": "58",
          "short_name": "58",
          "types": [
            "street_number"
          ]
        },
        {
          "long_name": "\u798f\u6c11\u8def",
          "short_name": "\u798f\u6c11\u8def",
          "types": [
            "route"
          ]
        },
        {
          "long_name": "\u897f\u8ca2",
          "short_name": "\u897f\u8ca2",
          "types": [
            "neighborhood",
            "political"
          ]
        },
        {
          "long_name": "\u65b0\u754c",
          "short_name": "\u65b0\u754c",
          "types": [
            "administrative_area_level_1",
            "political"
          ]
        },
        {
          "long_name": "\u9999\u6e2f",
          "short_name": "HK",
          "types": [
            "country",
            "political"
          ]
        }
      ],
      "formatted_address": "\u9999\u6e2f\u897f\u8ca2\u798f\u6c11\u8def58\u865f\u9ad8\u5bcc\u6a13D\u5ea7",
      "geometry": {
        "bounds": {
          "northeast": {
            "lat": 22.381983,
            "lng": 114.2734371
          },
          "southwest": {
            "lat": 22.3818209,
            "lng": 114.273272
          }
        },
        "location": {
          "lat": 22.381902,
          "lng": 114.2733425
        },
        "location_type": "ROOFTOP",
        "viewport": {
          "northeast": {
            "lat": 22.3832509302915,
            "lng": 114.2747035302915
          },
          "southwest": {
            "lat": 22.3805529697085,
            "lng": 114.2720055697085
          }
        }
      },
      "partial_match": true,
      "place_id": "ChIJXYI54JcFBDQRANACs3K2G6Y",
      "types": [
        "premise"
      ]
    }
  ],
  "licno": "3198000393",
  "timestamp": 1564975666,
  "version": "1564966095"
}
