{
  "adr_en": "\u7687\u90fd\u9910\u5ef3, SHOP NO. 1, G/F, TREASURE COURT AND THE OUTSIDE SEATING AREA AT SHOP FRONT, DD 124, LOT 4212-4213, HUNG SHUI KIU, YUEN LONG, NEW TERRITORIES",
  "adr_tc": "\u65b0\u754c\u5143\u6717\u6d2a\u6c34\u6a4b\u4e08\u91cf\u7d04\u4efd\u7d04124\u5730\u6bb5 \u7b2c4212-4213 \u865f\u7fe0\u73ca\u5712\u5730\u4e0b1 \u865f\u92ea\u53ca\u92ea\u524d\u9732\u5929\u5ea7\u4f4d \u7687\u90fd\u9910\u5ef3",
  "geocode_en": [
    {
      "address_components": [
        {
          "long_name": "Hong Kong",
          "short_name": "HK",
          "types": [
            "country",
            "political"
          ]
        }
      ],
      "formatted_address": "Hong Kong, \u9752\u5c71\u516c\u8def4212\u865f\u6d2a\u6c34\u6a4b\u6bb5\u7fe0\u73ca\u5712\u5730\u4e0b1\u865f\u8216",
      "geometry": {
        "location": {
          "lat": 22.4333687,
          "lng": 113.9979179
        },
        "location_type": "GEOMETRIC_CENTER",
        "viewport": {
          "northeast": {
            "lat": 22.4347176802915,
            "lng": 113.9992668802915
          },
          "southwest": {
            "lat": 22.4320197197085,
            "lng": 113.9965689197085
          }
        }
      },
      "partial_match": true,
      "place_id": "ChIJE8CyBon6AzQRQrRilGqfJF8",
      "plus_code": {
        "compound_code": "CXMX+85 Hong Kong",
        "global_code": "7PJMCXMX+85"
      },
      "types": [
        "establishment",
        "food",
        "point_of_interest",
        "restaurant"
      ]
    },
    {
      "address_components": [
        {
          "long_name": "Castle Peak Road (Hung Shui Kiu)",
          "short_name": "Castle Peak Road (Hung Shui Kiu)",
          "types": [
            "route"
          ]
        },
        {
          "long_name": "Hong Kong",
          "short_name": "HK",
          "types": [
            "country",
            "political"
          ]
        }
      ],
      "formatted_address": "4213 \u865f, Castle Peak Road (Hung Shui Kiu), Hong Kong",
      "geometry": {
        "location": {
          "lat": 22.433113,
          "lng": 113.997656
        },
        "location_type": "GEOMETRIC_CENTER",
        "viewport": {
          "northeast": {
            "lat": 22.4344619802915,
            "lng": 113.9990049802915
          },
          "southwest": {
            "lat": 22.4317640197085,
            "lng": 113.9963070197085
          }
        }
      },
      "partial_match": true,
      "place_id": "ChIJPTlyBYn6AzQRX_EWGgI6ERo",
      "plus_code": {
        "compound_code": "CXMX+63 Hong Kong",
        "global_code": "7PJMCXMX+63"
      },
      "types": [
        "establishment",
        "point_of_interest"
      ]
    }
  ],
  "geocode_tc": [
    {
      "address_components": [
        {
          "long_name": "\u9999\u6e2f",
          "short_name": "HK",
          "types": [
            "country",
            "political"
          ]
        }
      ],
      "formatted_address": "\u9999\u6e2f\u9752\u5c71\u516c\u8def4212\u865f\u6d2a\u6c34\u6a4b\u6bb5\u7fe0\u73ca\u5712\u5730\u4e0b1\u865f\u8216",
      "geometry": {
        "location": {
          "lat": 22.4333687,
          "lng": 113.9979179
        },
        "location_type": "GEOMETRIC_CENTER",
        "viewport": {
          "northeast": {
            "lat": 22.4347176802915,
            "lng": 113.9992668802915
          },
          "southwest": {
            "lat": 22.4320197197085,
            "lng": 113.9965689197085
          }
        }
      },
      "partial_match": true,
      "place_id": "ChIJE8CyBon6AzQRQrRilGqfJF8",
      "plus_code": {
        "compound_code": "CXMX+85 \u9999\u6e2f",
        "global_code": "7PJMCXMX+85"
      },
      "types": [
        "establishment",
        "food",
        "point_of_interest",
        "restaurant"
      ]
    },
    {
      "address_components": [
        {
          "long_name": "Castle Peak Road (Hung Shui Kiu)",
          "short_name": "Castle Peak Road (Hung Shui Kiu)",
          "types": [
            "route"
          ]
        },
        {
          "long_name": "\u9999\u6e2f",
          "short_name": "HK",
          "types": [
            "country",
            "political"
          ]
        }
      ],
      "formatted_address": "4213 \u865f, Castle Peak Road (Hung Shui Kiu), \u9999\u6e2f",
      "geometry": {
        "location": {
          "lat": 22.433113,
          "lng": 113.997656
        },
        "location_type": "GEOMETRIC_CENTER",
        "viewport": {
          "northeast": {
            "lat": 22.4344619802915,
            "lng": 113.9990049802915
          },
          "southwest": {
            "lat": 22.4317640197085,
            "lng": 113.9963070197085
          }
        }
      },
      "partial_match": true,
      "place_id": "ChIJPTlyBYn6AzQRX_EWGgI6ERo",
      "plus_code": {
        "compound_code": "CXMX+63 \u9999\u6e2f",
        "global_code": "7PJMCXMX+63"
      },
      "types": [
        "establishment",
        "point_of_interest"
      ]
    }
  ],
  "licno": "2294001336",
  "timestamp": 1564975666,
  "version": "1564966095"
}
