{
  "adr_en": "Cafe Idea, SHOP 67, G/F, HUNGHOM SQUARE, NO. 37-39 MA TAU WAI ROAD, HUNG HOM, KOWLOON",
  "adr_tc": "\u4e5d\u9f8d\u7d05\u78e1\u99ac\u982d\u570d\u905337-39\u865f\u7d05\u78e1\u5ee3\u5834\u5730\u4e0b67\u865f\u8216 Cafe Idea",
  "geocode_en": [
    {
      "address_components": [
        {
          "long_name": "Hong Kong",
          "short_name": "HK",
          "types": [
            "country",
            "political"
          ]
        }
      ],
      "formatted_address": "Hong Kong, \u7d05\u78e1\u99ac\u982d\u570d\u905337-39\u865f\u7d05\u78e1\u5ee3\u5834\u5730\u4e0b67\u865f",
      "geometry": {
        "location": {
          "lat": 22.310205,
          "lng": 114.1880073
        },
        "location_type": "GEOMETRIC_CENTER",
        "viewport": {
          "northeast": {
            "lat": 22.31155398029151,
            "lng": 114.1893562802915
          },
          "southwest": {
            "lat": 22.3088560197085,
            "lng": 114.1866583197085
          }
        }
      },
      "partial_match": true,
      "place_id": "ChIJ_8BH5d4ABDQR0hvZWOwLBLs",
      "plus_code": {
        "compound_code": "856Q+36 Hong Kong",
        "global_code": "7PJP856Q+36"
      },
      "types": [
        "establishment",
        "food",
        "point_of_interest",
        "restaurant"
      ]
    },
    {
      "address_components": [
        {
          "long_name": "37",
          "short_name": "37",
          "types": [
            "street_number"
          ]
        },
        {
          "long_name": "Ma Tau Wai Road",
          "short_name": "Ma Tau Wai Rd",
          "types": [
            "route"
          ]
        },
        {
          "long_name": "Hok Yuen",
          "short_name": "Hok Yuen",
          "types": [
            "neighborhood",
            "political"
          ]
        },
        {
          "long_name": "Kowloon",
          "short_name": "Kowloon",
          "types": [
            "administrative_area_level_1",
            "political"
          ]
        },
        {
          "long_name": "Hong Kong",
          "short_name": "HK",
          "types": [
            "country",
            "political"
          ]
        }
      ],
      "formatted_address": "37 Ma Tau Wai Rd, Hok Yuen, Hong Kong",
      "geometry": {
        "location": {
          "lat": 22.3102544,
          "lng": 114.1877826
        },
        "location_type": "ROOFTOP",
        "viewport": {
          "northeast": {
            "lat": 22.3116033802915,
            "lng": 114.1891315802915
          },
          "southwest": {
            "lat": 22.3089054197085,
            "lng": 114.1864336197085
          }
        }
      },
      "partial_match": true,
      "place_id": "ChIJF_bA594ABDQRjYUqyfZ2NMU",
      "plus_code": {
        "compound_code": "856Q+44 Hong Kong",
        "global_code": "7PJP856Q+44"
      },
      "types": [
        "establishment",
        "point_of_interest",
        "shopping_mall"
      ]
    }
  ],
  "geocode_tc": [
    {
      "address_components": [
        {
          "long_name": "\u9999\u6e2f",
          "short_name": "HK",
          "types": [
            "country",
            "political"
          ]
        }
      ],
      "formatted_address": "\u9999\u6e2f\u7d05\u78e1\u99ac\u982d\u570d\u905337-39\u865f\u7d05\u78e1\u5ee3\u5834\u5730\u4e0b67\u865f",
      "geometry": {
        "location": {
          "lat": 22.310205,
          "lng": 114.1880073
        },
        "location_type": "GEOMETRIC_CENTER",
        "viewport": {
          "northeast": {
            "lat": 22.31155398029151,
            "lng": 114.1893562802915
          },
          "southwest": {
            "lat": 22.3088560197085,
            "lng": 114.1866583197085
          }
        }
      },
      "place_id": "ChIJ_8BH5d4ABDQR0hvZWOwLBLs",
      "plus_code": {
        "compound_code": "856Q+36 \u9999\u6e2f",
        "global_code": "7PJP856Q+36"
      },
      "types": [
        "establishment",
        "food",
        "point_of_interest",
        "restaurant"
      ]
    }
  ],
  "licno": "3152801561",
  "timestamp": 1564975666,
  "version": "1564966095"
}
