{
  "adr_en": "\u6210\u8208\u5927\u6392\u6a94, G/F, 49-51 WOOSUNG STREET, KOWLOON",
  "adr_tc": "\u4e5d\u9f8d\u5433\u677e\u8857 49-51\u865f\u5730\u4e0b \u6210\u8208\u5927\u6392\u6a94",
  "geocode_en": [
    {
      "address_components": [
        {
          "long_name": "Hong Kong",
          "short_name": "HK",
          "types": [
            "country",
            "political"
          ]
        }
      ],
      "formatted_address": "Hong Kong, \u4f50\u6566\u5433\u677e\u8857",
      "geometry": {
        "location": {
          "lat": 22.3074574,
          "lng": 114.1705723
        },
        "location_type": "GEOMETRIC_CENTER",
        "viewport": {
          "northeast": {
            "lat": 22.3088063802915,
            "lng": 114.1719212802915
          },
          "southwest": {
            "lat": 22.3061084197085,
            "lng": 114.1692233197085
          }
        }
      },
      "partial_match": true,
      "place_id": "ChIJx7a5iuoABDQRnz9KKJ-OqJs",
      "plus_code": {
        "compound_code": "854C+X6 Hong Kong",
        "global_code": "7PJP854C+X6"
      },
      "types": [
        "establishment",
        "food",
        "point_of_interest",
        "restaurant"
      ]
    },
    {
      "address_components": [
        {
          "long_name": "G",
          "short_name": "G",
          "types": [
            "subpremise"
          ]
        },
        {
          "long_name": "49",
          "short_name": "49",
          "types": [
            "street_number"
          ]
        },
        {
          "long_name": "Woosung Street",
          "short_name": "Woosung St",
          "types": [
            "route"
          ]
        },
        {
          "long_name": "Yau Ma Tei",
          "short_name": "Yau Ma Tei",
          "types": [
            "neighborhood",
            "political"
          ]
        },
        {
          "long_name": "Kowloon",
          "short_name": "Kowloon",
          "types": [
            "administrative_area_level_1",
            "political"
          ]
        },
        {
          "long_name": "Hong Kong",
          "short_name": "HK",
          "types": [
            "country",
            "political"
          ]
        }
      ],
      "formatted_address": "G, 49 Woosung St, Yau Ma Tei, Hong Kong",
      "geometry": {
        "location": {
          "lat": 22.3073458,
          "lng": 114.1705567
        },
        "location_type": "RANGE_INTERPOLATED",
        "viewport": {
          "northeast": {
            "lat": 22.30869478029151,
            "lng": 114.1719056802915
          },
          "southwest": {
            "lat": 22.3059968197085,
            "lng": 114.1692077197085
          }
        }
      },
      "partial_match": true,
      "place_id": "EidHLCA0OSBXb29zdW5nIFN0LCBZYXUgTWEgVGVpLCBIb25nIEtvbmciIRofChoSGAoUChIJb-YjYOoABDQRE_O4_b2Ka9YQMRIBRw",
      "types": [
        "subpremise"
      ]
    },
    {
      "address_components": [
        {
          "long_name": "F",
          "short_name": "F",
          "types": [
            "subpremise"
          ]
        },
        {
          "long_name": "49",
          "short_name": "49",
          "types": [
            "street_number"
          ]
        },
        {
          "long_name": "Woosung Street",
          "short_name": "Woosung St",
          "types": [
            "route"
          ]
        },
        {
          "long_name": "Yau Ma Tei",
          "short_name": "Yau Ma Tei",
          "types": [
            "neighborhood",
            "political"
          ]
        },
        {
          "long_name": "Kowloon",
          "short_name": "Kowloon",
          "types": [
            "administrative_area_level_1",
            "political"
          ]
        },
        {
          "long_name": "Hong Kong",
          "short_name": "HK",
          "types": [
            "country",
            "political"
          ]
        }
      ],
      "formatted_address": "F, 49 Woosung St, Yau Ma Tei, Hong Kong",
      "geometry": {
        "location": {
          "lat": 22.3073458,
          "lng": 114.1705567
        },
        "location_type": "RANGE_INTERPOLATED",
        "viewport": {
          "northeast": {
            "lat": 22.30869478029151,
            "lng": 114.1719056802915
          },
          "southwest": {
            "lat": 22.3059968197085,
            "lng": 114.1692077197085
          }
        }
      },
      "partial_match": true,
      "place_id": "EidGLCA0OSBXb29zdW5nIFN0LCBZYXUgTWEgVGVpLCBIb25nIEtvbmciIRofChoSGAoUChIJb-YjYOoABDQRE_O4_b2Ka9YQMRIBRg",
      "types": [
        "subpremise"
      ]
    }
  ],
  "geocode_tc": [
    {
      "address_components": [
        {
          "long_name": "\u9999\u6e2f",
          "short_name": "HK",
          "types": [
            "country",
            "political"
          ]
        }
      ],
      "formatted_address": "\u9999\u6e2f\u4f50\u6566\u5433\u677e\u8857",
      "geometry": {
        "location": {
          "lat": 22.3074574,
          "lng": 114.1705723
        },
        "location_type": "GEOMETRIC_CENTER",
        "viewport": {
          "northeast": {
            "lat": 22.3088063802915,
            "lng": 114.1719212802915
          },
          "southwest": {
            "lat": 22.3061084197085,
            "lng": 114.1692233197085
          }
        }
      },
      "place_id": "ChIJx7a5iuoABDQRnz9KKJ-OqJs",
      "plus_code": {
        "compound_code": "854C+X6 \u9999\u6e2f",
        "global_code": "7PJP854C+X6"
      },
      "types": [
        "establishment",
        "food",
        "point_of_interest",
        "restaurant"
      ]
    }
  ],
  "licno": "2261300543",
  "timestamp": 1564968756,
  "version": "1564966095"
}
