{
  "adr_en": "Comewell Snack Shop, SHOP G7, SHOPPING CENTRE, SUI WO COURT, SHA TIN, NEW TERRITORIES",
  "adr_tc": "\u65b0\u754c\u6c99\u7530 \u7a57\u79be\u82d1\u5546\u5834 G7\u865f\u8216 \u91d1\u79be\u5feb\u9910",
  "geocode_en": [
    {
      "address_components": [
        {
          "long_name": "Hong Kong",
          "short_name": "HK",
          "types": [
            "country",
            "political"
          ]
        }
      ],
      "formatted_address": "Hong Kong, \u6c99\u7530 \u7a57\u79be\u82d1\u5546\u5834 G7\u865f\u8216",
      "geometry": {
        "location": {
          "lat": 22.39189,
          "lng": 114.194348
        },
        "location_type": "GEOMETRIC_CENTER",
        "viewport": {
          "northeast": {
            "lat": 22.3932389802915,
            "lng": 114.1956969802915
          },
          "southwest": {
            "lat": 22.3905410197085,
            "lng": 114.1929990197085
          }
        }
      },
      "partial_match": true,
      "place_id": "ChIJTzgx_0oGBDQRwpTamwpf3wU",
      "plus_code": {
        "compound_code": "95RV+QP Hong Kong",
        "global_code": "7PJP95RV+QP"
      },
      "types": [
        "establishment",
        "food",
        "point_of_interest",
        "restaurant"
      ]
    },
    {
      "address_components": [
        {
          "long_name": "Sui Wo Court Block A Fung Yue House",
          "short_name": "Sui Wo Court Block A Fung Yue House",
          "types": [
            "premise"
          ]
        },
        {
          "long_name": "Sui Wo Road",
          "short_name": "Sui Wo Rd",
          "types": [
            "route"
          ]
        },
        {
          "long_name": "Fo Tan",
          "short_name": "Fo Tan",
          "types": [
            "neighborhood",
            "political"
          ]
        },
        {
          "long_name": "New Territories",
          "short_name": "New Territories",
          "types": [
            "administrative_area_level_1",
            "political"
          ]
        },
        {
          "long_name": "Hong Kong",
          "short_name": "HK",
          "types": [
            "country",
            "political"
          ]
        }
      ],
      "formatted_address": "Sui Wo Court Block A Fung Yue House, Sui Wo Rd, Fo Tan, Hong Kong",
      "geometry": {
        "location": {
          "lat": 22.3938679,
          "lng": 114.19446
        },
        "location_type": "ROOFTOP",
        "viewport": {
          "northeast": {
            "lat": 22.3952168802915,
            "lng": 114.1958089802915
          },
          "southwest": {
            "lat": 22.3925189197085,
            "lng": 114.1931110197085
          }
        }
      },
      "partial_match": true,
      "place_id": "ChIJcVvzfUoGBDQRggqxLrnUTFA",
      "plus_code": {
        "compound_code": "95VV+GQ Hong Kong",
        "global_code": "7PJP95VV+GQ"
      },
      "types": [
        "establishment",
        "point_of_interest"
      ]
    }
  ],
  "geocode_tc": [
    {
      "address_components": [
        {
          "long_name": "\u9999\u6e2f",
          "short_name": "HK",
          "types": [
            "country",
            "political"
          ]
        }
      ],
      "formatted_address": "\u9999\u6e2f\u6c99\u7530 \u7a57\u79be\u82d1\u5546\u5834 G7\u865f\u8216",
      "geometry": {
        "location": {
          "lat": 22.39189,
          "lng": 114.194348
        },
        "location_type": "GEOMETRIC_CENTER",
        "viewport": {
          "northeast": {
            "lat": 22.3932389802915,
            "lng": 114.1956969802915
          },
          "southwest": {
            "lat": 22.3905410197085,
            "lng": 114.1929990197085
          }
        }
      },
      "place_id": "ChIJTzgx_0oGBDQRwpTamwpf3wU",
      "plus_code": {
        "compound_code": "95RV+QP \u9999\u6e2f",
        "global_code": "7PJP95RV+QP"
      },
      "types": [
        "establishment",
        "food",
        "point_of_interest",
        "restaurant"
      ]
    }
  ],
  "licno": "2297003050",
  "timestamp": 1564975666,
  "version": "1564966095"
}
