{
  "adr_en": "Music Cabaret, SHOP 33-35, UG/F, WING ON PLAZA, 62 MODY ROAD, TSIM SHA TSUI, KOWLOON",
  "adr_tc": "\u4e5d\u9f8d\u5c16\u6c99\u5480\u9ebc\u5730\u905362\u865f\u6c38\u5b89\u5ee3\u5834\u5730\u4e0b\u4e0a\u5c6433-35\u865f\u8216 Music Cabaret",
  "geocode_en": [
    {
      "address_components": [
        {
          "long_name": "Hong Kong",
          "short_name": "HK",
          "types": [
            "country",
            "political"
          ]
        }
      ],
      "formatted_address": "Shop 33-35, UG/F, Wing On Plaza, 62 Mody Road, Tsim Sha Tsui, Kowloon, Hong Kong",
      "geometry": {
        "location": {
          "lat": 22.296723,
          "lng": 114.176397
        },
        "location_type": "GEOMETRIC_CENTER",
        "viewport": {
          "northeast": {
            "lat": 22.2980719802915,
            "lng": 114.1777459802915
          },
          "southwest": {
            "lat": 22.2953740197085,
            "lng": 114.1750480197085
          }
        }
      },
      "place_id": "ChIJt26P1fEABDQR31eBnTu_pXY",
      "types": [
        "establishment",
        "point_of_interest"
      ]
    }
  ],
  "geocode_tc": [
    {
      "address_components": [
        {
          "long_name": "\u6c38\u5b89\u5ee3\u5834",
          "short_name": "\u6c38\u5b89\u5ee3\u5834",
          "types": [
            "premise"
          ]
        },
        {
          "long_name": "62",
          "short_name": "62",
          "types": [
            "street_number"
          ]
        },
        {
          "long_name": "\u9ebc\u5730\u9053",
          "short_name": "\u9ebc\u5730\u9053",
          "types": [
            "route"
          ]
        },
        {
          "long_name": "\u5c16\u6771",
          "short_name": "\u5c16\u6771",
          "types": [
            "neighborhood",
            "political"
          ]
        },
        {
          "long_name": "\u4e5d\u9f8d",
          "short_name": "\u4e5d\u9f8d",
          "types": [
            "administrative_area_level_1",
            "political"
          ]
        },
        {
          "long_name": "\u9999\u6e2f",
          "short_name": "HK",
          "types": [
            "country",
            "political"
          ]
        }
      ],
      "formatted_address": "\u9999\u6e2f\u5c16\u6771\u9ebc\u5730\u905362\u865f\u6c38\u5b89\u5ee3\u5834",
      "geometry": {
        "bounds": {
          "northeast": {
            "lat": 22.2969901,
            "lng": 114.176735
          },
          "southwest": {
            "lat": 22.296421,
            "lng": 114.176098
          }
        },
        "location": {
          "lat": 22.2966713,
          "lng": 114.1763546
        },
        "location_type": "ROOFTOP",
        "viewport": {
          "northeast": {
            "lat": 22.2980545302915,
            "lng": 114.1777654802915
          },
          "southwest": {
            "lat": 22.2953565697085,
            "lng": 114.1750675197085
          }
        }
      },
      "partial_match": true,
      "place_id": "ChIJ6cyE1fEABDQRumAEffuXDj8",
      "types": [
        "premise"
      ]
    },
    {
      "address_components": [
        {
          "long_name": "\u9999\u6e2f",
          "short_name": "HK",
          "types": [
            "country",
            "political"
          ]
        }
      ],
      "formatted_address": "Shop 33-35, UG/F, Wing On Plaza, 62 Mody Road, Tsim Sha Tsui, Kowloon, \u9999\u6e2f",
      "geometry": {
        "location": {
          "lat": 22.296723,
          "lng": 114.176397
        },
        "location_type": "GEOMETRIC_CENTER",
        "viewport": {
          "northeast": {
            "lat": 22.2980719802915,
            "lng": 114.1777459802915
          },
          "southwest": {
            "lat": 22.2953740197085,
            "lng": 114.1750480197085
          }
        }
      },
      "partial_match": true,
      "place_id": "ChIJt26P1fEABDQR31eBnTu_pXY",
      "types": [
        "establishment",
        "point_of_interest"
      ]
    }
  ],
  "licno": "3161805888",
  "timestamp": 1564975666,
  "version": "1564966095"
}
