{
  "adr_en": "Oi Kwan, SHOPS E8 & E9, 3/F, LEE YAT HOUSE, SHUN LEE ESTATE, KWUN TONG, KOWLOON",
  "adr_tc": "\u4e5d\u9f8d\u89c0\u5858 \u9806\u5229\u90a8\u5229\u9038\u6a133\u6a13E8\u53caE9\u865f\u8216 \u611b\u7fa4",
  "geocode_en": [
    {
      "address_components": [
        {
          "long_name": "3/F",
          "short_name": "3/F",
          "types": [
            "floor"
          ]
        },
        {
          "long_name": "Lee Yat House, Shun Lee Estate",
          "short_name": "Lee Yat House, Shun Lee Estate",
          "types": [
            "premise"
          ]
        },
        {
          "long_name": "Kwun Tong",
          "short_name": "Kwun Tong",
          "types": [
            "neighborhood",
            "political"
          ]
        },
        {
          "long_name": "Kowloon",
          "short_name": "Kowloon",
          "types": [
            "administrative_area_level_1",
            "political"
          ]
        },
        {
          "long_name": "Hong Kong",
          "short_name": "HK",
          "types": [
            "country",
            "political"
          ]
        }
      ],
      "formatted_address": "3/F, Lee Yat House, Shun Lee Estate, Kwun Tong, Hong Kong",
      "geometry": {
        "location": {
          "lat": 22.3310825,
          "lng": 114.22626
        },
        "location_type": "ROOFTOP",
        "viewport": {
          "northeast": {
            "lat": 22.3324314802915,
            "lng": 114.2276089802915
          },
          "southwest": {
            "lat": 22.32973351970849,
            "lng": 114.2249110197085
          }
        }
      },
      "partial_match": true,
      "place_id": "ChIJb3eNMbAGBDQRfFmDco13DoY",
      "plus_code": {
        "compound_code": "86JG+CG Hong Kong",
        "global_code": "7PJP86JG+CG"
      },
      "types": [
        "establishment",
        "food",
        "point_of_interest",
        "restaurant"
      ]
    },
    {
      "address_components": [
        {
          "long_name": "Hong Kong",
          "short_name": "HK",
          "types": [
            "country",
            "political"
          ]
        }
      ],
      "formatted_address": "Hong Kong, \u6e05\u6c34\u7063\u9053",
      "geometry": {
        "location": {
          "lat": 22.331559,
          "lng": 114.226003
        },
        "location_type": "GEOMETRIC_CENTER",
        "viewport": {
          "northeast": {
            "lat": 22.3329079802915,
            "lng": 114.2273519802915
          },
          "southwest": {
            "lat": 22.3302100197085,
            "lng": 114.2246540197085
          }
        }
      },
      "partial_match": true,
      "place_id": "ChIJM8G3R7AGBDQRv8HRevGBkF8",
      "plus_code": {
        "compound_code": "86JG+JC Hong Kong",
        "global_code": "7PJP86JG+JC"
      },
      "types": [
        "establishment",
        "point_of_interest"
      ]
    }
  ],
  "geocode_tc": [
    {
      "address_components": [
        {
          "long_name": "\u9999\u6e2f",
          "short_name": "HK",
          "types": [
            "country",
            "political"
          ]
        }
      ],
      "formatted_address": "\u9999\u6e2f\u6e05\u6c34\u7063\u9053",
      "geometry": {
        "location": {
          "lat": 22.331186,
          "lng": 114.226333
        },
        "location_type": "GEOMETRIC_CENTER",
        "viewport": {
          "northeast": {
            "lat": 22.3325349802915,
            "lng": 114.2276819802915
          },
          "southwest": {
            "lat": 22.3298370197085,
            "lng": 114.2249840197085
          }
        }
      },
      "partial_match": true,
      "place_id": "ChIJC6THMbAGBDQRcJvEDhyygho",
      "plus_code": {
        "compound_code": "86JG+FG \u9999\u6e2f",
        "global_code": "7PJP86JG+FG"
      },
      "types": [
        "establishment",
        "point_of_interest"
      ]
    },
    {
      "address_components": [
        {
          "long_name": "3/F",
          "short_name": "3/F",
          "types": [
            "floor"
          ]
        },
        {
          "long_name": "Lee Yat House, Shun Lee Estate",
          "short_name": "Lee Yat House, Shun Lee Estate",
          "types": [
            "premise"
          ]
        },
        {
          "long_name": "Kwun Tong",
          "short_name": "Kwun Tong",
          "types": [
            "neighborhood",
            "political"
          ]
        },
        {
          "long_name": "Kowloon",
          "short_name": "Kowloon",
          "types": [
            "administrative_area_level_1",
            "political"
          ]
        },
        {
          "long_name": "\u9999\u6e2f",
          "short_name": "HK",
          "types": [
            "country",
            "political"
          ]
        }
      ],
      "formatted_address": "3/F, Lee Yat House, Shun Lee Estate, Kwun Tong, \u9999\u6e2f",
      "geometry": {
        "location": {
          "lat": 22.3310825,
          "lng": 114.22626
        },
        "location_type": "ROOFTOP",
        "viewport": {
          "northeast": {
            "lat": 22.3324314802915,
            "lng": 114.2276089802915
          },
          "southwest": {
            "lat": 22.32973351970849,
            "lng": 114.2249110197085
          }
        }
      },
      "partial_match": true,
      "place_id": "ChIJb3eNMbAGBDQRfFmDco13DoY",
      "plus_code": {
        "compound_code": "86JG+CG \u9999\u6e2f",
        "global_code": "7PJP86JG+CG"
      },
      "types": [
        "establishment",
        "food",
        "point_of_interest",
        "restaurant"
      ]
    }
  ],
  "licno": "2251141415",
  "timestamp": 1564968756,
  "version": "1564966095"
}
