{
  "adr_en": "\u91d1\u9999, SHOP NO. 5, G/F, CHEONG FAT BUILDING, 48A-48K TAI TONG ROAD, YUEN LONG, NEW TERRITORIES",
  "adr_tc": "\u65b0\u754c\u5143\u6717\u5927\u68e0\u8def48A-48K\u660c\u767c\u5927\u5ec8\u5730\u4e0b5\u865f\u92ea \u91d1\u9999",
  "geocode_en": [
    {
      "address_components": [
        {
          "long_name": "\u91d1\u9999, SHOP NO",
          "short_name": "\u91d1\u9999, SHOP NO",
          "types": [
            "subpremise"
          ]
        },
        {
          "long_name": "Cheong Fat Building",
          "short_name": "Cheong Fat Building",
          "types": [
            "premise"
          ]
        },
        {
          "long_name": "48A-48K",
          "short_name": "48A-48K",
          "types": [
            "street_number"
          ]
        },
        {
          "long_name": "Tai Tong Road",
          "short_name": "Tai Tong Rd",
          "types": [
            "route"
          ]
        },
        {
          "long_name": "Yuen Long",
          "short_name": "Yuen Long",
          "types": [
            "neighborhood",
            "political"
          ]
        },
        {
          "long_name": "New Territories",
          "short_name": "New Territories",
          "types": [
            "administrative_area_level_1",
            "political"
          ]
        },
        {
          "long_name": "Hong Kong",
          "short_name": "HK",
          "types": [
            "country",
            "political"
          ]
        }
      ],
      "formatted_address": "\u91d1\u9999, SHOP NO, Cheong Fat Building, 48A-48K Tai Tong Rd, Yuen Long, Hong Kong",
      "geometry": {
        "bounds": {
          "northeast": {
            "lat": 22.442343,
            "lng": 114.0287829
          },
          "southwest": {
            "lat": 22.442025,
            "lng": 114.0285259
          }
        },
        "location": {
          "lat": 22.4421735,
          "lng": 114.0286843
        },
        "location_type": "ROOFTOP",
        "viewport": {
          "northeast": {
            "lat": 22.4435329802915,
            "lng": 114.0300033802915
          },
          "southwest": {
            "lat": 22.44083501970849,
            "lng": 114.0273054197085
          }
        }
      },
      "partial_match": true,
      "place_id": "Ek_ph5HpppksIFNIT1AgTk8sIENoZW9uZyBGYXQgQnVpbGRpbmcsIDQ4QS00OEsgVGFpIFRvbmcgUmQsIFl1ZW4gTG9uZywgSG9uZyBLb25nIisaKQoWChQKEgl1v7l6CvoDNBH-wvgz3h3kWhIP6YeR6aaZLCBTSE9QIE5P",
      "types": [
        "subpremise"
      ]
    },
    {
      "address_components": [
        {
          "long_name": "SHOP NO. 5, G",
          "short_name": "SHOP NO. 5, G",
          "types": [
            "subpremise"
          ]
        },
        {
          "long_name": "Cheong Fat Building",
          "short_name": "Cheong Fat Building",
          "types": [
            "premise"
          ]
        },
        {
          "long_name": "48A-48K",
          "short_name": "48A-48K",
          "types": [
            "street_number"
          ]
        },
        {
          "long_name": "Tai Tong Road",
          "short_name": "Tai Tong Rd",
          "types": [
            "route"
          ]
        },
        {
          "long_name": "Yuen Long",
          "short_name": "Yuen Long",
          "types": [
            "neighborhood",
            "political"
          ]
        },
        {
          "long_name": "New Territories",
          "short_name": "New Territories",
          "types": [
            "administrative_area_level_1",
            "political"
          ]
        },
        {
          "long_name": "Hong Kong",
          "short_name": "HK",
          "types": [
            "country",
            "political"
          ]
        }
      ],
      "formatted_address": "SHOP NO. 5, G, Cheong Fat Building, 48A-48K Tai Tong Rd, Yuen Long, Hong Kong",
      "geometry": {
        "bounds": {
          "northeast": {
            "lat": 22.442343,
            "lng": 114.0287829
          },
          "southwest": {
            "lat": 22.442025,
            "lng": 114.0285259
          }
        },
        "location": {
          "lat": 22.4421735,
          "lng": 114.0286843
        },
        "location_type": "ROOFTOP",
        "viewport": {
          "northeast": {
            "lat": 22.4435329802915,
            "lng": 114.0300033802915
          },
          "southwest": {
            "lat": 22.44083501970849,
            "lng": 114.0273054197085
          }
        }
      },
      "partial_match": true,
      "place_id": "Ek1TSE9QIE5PLiA1LCBHLCBDaGVvbmcgRmF0IEJ1aWxkaW5nLCA0OEEtNDhLIFRhaSBUb25nIFJkLCBZdWVuIExvbmcsIEhvbmcgS29uZyIpGicKFgoUChIJdb-5egr6AzQR_sL4M94d5FoSDVNIT1AgTk8uIDUsIEc",
      "types": [
        "subpremise"
      ]
    }
  ],
  "geocode_tc": [
    {
      "address_components": [
        {
          "long_name": "\u9999\u6e2f",
          "short_name": "HK",
          "types": [
            "country",
            "political"
          ]
        }
      ],
      "formatted_address": "\u9999\u6e2f\u5143\u6717\u5927\u68e0\u8def48A-48K\u660c\u767c\u5927\u5ec8\u5730\u4e0b5\u865f\u8216",
      "geometry": {
        "location": {
          "lat": 22.442175,
          "lng": 114.028653
        },
        "location_type": "GEOMETRIC_CENTER",
        "viewport": {
          "northeast": {
            "lat": 22.4435239802915,
            "lng": 114.0300019802915
          },
          "southwest": {
            "lat": 22.4408260197085,
            "lng": 114.0273040197085
          }
        }
      },
      "place_id": "ChIJVW63egr6AzQRxAFp94hOCtA",
      "plus_code": {
        "compound_code": "C2RH+VF \u9999\u6e2f",
        "global_code": "7PJPC2RH+VF"
      },
      "types": [
        "establishment",
        "point_of_interest"
      ]
    }
  ],
  "licno": "2294801116",
  "timestamp": 1564975666,
  "version": "1564966095"
}
