{
  "adr_en": "\u8a31\u7559\u5c71, SHOP NOS 37-38, LEVEL 3, LUCKY PLAZA, SHA TIN, NEW TERRITORIES",
  "adr_tc": "\u65b0\u754c\u6c99\u7530 \u597d\u904b\u4e2d\u5fc3 3\u6a1337\u53ca38\u865f\u92ea \u8a31\u7559\u5c71",
  "geocode_en": [
    {
      "address_components": [
        {
          "long_name": "Hong Kong",
          "short_name": "HK",
          "types": [
            "country",
            "political"
          ]
        }
      ],
      "formatted_address": "Hong Kong, \u6c99\u7530\u597d\u904b\u4e2d\u5fc3\u7b2c3\u5c6437-38\u8216",
      "geometry": {
        "location": {
          "lat": 22.3829903,
          "lng": 114.1904125
        },
        "location_type": "GEOMETRIC_CENTER",
        "viewport": {
          "northeast": {
            "lat": 22.38433928029151,
            "lng": 114.1917614802915
          },
          "southwest": {
            "lat": 22.3816413197085,
            "lng": 114.1890635197085
          }
        }
      },
      "partial_match": true,
      "place_id": "ChIJjbh4Z60HBDQRAndPw7_oK3A",
      "plus_code": {
        "compound_code": "95MR+55 Hong Kong",
        "global_code": "7PJP95MR+55"
      },
      "types": [
        "establishment",
        "food",
        "point_of_interest"
      ]
    },
    {
      "address_components": [
        {
          "long_name": "1-15\u865f",
          "short_name": "1-15\u865f",
          "types": [
            "street_number"
          ]
        },
        {
          "long_name": "Wang Pok Street",
          "short_name": "Wang Pok St",
          "types": [
            "route"
          ]
        },
        {
          "long_name": "Sha Tin",
          "short_name": "Sha Tin",
          "types": [
            "neighborhood",
            "political"
          ]
        },
        {
          "long_name": "New Territories",
          "short_name": "New Territories",
          "types": [
            "administrative_area_level_1",
            "political"
          ]
        },
        {
          "long_name": "Hong Kong",
          "short_name": "HK",
          "types": [
            "country",
            "political"
          ]
        }
      ],
      "formatted_address": "1-15\u865f Wang Pok St, Sha Tin, Hong Kong",
      "geometry": {
        "location": {
          "lat": 22.3826912,
          "lng": 114.19123
        },
        "location_type": "ROOFTOP",
        "viewport": {
          "northeast": {
            "lat": 22.3840401802915,
            "lng": 114.1925789802915
          },
          "southwest": {
            "lat": 22.3813422197085,
            "lng": 114.1898810197085
          }
        }
      },
      "partial_match": true,
      "place_id": "ChIJWQByTK0HBDQRvXSX8RM1mIE",
      "plus_code": {
        "compound_code": "95MR+3F Sha Tin, Hong Kong",
        "global_code": "7PJP95MR+3F"
      },
      "types": [
        "establishment",
        "point_of_interest",
        "real_estate_agency",
        "shopping_mall"
      ]
    }
  ],
  "geocode_tc": [
    {
      "address_components": [
        {
          "long_name": "\u9999\u6e2f",
          "short_name": "HK",
          "types": [
            "country",
            "political"
          ]
        }
      ],
      "formatted_address": "\u9999\u6e2f\u6c99\u7530\u597d\u904b\u4e2d\u5fc3\u7b2c3\u5c6437-38\u8216",
      "geometry": {
        "location": {
          "lat": 22.3829903,
          "lng": 114.1904125
        },
        "location_type": "GEOMETRIC_CENTER",
        "viewport": {
          "northeast": {
            "lat": 22.38433928029151,
            "lng": 114.1917614802915
          },
          "southwest": {
            "lat": 22.3816413197085,
            "lng": 114.1890635197085
          }
        }
      },
      "place_id": "ChIJjbh4Z60HBDQRAndPw7_oK3A",
      "plus_code": {
        "compound_code": "95MR+55 \u9999\u6e2f",
        "global_code": "7PJP95MR+55"
      },
      "types": [
        "establishment",
        "food",
        "point_of_interest"
      ]
    }
  ],
  "licno": "3197000624",
  "timestamp": 1564975666,
  "version": "1564966095"
}
