{
  "adr_en": "Cafe'de Coral, SHOP 108, 1/F, YAU LAI SHOPPING CENTRE, YAU TONG, KOWLOON",
  "adr_tc": "\u4e5d\u9f8d\u6cb9\u5858\u6cb9\u9e97\u5546\u58341\u6a13108\u865f\u8216 \u5927\u5bb6\u6a02",
  "geocode_en": [
    {
      "address_components": [
        {
          "long_name": "Hong Kong",
          "short_name": "HK",
          "types": [
            "country",
            "political"
          ]
        }
      ],
      "formatted_address": "Shop No.108, 1/F, Yau Lai Shopping Centre, Yau Tong, Kowloon, Hong Kong",
      "geometry": {
        "location": {
          "lat": 22.298725,
          "lng": 114.236857
        },
        "location_type": "GEOMETRIC_CENTER",
        "viewport": {
          "northeast": {
            "lat": 22.3000739802915,
            "lng": 114.2382059802915
          },
          "southwest": {
            "lat": 22.2973760197085,
            "lng": 114.2355080197085
          }
        }
      },
      "place_id": "ChIJtfYC2l8BBDQRQpWXbw_MYVU",
      "plus_code": {
        "compound_code": "76XP+FP Hong Kong",
        "global_code": "7PJP76XP+FP"
      },
      "types": [
        "establishment",
        "point_of_interest"
      ]
    }
  ],
  "geocode_tc": [
    {
      "address_components": [
        {
          "long_name": "\u9999\u6e2f",
          "short_name": "HK",
          "types": [
            "country",
            "political"
          ]
        }
      ],
      "formatted_address": "\u9999\u6e2f\u6cb9\u5858\u6cb9\u9e97\u90a8\u6cb9\u9e97\u5546\u58341\u6a13108\u865f\u8216",
      "geometry": {
        "location": {
          "lat": 22.2988532,
          "lng": 114.236902
        },
        "location_type": "GEOMETRIC_CENTER",
        "viewport": {
          "northeast": {
            "lat": 22.30020218029151,
            "lng": 114.2382509802915
          },
          "southwest": {
            "lat": 22.2975042197085,
            "lng": 114.2355530197085
          }
        }
      },
      "place_id": "ChIJKf5m2l8BBDQRDI_-uaJxOvw",
      "plus_code": {
        "compound_code": "76XP+GQ \u9999\u6e2f",
        "global_code": "7PJP76XP+GQ"
      },
      "types": [
        "establishment",
        "food",
        "point_of_interest",
        "restaurant"
      ]
    }
  ],
  "licno": "2251802824",
  "timestamp": 1564968756,
  "version": "1564966095"
}
