{
  "adr_en": "\u5c0f\u59b9\u751c\u54c1, FLAT/RM. 5, G/F, TAI FONG BUILDING, COSMOPOLITAN ESTATE KOWLOON, NOS. 51-65 IVY STREET, TAI KOK TSUI, KOWLOON",
  "adr_tc": "\u4e5d\u9f8d\u5927\u89d2\u5480\u57c3\u83ef\u885751-65\u865f\u5927\u540c\u65b0\u90a8\u5927\u65b9\u6a13\u5730\u4e0b5\u5ba4 \u5c0f\u59b9\u751c\u54c1",
  "geocode_en": [
    {
      "address_components": [
        {
          "long_name": "65",
          "short_name": "65",
          "types": [
            "street_number"
          ]
        },
        {
          "long_name": "Ivy Street",
          "short_name": "Ivy St",
          "types": [
            "route"
          ]
        },
        {
          "long_name": "Tai Kok Tsui",
          "short_name": "Tai Kok Tsui",
          "types": [
            "neighborhood",
            "political"
          ]
        },
        {
          "long_name": "Hong Kong",
          "short_name": "HK",
          "types": [
            "country",
            "political"
          ]
        }
      ],
      "formatted_address": "Hong Kong, Tai Kok Tsui, Ivy St, 65\u865f\u5730\u4e0b",
      "geometry": {
        "location": {
          "lat": 22.3213471,
          "lng": 114.161425
        },
        "location_type": "ROOFTOP",
        "viewport": {
          "northeast": {
            "lat": 22.3226960802915,
            "lng": 114.1627739802915
          },
          "southwest": {
            "lat": 22.3199981197085,
            "lng": 114.1600760197085
          }
        }
      },
      "partial_match": true,
      "place_id": "ChIJHQlWB7oABDQRPS1erJ93gvA",
      "plus_code": {
        "compound_code": "85C6+GH Hong Kong",
        "global_code": "7PJP85C6+GH"
      },
      "types": [
        "establishment",
        "food",
        "point_of_interest",
        "store"
      ]
    },
    {
      "address_components": [
        {
          "long_name": "Cosmopolitan Estate Tai Wai Building",
          "short_name": "Cosmopolitan Estate Tai Wai Building",
          "types": [
            "premise"
          ]
        },
        {
          "long_name": "89-105",
          "short_name": "89-105",
          "types": [
            "street_number"
          ]
        },
        {
          "long_name": "Ivy Street",
          "short_name": "Ivy St",
          "types": [
            "route"
          ]
        },
        {
          "long_name": "Tai Kok Tsui",
          "short_name": "Tai Kok Tsui",
          "types": [
            "neighborhood",
            "political"
          ]
        },
        {
          "long_name": "Kowloon",
          "short_name": "Kowloon",
          "types": [
            "administrative_area_level_1",
            "political"
          ]
        },
        {
          "long_name": "Hong Kong",
          "short_name": "HK",
          "types": [
            "country",
            "political"
          ]
        }
      ],
      "formatted_address": "Cosmopolitan Estate Tai Wai Building, 89-105 Ivy St, Tai Kok Tsui, Hong Kong",
      "geometry": {
        "bounds": {
          "northeast": {
            "lat": 22.321358,
            "lng": 114.160931
          },
          "southwest": {
            "lat": 22.321182,
            "lng": 114.1604471
          }
        },
        "location": {
          "lat": 22.3212426,
          "lng": 114.1607026
        },
        "location_type": "ROOFTOP",
        "viewport": {
          "northeast": {
            "lat": 22.3226189802915,
            "lng": 114.1620380302915
          },
          "southwest": {
            "lat": 22.3199210197085,
            "lng": 114.1593400697085
          }
        }
      },
      "partial_match": true,
      "place_id": "ChIJV2RcCboABDQRXCxcVqc4mS8",
      "types": [
        "premise"
      ]
    }
  ],
  "geocode_tc": [
    {
      "address_components": [
        {
          "long_name": "51",
          "short_name": "51",
          "types": [
            "street_number"
          ]
        },
        {
          "long_name": "\u57c3\u83ef\u8857",
          "short_name": "\u57c3\u83ef\u8857",
          "types": [
            "route"
          ]
        },
        {
          "long_name": "\u5927\u89d2\u5480",
          "short_name": "\u5927\u89d2\u5480",
          "types": [
            "neighborhood",
            "political"
          ]
        },
        {
          "long_name": "\u4e5d\u9f8d",
          "short_name": "\u4e5d\u9f8d",
          "types": [
            "administrative_area_level_1",
            "political"
          ]
        },
        {
          "long_name": "\u9999\u6e2f",
          "short_name": "HK",
          "types": [
            "country",
            "political"
          ]
        }
      ],
      "formatted_address": "\u9999\u6e2f\u5927\u89d2\u5480\u57c3\u83ef\u885751\u865f",
      "geometry": {
        "location": {
          "lat": 22.3213899,
          "lng": 114.1618756
        },
        "location_type": "RANGE_INTERPOLATED",
        "viewport": {
          "northeast": {
            "lat": 22.3227388802915,
            "lng": 114.1632245802915
          },
          "southwest": {
            "lat": 22.3200409197085,
            "lng": 114.1605266197085
          }
        }
      },
      "partial_match": true,
      "place_id": "EiI1MSBJdnkgU3QsIFRhaSBLb2sgVHN1aSwgSG9uZyBLb25nIhoSGAoUChIJjQCZqrAABDQRZL3YyjNOQhAQMw",
      "types": [
        "street_address"
      ]
    },
    {
      "address_components": [
        {
          "long_name": "\u5ba4 \u5c0f\u59b9",
          "short_name": "\u5ba4 \u5c0f\u59b9",
          "types": [
            "subpremise"
          ]
        },
        {
          "long_name": "\u5927\u540c\u65b0\u90a8\u5927\u65b9\u6a13",
          "short_name": "\u5927\u540c\u65b0\u90a8\u5927\u65b9\u6a13",
          "types": [
            "premise"
          ]
        },
        {
          "long_name": "97-105",
          "short_name": "97-105",
          "types": [
            "street_number"
          ]
        },
        {
          "long_name": "\u5927\u89d2\u5480\u9053",
          "short_name": "\u5927\u89d2\u5480\u9053",
          "types": [
            "route"
          ]
        },
        {
          "long_name": "\u5927\u89d2\u5480",
          "short_name": "\u5927\u89d2\u5480",
          "types": [
            "neighborhood",
            "political"
          ]
        },
        {
          "long_name": "\u4e5d\u9f8d",
          "short_name": "\u4e5d\u9f8d",
          "types": [
            "administrative_area_level_1",
            "political"
          ]
        },
        {
          "long_name": "\u9999\u6e2f",
          "short_name": "HK",
          "types": [
            "country",
            "political"
          ]
        }
      ],
      "formatted_address": "\u9999\u6e2f\u5927\u89d2\u5480\u5927\u89d2\u5480\u905397-105\u865f\u5927\u540c\u65b0\u90a8\u5927\u65b9\u6a13\u5ba4 \u5c0f\u59b9",
      "geometry": {
        "bounds": {
          "northeast": {
            "lat": 22.32136,
            "lng": 114.161831
          },
          "southwest": {
            "lat": 22.3211839,
            "lng": 114.161413
          }
        },
        "location": {
          "lat": 22.3212706,
          "lng": 114.1616315
        },
        "location_type": "ROOFTOP",
        "viewport": {
          "northeast": {
            "lat": 22.3226209302915,
            "lng": 114.1629709802915
          },
          "southwest": {
            "lat": 22.3199229697085,
            "lng": 114.1602730197085
          }
        }
      },
      "partial_match": true,
      "place_id": "EmLlrqQg5bCP5aa5LCBDb3Ntb3BvbGl0YW4gRXN0YXRlIFRhaSBGb25nIEJ1aWxkaW5nLCA5Ny0xMDUgVGFpIEtvayBUc3VpIFJkLCBUYWkgS29rIFRzdWksIEhvbmcgS29uZyImGiQKFgoUChIJhXhQALoABDQRag-EPgazDRUSCuWupCDlsI_lprk",
      "types": [
        "subpremise"
      ]
    }
  ],
  "licno": "2262813004",
  "timestamp": 1564968756,
  "version": "1564966095"
}
