{
  "adr_en": "\u5bcc\u83ef, SHOP NO.2, G/F, LG 1 & LG 2, FU LAI HOUSE, FU SHAN ESTATE, HAMMER HILL, WONG TAI SIN, KOWLOON",
  "adr_tc": "\u4e5d\u9f8d\u9ec3\u5927\u4ed9\u5bcc\u5c71\u90a8\u5bcc\u79ae\u6a13 2\u865f\u8216(\u5730\u4e0b\u3001\u4f4e\u5c64\u4e00\u6a13\u53ca\u4f4e\u5c64\u4e8c\u6a13) \u5bcc\u83ef",
  "geocode_en": [
    {
      "address_components": [
        {
          "long_name": "Po Kong Village Road",
          "short_name": "Po Kong Village Rd",
          "types": [
            "route"
          ]
        },
        {
          "long_name": "Diamond Hill",
          "short_name": "Diamond Hill",
          "types": [
            "neighborhood",
            "political"
          ]
        },
        {
          "long_name": "Kowloon",
          "short_name": "Kowloon",
          "types": [
            "administrative_area_level_1",
            "political"
          ]
        },
        {
          "long_name": "Hong Kong",
          "short_name": "HK",
          "types": [
            "country",
            "political"
          ]
        }
      ],
      "formatted_address": "Po Kong Village Rd, Diamond Hill, Hong Kong",
      "geometry": {
        "location": {
          "lat": 22.3422354,
          "lng": 114.2083658
        },
        "location_type": "GEOMETRIC_CENTER",
        "viewport": {
          "northeast": {
            "lat": 22.3435843802915,
            "lng": 114.2097147802915
          },
          "southwest": {
            "lat": 22.3408864197085,
            "lng": 114.2070168197085
          }
        }
      },
      "partial_match": true,
      "place_id": "ChIJsYkc5cMGBDQRNYTPO0R_gqw",
      "plus_code": {
        "compound_code": "86R5+V8 Hong Kong",
        "global_code": "7PJP86R5+V8"
      },
      "types": [
        "establishment",
        "parking",
        "point_of_interest"
      ]
    }
  ],
  "geocode_tc": [
    {
      "address_components": [
        {
          "long_name": "\u5bcc\u5c71\u90a8\u5bcc\u79ae\u6a13",
          "short_name": "\u5bcc\u5c71\u90a8\u5bcc\u79ae\u6a13",
          "types": [
            "premise"
          ]
        },
        {
          "long_name": "2",
          "short_name": "2",
          "types": [
            "street_number"
          ]
        },
        {
          "long_name": "\u8c50\u76db\u8857",
          "short_name": "\u8c50\u76db\u8857",
          "types": [
            "route"
          ]
        },
        {
          "long_name": "\u65a7\u5c71",
          "short_name": "\u65a7\u5c71",
          "types": [
            "neighborhood",
            "political"
          ]
        },
        {
          "long_name": "\u4e5d\u9f8d",
          "short_name": "\u4e5d\u9f8d",
          "types": [
            "administrative_area_level_1",
            "political"
          ]
        },
        {
          "long_name": "\u9999\u6e2f",
          "short_name": "HK",
          "types": [
            "country",
            "political"
          ]
        }
      ],
      "formatted_address": "\u9999\u6e2f\u65a7\u5c71\u8c50\u76db\u88572\u865f\u5bcc\u5c71\u90a8\u5bcc\u79ae\u6a13",
      "geometry": {
        "bounds": {
          "northeast": {
            "lat": 22.3424341,
            "lng": 114.209032
          },
          "southwest": {
            "lat": 22.342091,
            "lng": 114.208308
          }
        },
        "location": {
          "lat": 22.3422608,
          "lng": 114.208725
        },
        "location_type": "ROOFTOP",
        "viewport": {
          "northeast": {
            "lat": 22.3436115302915,
            "lng": 114.2100189802915
          },
          "southwest": {
            "lat": 22.3409135697085,
            "lng": 114.2073210197085
          }
        }
      },
      "partial_match": true,
      "place_id": "ChIJ8UUY-sMGBDQRShg7ER8YQ0s",
      "types": [
        "premise"
      ]
    }
  ],
  "licno": "2253059363",
  "timestamp": 1564968756,
  "version": "1564966095"
}
