{
  "adr_en": "\u8d85\u8a18, NO. 30, G/F., BLOCK B, WAH TAT BUILDING, HOI PA STREET, TSUEN WAN, NEW TERRITORIES",
  "adr_tc": "\u65b0\u754c\u8343\u7063\u6d77\u58e9\u8857\u83ef\u9054\u5927\u5ec8B\u5ea7\u5730\u4e0b30\u865f \u8d85\u8a18",
  "geocode_en": [
    {
      "address_components": [
        {
          "long_name": "30",
          "short_name": "30",
          "types": [
            "street_number"
          ]
        },
        {
          "long_name": "Hoi Pa Street",
          "short_name": "Hoi Pa St",
          "types": [
            "route"
          ]
        },
        {
          "long_name": "Tsuen Wan",
          "short_name": "Tsuen Wan",
          "types": [
            "neighborhood",
            "political"
          ]
        },
        {
          "long_name": "Hong Kong",
          "short_name": "HK",
          "types": [
            "country",
            "political"
          ]
        }
      ],
      "formatted_address": "\u865f, 30 Hoi Pa St, Tsuen Wan, Hong Kong",
      "geometry": {
        "location": {
          "lat": 22.3736155,
          "lng": 114.1122986
        },
        "location_type": "ROOFTOP",
        "viewport": {
          "northeast": {
            "lat": 22.3749644802915,
            "lng": 114.1136475802915
          },
          "southwest": {
            "lat": 22.3722665197085,
            "lng": 114.1109496197085
          }
        }
      },
      "partial_match": true,
      "place_id": "ChIJO77aJu74AzQR2Zu8jmUFyNU",
      "plus_code": {
        "compound_code": "94F6+CW Hong Kong",
        "global_code": "7PJP94F6+CW"
      },
      "types": [
        "establishment",
        "food",
        "point_of_interest",
        "restaurant"
      ]
    },
    {
      "address_components": [
        {
          "long_name": "Wah Tat Building",
          "short_name": "Wah Tat Building",
          "types": [
            "premise"
          ]
        },
        {
          "long_name": "24-26",
          "short_name": "24-26",
          "types": [
            "street_number"
          ]
        },
        {
          "long_name": "Hoi Pa Street",
          "short_name": "Hoi Pa St",
          "types": [
            "route"
          ]
        },
        {
          "long_name": "Tsuen Wan",
          "short_name": "Tsuen Wan",
          "types": [
            "neighborhood",
            "political"
          ]
        },
        {
          "long_name": "New Territories",
          "short_name": "New Territories",
          "types": [
            "administrative_area_level_1",
            "political"
          ]
        },
        {
          "long_name": "Hong Kong",
          "short_name": "HK",
          "types": [
            "country",
            "political"
          ]
        }
      ],
      "formatted_address": "Wah Tat Building, 24-26 Hoi Pa St, Tsuen Wan, Hong Kong",
      "geometry": {
        "bounds": {
          "northeast": {
            "lat": 22.373781,
            "lng": 114.1121261
          },
          "southwest": {
            "lat": 22.373618,
            "lng": 114.111976
          }
        },
        "location": {
          "lat": 22.3737152,
          "lng": 114.112048
        },
        "location_type": "ROOFTOP",
        "viewport": {
          "northeast": {
            "lat": 22.3750484802915,
            "lng": 114.1134000302915
          },
          "southwest": {
            "lat": 22.3723505197085,
            "lng": 114.1107020697085
          }
        }
      },
      "partial_match": true,
      "place_id": "ChIJpWjLJ-74AzQR3CEFx_gx2z8",
      "types": [
        "premise"
      ]
    }
  ],
  "geocode_tc": [
    {
      "address_components": [
        {
          "long_name": "30",
          "short_name": "30",
          "types": [
            "street_number"
          ]
        },
        {
          "long_name": "Hoi Pa Street",
          "short_name": "Hoi Pa St",
          "types": [
            "route"
          ]
        },
        {
          "long_name": "Tsuen Wan",
          "short_name": "Tsuen Wan",
          "types": [
            "neighborhood",
            "political"
          ]
        },
        {
          "long_name": "\u9999\u6e2f",
          "short_name": "HK",
          "types": [
            "country",
            "political"
          ]
        }
      ],
      "formatted_address": "\u865f, 30 Hoi Pa St, Tsuen Wan, \u9999\u6e2f",
      "geometry": {
        "location": {
          "lat": 22.3736155,
          "lng": 114.1122986
        },
        "location_type": "ROOFTOP",
        "viewport": {
          "northeast": {
            "lat": 22.3749644802915,
            "lng": 114.1136475802915
          },
          "southwest": {
            "lat": 22.3722665197085,
            "lng": 114.1109496197085
          }
        }
      },
      "partial_match": true,
      "place_id": "ChIJO77aJu74AzQR2Zu8jmUFyNU",
      "plus_code": {
        "compound_code": "94F6+CW \u9999\u6e2f",
        "global_code": "7PJP94F6+CW"
      },
      "types": [
        "establishment",
        "food",
        "point_of_interest",
        "restaurant"
      ]
    }
  ],
  "licno": "3192000346",
  "timestamp": 1564975666,
  "version": "1564966095"
}
