{
  "adr_en": "Memorable After A Try, SHOP NO. C13, UG/F, TSUEN WAN CENTRE SHOPPING ARCADE PHASE 1, 86 TSUEN KING CIRCUIT, TSUEN WAN, NEW TERRITORIES",
  "adr_tc": "\u65b0\u754c\u8343\u7063\u8343\u666f\u570d86\u865f\u8343\u7063\u4e2d\u5fc3\u8cfc\u7269\u5546\u5834\u4e00\u671f\u4e0a\u5c64\u5730\u4e0bC13\u865f\u8216 \u4e00\u8a66\u96e3\u5fd8",
  "geocode_en": [
    {
      "address_components": [
        {
          "long_name": "Tsuen King Circuit",
          "short_name": "Tsuen King Circuit",
          "types": [
            "route"
          ]
        },
        {
          "long_name": "Hong Kong",
          "short_name": "HK",
          "types": [
            "country",
            "political"
          ]
        }
      ],
      "formatted_address": "Hong Kong, Tsuen King Circuit, \u8343\u7063 \u4e2d\u5fc3 \u5546\u5834 \u4e00 \u671f S24 \u865f \u92ea",
      "geometry": {
        "location": {
          "lat": 22.3781038,
          "lng": 114.1075411
        },
        "location_type": "GEOMETRIC_CENTER",
        "viewport": {
          "northeast": {
            "lat": 22.3794527802915,
            "lng": 114.1088900802915
          },
          "southwest": {
            "lat": 22.37675481970849,
            "lng": 114.1061921197085
          }
        }
      },
      "partial_match": true,
      "place_id": "ChIJZ-3XJaj5AzQRgK4Dz6WKPC4",
      "plus_code": {
        "compound_code": "94H5+62 Hong Kong",
        "global_code": "7PJP94H5+62"
      },
      "types": [
        "establishment",
        "food",
        "point_of_interest",
        "restaurant"
      ]
    },
    {
      "address_components": [
        {
          "long_name": "Tsuen King Circuit",
          "short_name": "Tsuen King Circuit",
          "types": [
            "route"
          ]
        },
        {
          "long_name": "Tsuen Wan",
          "short_name": "Tsuen Wan",
          "types": [
            "neighborhood",
            "political"
          ]
        },
        {
          "long_name": "New Territories",
          "short_name": "New Territories",
          "types": [
            "administrative_area_level_1",
            "political"
          ]
        },
        {
          "long_name": "Hong Kong",
          "short_name": "HK",
          "types": [
            "country",
            "political"
          ]
        }
      ],
      "formatted_address": "Hong Kong, Tsuen Wan, Tsuen King Circuit, \u8343\u7063\u4e2d\u5fc3\u5546\u5834\u4e8c\u671f27\u92ea",
      "geometry": {
        "location": {
          "lat": 22.3780666,
          "lng": 114.1079394
        },
        "location_type": "GEOMETRIC_CENTER",
        "viewport": {
          "northeast": {
            "lat": 22.3794155802915,
            "lng": 114.1092883802915
          },
          "southwest": {
            "lat": 22.3767176197085,
            "lng": 114.1065904197085
          }
        }
      },
      "partial_match": true,
      "place_id": "ChIJa8yylvD4AzQRsnt7Pi07qbk",
      "plus_code": {
        "compound_code": "94H5+65 Tsuen Wan, Hong Kong",
        "global_code": "7PJP94H5+65"
      },
      "types": [
        "establishment",
        "point_of_interest",
        "shopping_mall"
      ]
    },
    {
      "address_components": [
        {
          "long_name": "PHASE 1",
          "short_name": "PHASE 1",
          "types": [
            "subpremise"
          ]
        },
        {
          "long_name": "Tsuen Wan Centre Nanchang House",
          "short_name": "Tsuen Wan Centre Nanchang House",
          "types": [
            "premise"
          ]
        },
        {
          "long_name": "86",
          "short_name": "86",
          "types": [
            "street_number"
          ]
        },
        {
          "long_name": "Tsuen King Circuit",
          "short_name": "Tsuen King Circuit",
          "types": [
            "route"
          ]
        },
        {
          "long_name": "Tsuen Wan",
          "short_name": "Tsuen Wan",
          "types": [
            "neighborhood",
            "political"
          ]
        },
        {
          "long_name": "New Territories",
          "short_name": "New Territories",
          "types": [
            "administrative_area_level_1",
            "political"
          ]
        },
        {
          "long_name": "Hong Kong",
          "short_name": "HK",
          "types": [
            "country",
            "political"
          ]
        }
      ],
      "formatted_address": "PHASE 1, Tsuen Wan Centre Nanchang House, 86 Tsuen King Circuit, Tsuen Wan, Hong Kong",
      "geometry": {
        "bounds": {
          "northeast": {
            "lat": 22.3787451,
            "lng": 114.1089691
          },
          "southwest": {
            "lat": 22.3785361,
            "lng": 114.108727
          }
        },
        "location": {
          "lat": 22.378625,
          "lng": 114.1088429
        },
        "location_type": "ROOFTOP",
        "viewport": {
          "northeast": {
            "lat": 22.3799895802915,
            "lng": 114.1101970302915
          },
          "southwest": {
            "lat": 22.3772916197085,
            "lng": 114.1074990697085
          }
        }
      },
      "partial_match": true,
      "place_id": "EkpQSEFTRSAxLCBUc3VlbiBXYW4gQ2VudHJlIE5hbmNoYW5nIEhvdXNlLCA4NiBUc3VlbiBLaW5nIENpcmN1aXQsIEhvbmcgS29uZyIjGiEKFgoUChIJf5WMovD4AzQRnvKJfNvmoTgSB1BIQVNFIDE",
      "types": [
        "subpremise"
      ]
    }
  ],
  "geocode_tc": [
    {
      "address_components": [
        {
          "long_name": "\u8343\u666f\u570d",
          "short_name": "\u8343\u666f\u570d",
          "types": [
            "route"
          ]
        },
        {
          "long_name": "\u8343\u7063",
          "short_name": "\u8343\u7063",
          "types": [
            "neighborhood",
            "political"
          ]
        },
        {
          "long_name": "\u65b0\u754c",
          "short_name": "\u65b0\u754c",
          "types": [
            "administrative_area_level_1",
            "political"
          ]
        },
        {
          "long_name": "\u9999\u6e2f",
          "short_name": "HK",
          "types": [
            "country",
            "political"
          ]
        }
      ],
      "formatted_address": "\u9999\u6e2f\u8343\u7063\u8343\u666f\u570d",
      "geometry": {
        "location": {
          "lat": 22.3785816,
          "lng": 114.1078291
        },
        "location_type": "GEOMETRIC_CENTER",
        "viewport": {
          "northeast": {
            "lat": 22.3799305802915,
            "lng": 114.1091780802915
          },
          "southwest": {
            "lat": 22.3772326197085,
            "lng": 114.1064801197085
          }
        }
      },
      "partial_match": true,
      "place_id": "ChIJJ7pxc_r4AzQRF4rHQRdUaB4",
      "plus_code": {
        "compound_code": "94H5+C4 \u9999\u6e2f",
        "global_code": "7PJP94H5+C4"
      },
      "types": [
        "establishment",
        "point_of_interest"
      ]
    },
    {
      "address_components": [
        {
          "long_name": "\u8343\u666f\u570d",
          "short_name": "\u8343\u666f\u570d",
          "types": [
            "route"
          ]
        },
        {
          "long_name": "\u9999\u6e2f",
          "short_name": "HK",
          "types": [
            "country",
            "political"
          ]
        }
      ],
      "formatted_address": "\u9999\u6e2f\u8343\u666f\u570d\u8343\u7063 \u4e2d\u5fc3 \u5546\u5834 \u4e00 \u671f S24 \u865f \u92ea",
      "geometry": {
        "location": {
          "lat": 22.3781038,
          "lng": 114.1075411
        },
        "location_type": "GEOMETRIC_CENTER",
        "viewport": {
          "northeast": {
            "lat": 22.3794527802915,
            "lng": 114.1088900802915
          },
          "southwest": {
            "lat": 22.37675481970849,
            "lng": 114.1061921197085
          }
        }
      },
      "partial_match": true,
      "place_id": "ChIJZ-3XJaj5AzQRgK4Dz6WKPC4",
      "plus_code": {
        "compound_code": "94H5+62 \u9999\u6e2f",
        "global_code": "7PJP94H5+62"
      },
      "types": [
        "establishment",
        "food",
        "point_of_interest",
        "restaurant"
      ]
    }
  ],
  "licno": "2292802780",
  "timestamp": 1564968756,
  "version": "1564966095"
}
