{
  "adr_en": "BLEND & GRIND, GROUND FLOOR, NO. 1 SUN STREET, WAN CHAI, HONG KONG",
  "adr_tc": "\u9999\u6e2f\u7063\u4ed4\u65e5\u88571\u865f\u5730\u4e0b BLEND & GRIND",
  "geocode_en": [
    {
      "address_components": [
        {
          "long_name": "Mid-Levels",
          "short_name": "Mid-Levels",
          "types": [
            "neighborhood",
            "political"
          ]
        },
        {
          "long_name": "Hong Kong Island",
          "short_name": "Hong Kong Island",
          "types": [
            "administrative_area_level_1",
            "political"
          ]
        },
        {
          "long_name": "Hong Kong",
          "short_name": "HK",
          "types": [
            "country",
            "political"
          ]
        }
      ],
      "formatted_address": "Shop A2, 1 Princes Terrace, Central, Mid-Levels, Hong Kong",
      "geometry": {
        "location": {
          "lat": 22.280861,
          "lng": 114.152098
        },
        "location_type": "GEOMETRIC_CENTER",
        "viewport": {
          "northeast": {
            "lat": 22.2822099802915,
            "lng": 114.1534469802915
          },
          "southwest": {
            "lat": 22.2795120197085,
            "lng": 114.1507490197085
          }
        }
      },
      "partial_match": true,
      "place_id": "ChIJoam0TXoABDQREqwNd1Yqa4E",
      "plus_code": {
        "compound_code": "75J2+8R Mid-Levels, Hong Kong",
        "global_code": "7PJP75J2+8R"
      },
      "types": [
        "cafe",
        "establishment",
        "food",
        "point_of_interest"
      ]
    },
    {
      "address_components": [
        {
          "long_name": "Shun Ho Building",
          "short_name": "Shun Ho Building",
          "types": [
            "premise"
          ]
        },
        {
          "long_name": "1",
          "short_name": "1",
          "types": [
            "street_number"
          ]
        },
        {
          "long_name": "Sun Street",
          "short_name": "Sun St",
          "types": [
            "route"
          ]
        },
        {
          "long_name": "Wan Chai",
          "short_name": "Wan Chai",
          "types": [
            "neighborhood",
            "political"
          ]
        },
        {
          "long_name": "Hong Kong Island",
          "short_name": "Hong Kong Island",
          "types": [
            "administrative_area_level_1",
            "political"
          ]
        },
        {
          "long_name": "Hong Kong",
          "short_name": "HK",
          "types": [
            "country",
            "political"
          ]
        }
      ],
      "formatted_address": "Shun Ho Building, 1 Sun St, Wan Chai, Hong Kong",
      "geometry": {
        "bounds": {
          "northeast": {
            "lat": 22.2766291,
            "lng": 114.168556
          },
          "southwest": {
            "lat": 22.27652,
            "lng": 114.168452
          }
        },
        "location": {
          "lat": 22.2765572,
          "lng": 114.1684939
        },
        "location_type": "ROOFTOP",
        "viewport": {
          "northeast": {
            "lat": 22.2779235302915,
            "lng": 114.1698529802915
          },
          "southwest": {
            "lat": 22.2752255697085,
            "lng": 114.1671550197085
          }
        }
      },
      "partial_match": true,
      "place_id": "ChIJWZvQRF0ABDQRGvS0TkQhwtY",
      "types": [
        "premise"
      ]
    }
  ],
  "geocode_tc": [
    {
      "address_components": [
        {
          "long_name": "Mid-Levels",
          "short_name": "Mid-Levels",
          "types": [
            "neighborhood",
            "political"
          ]
        },
        {
          "long_name": "Hong Kong Island",
          "short_name": "Hong Kong Island",
          "types": [
            "administrative_area_level_1",
            "political"
          ]
        },
        {
          "long_name": "\u9999\u6e2f",
          "short_name": "HK",
          "types": [
            "country",
            "political"
          ]
        }
      ],
      "formatted_address": "Shop A2, 1 Princes Terrace, Central, Mid-Levels, \u9999\u6e2f",
      "geometry": {
        "location": {
          "lat": 22.280861,
          "lng": 114.152098
        },
        "location_type": "GEOMETRIC_CENTER",
        "viewport": {
          "northeast": {
            "lat": 22.2822099802915,
            "lng": 114.1534469802915
          },
          "southwest": {
            "lat": 22.2795120197085,
            "lng": 114.1507490197085
          }
        }
      },
      "place_id": "ChIJoam0TXoABDQREqwNd1Yqa4E",
      "plus_code": {
        "compound_code": "75J2+8R \u9999\u6e2f\u534a\u5c71\u5340",
        "global_code": "7PJP75J2+8R"
      },
      "types": [
        "cafe",
        "establishment",
        "food",
        "point_of_interest"
      ]
    }
  ],
  "licno": "2212802379",
  "timestamp": 1564966180,
  "version": "1564966095"
}
