{
  "adr_en": "\u6842\u6797\u7c73\u7c89, SHOP 1058, 1/F, ONE SKY MALL, 8 TIN SAU ROAD, TIN SHUI WAI, YUEN LONG, NEW TERRITORIES",
  "adr_tc": "\u65b0\u754c\u5143\u6717\u5929\u6c34\u570d\u5929\u79c0\u8def8\u865f\u5929\u4e00\u5546\u57ce\u4e00\u6a131058\u92ea \u6842\u6797\u7c73\u7c89",
  "geocode_en": [
    {
      "address_components": [
        {
          "long_name": "Guilin",
          "short_name": "Guilin",
          "types": [
            "locality",
            "political"
          ]
        },
        {
          "long_name": "Guangxi",
          "short_name": "Guangxi",
          "types": [
            "administrative_area_level_1",
            "political"
          ]
        },
        {
          "long_name": "China",
          "short_name": "CN",
          "types": [
            "country",
            "political"
          ]
        }
      ],
      "formatted_address": "Guilin, Guangxi, China",
      "geometry": {
        "bounds": {
          "northeast": {
            "lat": 26.3855656,
            "lng": 111.4920739
          },
          "southwest": {
            "lat": 24.25883,
            "lng": 109.6176848
          }
        },
        "location": {
          "lat": 25.234479,
          "lng": 110.179953
        },
        "location_type": "APPROXIMATE",
        "viewport": {
          "northeast": {
            "lat": 25.372462,
            "lng": 110.3954315
          },
          "southwest": {
            "lat": 25.2029577,
            "lng": 110.1873779
          }
        }
      },
      "partial_match": true,
      "place_id": "ChIJM1EhdTb0pDYR4UpwHRnBhv8",
      "types": [
        "locality",
        "political"
      ]
    },
    {
      "address_components": [
        {
          "long_name": "8",
          "short_name": "8",
          "types": [
            "street_number"
          ]
        },
        {
          "long_name": "Tin Sau Road",
          "short_name": "Tin Sau Rd",
          "types": [
            "route"
          ]
        },
        {
          "long_name": "Tin Shui Wai",
          "short_name": "Tin Shui Wai",
          "types": [
            "neighborhood",
            "political"
          ]
        },
        {
          "long_name": "New Territories",
          "short_name": "New Territories",
          "types": [
            "administrative_area_level_1",
            "political"
          ]
        },
        {
          "long_name": "Hong Kong",
          "short_name": "HK",
          "types": [
            "country",
            "political"
          ]
        }
      ],
      "formatted_address": "8 Tin Sau Rd, Tin Shui Wai, Hong Kong",
      "geometry": {
        "location": {
          "lat": 22.4647433,
          "lng": 114.0030365
        },
        "location_type": "ROOFTOP",
        "viewport": {
          "northeast": {
            "lat": 22.46609228029151,
            "lng": 114.0043854802915
          },
          "southwest": {
            "lat": 22.4633943197085,
            "lng": 114.0016875197085
          }
        }
      },
      "partial_match": true,
      "place_id": "ChIJ1y64PorwAzQRSO0LWqzLOZ8",
      "plus_code": {
        "compound_code": "F273+V6 Tin Shui Wai, Hong Kong",
        "global_code": "7PJPF273+V6"
      },
      "types": [
        "establishment",
        "point_of_interest",
        "shopping_mall"
      ]
    }
  ],
  "geocode_tc": [
    {
      "address_components": [
        {
          "long_name": "8",
          "short_name": "8",
          "types": [
            "street_number"
          ]
        },
        {
          "long_name": "\u5929\u79c0\u8def",
          "short_name": "\u5929\u79c0\u8def",
          "types": [
            "route"
          ]
        },
        {
          "long_name": "\u5929\u6c34\u570d",
          "short_name": "\u5929\u6c34\u570d",
          "types": [
            "neighborhood",
            "political"
          ]
        },
        {
          "long_name": "\u65b0\u754c",
          "short_name": "\u65b0\u754c",
          "types": [
            "administrative_area_level_1",
            "political"
          ]
        },
        {
          "long_name": "\u9999\u6e2f",
          "short_name": "HK",
          "types": [
            "country",
            "political"
          ]
        }
      ],
      "formatted_address": "\u9999\u6e2f\u5929\u6c34\u570d\u5929\u79c0\u8def8\u865f",
      "geometry": {
        "location": {
          "lat": 22.4647433,
          "lng": 114.0030365
        },
        "location_type": "ROOFTOP",
        "viewport": {
          "northeast": {
            "lat": 22.46609228029151,
            "lng": 114.0043854802915
          },
          "southwest": {
            "lat": 22.4633943197085,
            "lng": 114.0016875197085
          }
        }
      },
      "place_id": "ChIJ1y64PorwAzQRSO0LWqzLOZ8",
      "plus_code": {
        "compound_code": "F273+V6 \u9999\u6e2f\u5929\u6c34\u570d",
        "global_code": "7PJPF273+V6"
      },
      "types": [
        "establishment",
        "point_of_interest",
        "shopping_mall"
      ]
    }
  ],
  "licno": "3194802418",
  "timestamp": 1564975666,
  "version": "1564966095"
}
