{
  "adr_en": "RED CHAMBER LOUNGE, UNIT 405A, 4/F., PEDDER BUILDING, 12 PEDDER STREET, CENTRAL, HONG KONG",
  "adr_tc": "\u9999\u6e2f\u4e2d\u74b0\u7562\u6253\u885712\u865f\u7562\u6253\u884c4\u6a13405A\u5ba4 RED CHAMBER LOUNGE",
  "geocode_en": [
    {
      "address_components": [
        {
          "long_name": "Hong Kong Island",
          "short_name": "Hong Kong Island",
          "types": [
            "administrative_area_level_1",
            "political"
          ]
        },
        {
          "long_name": "Hong Kong",
          "short_name": "HK",
          "types": [
            "country",
            "political"
          ]
        }
      ],
      "formatted_address": "Unit 405A , 4/F, Pedder Building,, 12 Pedder Street, Central, Hong Kong, Hong Kong",
      "geometry": {
        "location": {
          "lat": 22.281755,
          "lng": 114.157059
        },
        "location_type": "GEOMETRIC_CENTER",
        "viewport": {
          "northeast": {
            "lat": 22.2831039802915,
            "lng": 114.1584079802915
          },
          "southwest": {
            "lat": 22.2804060197085,
            "lng": 114.1557100197085
          }
        }
      },
      "place_id": "ChIJZ9rZvmQABDQR8KpGirzeAs8",
      "plus_code": {
        "compound_code": "75J4+PR Hong Kong",
        "global_code": "7PJP75J4+PR"
      },
      "types": [
        "establishment",
        "point_of_interest"
      ]
    }
  ],
  "geocode_tc": [
    {
      "address_components": [
        {
          "long_name": "Hong Kong Island",
          "short_name": "Hong Kong Island",
          "types": [
            "administrative_area_level_1",
            "political"
          ]
        },
        {
          "long_name": "\u9999\u6e2f",
          "short_name": "HK",
          "types": [
            "country",
            "political"
          ]
        }
      ],
      "formatted_address": "Unit 405A , 4/F, Pedder Building,, 12 Pedder Street, Central, Hong Kong, \u9999\u6e2f",
      "geometry": {
        "location": {
          "lat": 22.281755,
          "lng": 114.157059
        },
        "location_type": "GEOMETRIC_CENTER",
        "viewport": {
          "northeast": {
            "lat": 22.2831039802915,
            "lng": 114.1584079802915
          },
          "southwest": {
            "lat": 22.2804060197085,
            "lng": 114.1557100197085
          }
        }
      },
      "partial_match": true,
      "place_id": "ChIJZ9rZvmQABDQR8KpGirzeAs8",
      "plus_code": {
        "compound_code": "75J4+PR \u9999\u6e2f",
        "global_code": "7PJP75J4+PR"
      },
      "types": [
        "establishment",
        "point_of_interest"
      ]
    },
    {
      "address_components": [
        {
          "long_name": "\u7562\u6253\u884c",
          "short_name": "\u7562\u6253\u884c",
          "types": [
            "premise"
          ]
        },
        {
          "long_name": "12",
          "short_name": "12",
          "types": [
            "street_number"
          ]
        },
        {
          "long_name": "\u7562\u6253\u8857",
          "short_name": "\u7562\u6253\u8857",
          "types": [
            "route"
          ]
        },
        {
          "long_name": "\u4e2d\u74b0",
          "short_name": "\u4e2d\u74b0",
          "types": [
            "neighborhood",
            "political"
          ]
        },
        {
          "long_name": "\u9999\u6e2f\u5cf6",
          "short_name": "\u9999\u6e2f\u5cf6",
          "types": [
            "administrative_area_level_1",
            "political"
          ]
        },
        {
          "long_name": "\u9999\u6e2f",
          "short_name": "HK",
          "types": [
            "country",
            "political"
          ]
        }
      ],
      "formatted_address": "\u9999\u6e2f\u4e2d\u74b0\u7562\u6253\u885712\u865f\u7562\u6253\u884c",
      "geometry": {
        "bounds": {
          "northeast": {
            "lat": 22.2820579,
            "lng": 114.157173
          },
          "southwest": {
            "lat": 22.28166,
            "lng": 114.1568051
          }
        },
        "location": {
          "lat": 22.2818636,
          "lng": 114.1570102
        },
        "location_type": "ROOFTOP",
        "viewport": {
          "northeast": {
            "lat": 22.2832079302915,
            "lng": 114.1583380302915
          },
          "southwest": {
            "lat": 22.2805099697085,
            "lng": 114.1556400697085
          }
        }
      },
      "partial_match": true,
      "place_id": "ChIJZ9rZvmQABDQRVpgihy7RIOc",
      "types": [
        "premise"
      ]
    }
  ],
  "licno": "3118804214",
  "timestamp": 1564975666,
  "version": "1564966095"
}
