{
  "adr_en": "\u592a\u6e56\u6d77\u9bae\u57ce, 9/F., CAUSEWAY BAY PLAZA 2, 463-483 LOCKHART ROAD, CAUSEWAY BAY, HONG KONG",
  "adr_tc": "\u9999\u6e2f\u9285\u947c\u7063\u99f1\u514b\u9053463-483\u865f\u9285\u947c\u7063\u5ee3\u58342\u671f9\u6a13 \u592a\u6e56\u6d77\u9bae\u57ce",
  "geocode_en": [
    {
      "address_components": [
        {
          "long_name": "Hong Kong",
          "short_name": "HK",
          "types": [
            "country",
            "political"
          ]
        }
      ],
      "formatted_address": "Hong Kong, 9/F, Causeway Bay Plaza 2, 463-483 Lockhart Rd",
      "geometry": {
        "location": {
          "lat": 22.280545,
          "lng": 114.182127
        },
        "location_type": "GEOMETRIC_CENTER",
        "viewport": {
          "northeast": {
            "lat": 22.2818939802915,
            "lng": 114.1834759802915
          },
          "southwest": {
            "lat": 22.2791960197085,
            "lng": 114.1807780197085
          }
        }
      },
      "place_id": "ChIJSTAgIVcABDQRKvWGbx8HGOg",
      "plus_code": {
        "compound_code": "75JJ+6V Hong Kong",
        "global_code": "7PJP75JJ+6V"
      },
      "types": [
        "establishment",
        "food",
        "point_of_interest",
        "restaurant"
      ]
    }
  ],
  "geocode_tc": [
    {
      "address_components": [
        {
          "long_name": "\u9999\u6e2f",
          "short_name": "HK",
          "types": [
            "country",
            "political"
          ]
        }
      ],
      "formatted_address": "\u9999\u6e2f9/F, Causeway Bay Plaza 2, 463-483 Lockhart Rd",
      "geometry": {
        "location": {
          "lat": 22.280545,
          "lng": 114.182127
        },
        "location_type": "GEOMETRIC_CENTER",
        "viewport": {
          "northeast": {
            "lat": 22.2818939802915,
            "lng": 114.1834759802915
          },
          "southwest": {
            "lat": 22.2791960197085,
            "lng": 114.1807780197085
          }
        }
      },
      "place_id": "ChIJSTAgIVcABDQRKvWGbx8HGOg",
      "plus_code": {
        "compound_code": "75JJ+6V \u9999\u6e2f",
        "global_code": "7PJP75JJ+6V"
      },
      "types": [
        "establishment",
        "food",
        "point_of_interest",
        "restaurant"
      ]
    },
    {
      "address_components": [
        {
          "long_name": "463-464",
          "short_name": "463-464",
          "types": [
            "street_number"
          ]
        },
        {
          "long_name": "\u99f1\u514b\u9053",
          "short_name": "\u99f1\u514b\u9053",
          "types": [
            "route"
          ]
        },
        {
          "long_name": "\u9d5d\u9838",
          "short_name": "\u9d5d\u9838",
          "types": [
            "neighborhood",
            "political"
          ]
        },
        {
          "long_name": "\u9999\u6e2f\u5cf6",
          "short_name": "\u9999\u6e2f\u5cf6",
          "types": [
            "administrative_area_level_1",
            "political"
          ]
        },
        {
          "long_name": "\u9999\u6e2f",
          "short_name": "HK",
          "types": [
            "country",
            "political"
          ]
        }
      ],
      "formatted_address": "\u9999\u6e2f\u9d5d\u9838\u99f1\u514b\u9053463-464\u865f",
      "geometry": {
        "location": {
          "lat": 22.2805855,
          "lng": 114.1822161
        },
        "location_type": "ROOFTOP",
        "viewport": {
          "northeast": {
            "lat": 22.2819344802915,
            "lng": 114.1835650802915
          },
          "southwest": {
            "lat": 22.27923651970849,
            "lng": 114.1808671197085
          }
        }
      },
      "place_id": "ChIJ10U_3lYABDQRGE-ZBNvFrZo",
      "plus_code": {
        "compound_code": "75JJ+6V \u9999\u6e2f",
        "global_code": "7PJP75JJ+6V"
      },
      "types": [
        "establishment",
        "point_of_interest",
        "shopping_mall"
      ]
    }
  ],
  "licno": "2212804898",
  "timestamp": 1564966180,
  "version": "1564966095"
}
