{
  "adr_en": "\u6b3d\u8a18, SHOP NO 3, G/F, WO FUNG COURT, 8 WO FUNG STREET, FANLING, NEW TERRITORIES",
  "adr_tc": "\u65b0\u754c\u7c89\u5dba \u548c\u8c50\u88578\u865f\u548c\u8c50\u95a3 \u5730\u4e0b3\u865f\u8216 \u6b3d\u8a18",
  "geocode_en": [
    {
      "address_components": [
        {
          "long_name": "Wo Fung Court",
          "short_name": "Wo Fung Court",
          "types": [
            "premise"
          ]
        },
        {
          "long_name": "2-12",
          "short_name": "2-12",
          "types": [
            "street_number"
          ]
        },
        {
          "long_name": "Wo Fung Street",
          "short_name": "Wo Fung St",
          "types": [
            "route"
          ]
        },
        {
          "long_name": "Fanling",
          "short_name": "Fanling",
          "types": [
            "neighborhood",
            "political"
          ]
        },
        {
          "long_name": "New Territories",
          "short_name": "New Territories",
          "types": [
            "administrative_area_level_1",
            "political"
          ]
        },
        {
          "long_name": "Hong Kong",
          "short_name": "HK",
          "types": [
            "country",
            "political"
          ]
        }
      ],
      "formatted_address": "Wo Fung Court, 2-12 Wo Fung St, Fanling, Hong Kong",
      "geometry": {
        "location": {
          "lat": 22.498159,
          "lng": 114.142043
        },
        "location_type": "ROOFTOP",
        "viewport": {
          "northeast": {
            "lat": 22.4995079802915,
            "lng": 114.1433919802915
          },
          "southwest": {
            "lat": 22.49681001970849,
            "lng": 114.1406940197085
          }
        }
      },
      "partial_match": true,
      "place_id": "ChIJNV9a2x32AzQR3UR4KHZxc8g",
      "plus_code": {
        "compound_code": "F4XR+7R Hong Kong",
        "global_code": "7PJPF4XR+7R"
      },
      "types": [
        "establishment",
        "food",
        "point_of_interest",
        "restaurant"
      ]
    },
    {
      "address_components": [
        {
          "long_name": "Wo Fung Court",
          "short_name": "Wo Fung Court",
          "types": [
            "premise"
          ]
        },
        {
          "long_name": "2-12",
          "short_name": "2-12",
          "types": [
            "street_number"
          ]
        },
        {
          "long_name": "Wo Fung Street",
          "short_name": "Wo Fung St",
          "types": [
            "route"
          ]
        },
        {
          "long_name": "Fanling",
          "short_name": "Fanling",
          "types": [
            "neighborhood",
            "political"
          ]
        },
        {
          "long_name": "New Territories",
          "short_name": "New Territories",
          "types": [
            "administrative_area_level_1",
            "political"
          ]
        },
        {
          "long_name": "Hong Kong",
          "short_name": "HK",
          "types": [
            "country",
            "political"
          ]
        }
      ],
      "formatted_address": "Wo Fung Court, 2-12 Wo Fung St, Fanling, Hong Kong",
      "geometry": {
        "bounds": {
          "northeast": {
            "lat": 22.4982779,
            "lng": 114.14238
          },
          "southwest": {
            "lat": 22.497999,
            "lng": 114.1420819
          }
        },
        "location": {
          "lat": 22.4981563,
          "lng": 114.14224
        },
        "location_type": "ROOFTOP",
        "viewport": {
          "northeast": {
            "lat": 22.4994874302915,
            "lng": 114.1435799302915
          },
          "southwest": {
            "lat": 22.4967894697085,
            "lng": 114.1408819697085
          }
        }
      },
      "partial_match": true,
      "place_id": "ChIJQ4XQ3B32AzQRjjAKefq0uTY",
      "types": [
        "premise"
      ]
    }
  ],
  "geocode_tc": [
    {
      "address_components": [
        {
          "long_name": "\u548c\u8c50\u95a3",
          "short_name": "\u548c\u8c50\u95a3",
          "types": [
            "premise"
          ]
        },
        {
          "long_name": "2-12",
          "short_name": "2-12",
          "types": [
            "street_number"
          ]
        },
        {
          "long_name": "\u548c\u8c50\u8857",
          "short_name": "\u548c\u8c50\u8857",
          "types": [
            "route"
          ]
        },
        {
          "long_name": "\u7c89\u5dba",
          "short_name": "\u7c89\u5dba",
          "types": [
            "neighborhood",
            "political"
          ]
        },
        {
          "long_name": "\u65b0\u754c",
          "short_name": "\u65b0\u754c",
          "types": [
            "administrative_area_level_1",
            "political"
          ]
        },
        {
          "long_name": "\u9999\u6e2f",
          "short_name": "HK",
          "types": [
            "country",
            "political"
          ]
        }
      ],
      "formatted_address": "\u9999\u6e2f\u7c89\u5dba\u548c\u8c50\u88572-12\u865f\u548c\u8c50\u95a3",
      "geometry": {
        "bounds": {
          "northeast": {
            "lat": 22.4982779,
            "lng": 114.14238
          },
          "southwest": {
            "lat": 22.497999,
            "lng": 114.1420819
          }
        },
        "location": {
          "lat": 22.4981563,
          "lng": 114.14224
        },
        "location_type": "ROOFTOP",
        "viewport": {
          "northeast": {
            "lat": 22.4994874302915,
            "lng": 114.1435799302915
          },
          "southwest": {
            "lat": 22.4967894697085,
            "lng": 114.1408819697085
          }
        }
      },
      "partial_match": true,
      "place_id": "ChIJQ4XQ3B32AzQRjjAKefq0uTY",
      "types": [
        "premise"
      ]
    },
    {
      "address_components": [
        {
          "long_name": "\u548c\u8c50\u95a3",
          "short_name": "\u548c\u8c50\u95a3",
          "types": [
            "premise"
          ]
        },
        {
          "long_name": "2-12",
          "short_name": "2-12",
          "types": [
            "street_number"
          ]
        },
        {
          "long_name": "\u548c\u8c50\u8857",
          "short_name": "\u548c\u8c50\u8857",
          "types": [
            "route"
          ]
        },
        {
          "long_name": "\u7c89\u5dba",
          "short_name": "\u7c89\u5dba",
          "types": [
            "neighborhood",
            "political"
          ]
        },
        {
          "long_name": "\u65b0\u754c",
          "short_name": "\u65b0\u754c",
          "types": [
            "administrative_area_level_1",
            "political"
          ]
        },
        {
          "long_name": "\u9999\u6e2f",
          "short_name": "HK",
          "types": [
            "country",
            "political"
          ]
        }
      ],
      "formatted_address": "\u9999\u6e2f\u7c89\u5dba\u548c\u8c50\u88572-12\u865f\u548c\u8c50\u95a3",
      "geometry": {
        "location": {
          "lat": 22.498159,
          "lng": 114.142043
        },
        "location_type": "ROOFTOP",
        "viewport": {
          "northeast": {
            "lat": 22.4995079802915,
            "lng": 114.1433919802915
          },
          "southwest": {
            "lat": 22.49681001970849,
            "lng": 114.1406940197085
          }
        }
      },
      "partial_match": true,
      "place_id": "ChIJNV9a2x32AzQR3UR4KHZxc8g",
      "plus_code": {
        "compound_code": "F4XR+7R \u9999\u6e2f",
        "global_code": "7PJPF4XR+7R"
      },
      "types": [
        "establishment",
        "food",
        "point_of_interest",
        "restaurant"
      ]
    }
  ],
  "licno": "2296000106",
  "timestamp": 1564975666,
  "version": "1564966095"
}
