{
  "adr_en": "\u5c0f\u96e8\u5929, 2/F, SHOP C33A, C35 ,C36 AND C37, KWAI CHUNG PLAZA, 7-11 KWAI FOO ROAD, KWAI CHUNG, NEW TERRITORIES",
  "adr_tc": "\u65b0\u754c\u8475\u6d8c \u8475\u5bcc\u8def7-11\u865f \u8475\u6d8c\u5ee3\u58342\u5b57\u6a13C33A,C35,C36\u53caC37\u865f\u92ea \u5c0f\u96e8\u5929",
  "geocode_en": [
    {
      "address_components": [
        {
          "long_name": "C37",
          "short_name": "C37",
          "types": [
            "subpremise"
          ]
        },
        {
          "long_name": "Kwai Chung Plaza",
          "short_name": "Kwai Chung Plaza",
          "types": [
            "premise"
          ]
        },
        {
          "long_name": "7-11",
          "short_name": "7-11",
          "types": [
            "street_number"
          ]
        },
        {
          "long_name": "Kwai Foo Road",
          "short_name": "Kwai Foo Rd",
          "types": [
            "route"
          ]
        },
        {
          "long_name": "Kwai Fong",
          "short_name": "Kwai Fong",
          "types": [
            "neighborhood",
            "political"
          ]
        },
        {
          "long_name": "New Territories",
          "short_name": "New Territories",
          "types": [
            "administrative_area_level_1",
            "political"
          ]
        },
        {
          "long_name": "Hong Kong",
          "short_name": "HK",
          "types": [
            "country",
            "political"
          ]
        }
      ],
      "formatted_address": "C37, Kwai Chung Plaza, 7-11 Kwai Foo Rd, Kwai Fong, Hong Kong",
      "geometry": {
        "bounds": {
          "northeast": {
            "lat": 22.3586099,
            "lng": 114.128227
          },
          "southwest": {
            "lat": 22.3575881,
            "lng": 114.1270061
          }
        },
        "location": {
          "lat": 22.3584385,
          "lng": 114.1274926
        },
        "location_type": "ROOFTOP",
        "viewport": {
          "northeast": {
            "lat": 22.3594479802915,
            "lng": 114.1289655302915
          },
          "southwest": {
            "lat": 22.3567500197085,
            "lng": 114.1262675697085
          }
        }
      },
      "partial_match": true,
      "place_id": "Ej1DMzcsIEt3YWkgQ2h1bmcgUGxhemEsIDctMTEgS3dhaSBGb28gUmQsIEt3YWkgRm9uZywgSG9uZyBLb25nIh8aHQoWChQKEgk5ROS3vfgDNBHYMi4LGt-RyRIDQzM3",
      "types": [
        "subpremise"
      ]
    }
  ],
  "geocode_tc": [
    {
      "address_components": [
        {
          "long_name": "11\u865f",
          "short_name": "11\u865f",
          "types": [
            "street_number"
          ]
        },
        {
          "long_name": "\u8475\u5bcc\u8def",
          "short_name": "\u8475\u5bcc\u8def",
          "types": [
            "route"
          ]
        },
        {
          "long_name": "\u8475\u6d8c",
          "short_name": "\u8475\u6d8c",
          "types": [
            "neighborhood",
            "political"
          ]
        },
        {
          "long_name": "\u65b0\u754c",
          "short_name": "\u65b0\u754c",
          "types": [
            "administrative_area_level_1",
            "political"
          ]
        },
        {
          "long_name": "\u9999\u6e2f",
          "short_name": "HK",
          "types": [
            "country",
            "political"
          ]
        }
      ],
      "formatted_address": "\u9999\u6e2f\u8475\u6d8c\u8475\u5bcc\u8def11\u865f",
      "geometry": {
        "location": {
          "lat": 22.357912,
          "lng": 114.1280366
        },
        "location_type": "ROOFTOP",
        "viewport": {
          "northeast": {
            "lat": 22.3592609802915,
            "lng": 114.1293855802915
          },
          "southwest": {
            "lat": 22.3565630197085,
            "lng": 114.1266876197085
          }
        }
      },
      "partial_match": true,
      "place_id": "ChIJPehqtr34AzQR1OpdrdG_QCc",
      "plus_code": {
        "compound_code": "945H+56 \u9999\u6e2f",
        "global_code": "7PJP945H+56"
      },
      "types": [
        "establishment",
        "point_of_interest",
        "shopping_mall"
      ]
    },
    {
      "address_components": [
        {
          "long_name": "\u9999\u6e2f",
          "short_name": "HK",
          "types": [
            "country",
            "political"
          ]
        }
      ],
      "formatted_address": "\u9999\u6e2f\u8475\u6d8c\u5ee3\u58342/F",
      "geometry": {
        "location": {
          "lat": 22.357829,
          "lng": 114.127626
        },
        "location_type": "GEOMETRIC_CENTER",
        "viewport": {
          "northeast": {
            "lat": 22.3591779802915,
            "lng": 114.1289749802915
          },
          "southwest": {
            "lat": 22.3564800197085,
            "lng": 114.1262770197085
          }
        }
      },
      "partial_match": true,
      "place_id": "ChIJjRkzyL34AzQRUhP5IRxHErs",
      "plus_code": {
        "compound_code": "945H+43 \u9999\u6e2f",
        "global_code": "7PJP945H+43"
      },
      "types": [
        "establishment",
        "food",
        "point_of_interest",
        "restaurant"
      ]
    }
  ],
  "licno": "3191000695",
  "timestamp": 1564975666,
  "version": "1564966095"
}
