{
  "adr_en": "\u5bcc\u6e90, G/F, AND OUTSIDE SEATING ACCOMMODATION AT SHOP FRONT, 2 NGAN CHI PATH, NGAU CHI WAN, WONG TAI SIN, KOWLOON",
  "adr_tc": "\u4e5d\u9f8d\u9ec3\u5927\u4ed9\u725b\u6c60\u7063\u9280\u6c60\u5f912\u865f\u5730\u4e0b \u53ca\u8216\u524d\u9732\u5929\u8336\u5ea7 \u5bcc\u6e90",
  "geocode_en": [
    {
      "address_components": [
        {
          "long_name": "\u69ae\u6c60\u5f91",
          "short_name": "\u69ae\u6c60\u5f91",
          "types": [
            "route"
          ]
        },
        {
          "long_name": "Ngau Chi Wan",
          "short_name": "Ngau Chi Wan",
          "types": [
            "neighborhood",
            "political"
          ]
        },
        {
          "long_name": "Kowloon",
          "short_name": "Kowloon",
          "types": [
            "administrative_area_level_1",
            "political"
          ]
        },
        {
          "long_name": "Hong Kong",
          "short_name": "HK",
          "types": [
            "country",
            "political"
          ]
        }
      ],
      "formatted_address": "\u69ae\u6c60\u5f91, Ngau Chi Wan, Hong Kong",
      "geometry": {
        "bounds": {
          "northeast": {
            "lat": 22.3356724,
            "lng": 114.2090965
          },
          "southwest": {
            "lat": 22.3347484,
            "lng": 114.2082142
          }
        },
        "location": {
          "lat": 22.335143,
          "lng": 114.208548
        },
        "location_type": "GEOMETRIC_CENTER",
        "viewport": {
          "northeast": {
            "lat": 22.3365593802915,
            "lng": 114.2100043302915
          },
          "southwest": {
            "lat": 22.3338614197085,
            "lng": 114.2073063697085
          }
        }
      },
      "partial_match": true,
      "place_id": "ChIJR026SM8GBDQRrFxes8sEb_A",
      "types": [
        "route"
      ]
    }
  ],
  "geocode_tc": [
    {
      "address_components": [
        {
          "long_name": "\u725b\u6c60\u7063",
          "short_name": "\u725b\u6c60\u7063",
          "types": [
            "neighborhood",
            "political"
          ]
        },
        {
          "long_name": "\u4e5d\u9f8d",
          "short_name": "\u4e5d\u9f8d",
          "types": [
            "administrative_area_level_1",
            "political"
          ]
        },
        {
          "long_name": "\u9999\u6e2f",
          "short_name": "HK",
          "types": [
            "country",
            "political"
          ]
        }
      ],
      "formatted_address": "\u9999\u6e2f\u725b\u6c60\u7063",
      "geometry": {
        "bounds": {
          "northeast": {
            "lat": 22.3401129,
            "lng": 114.2217423
          },
          "southwest": {
            "lat": 22.3322135,
            "lng": 114.2039966
          }
        },
        "location": {
          "lat": 22.3356369,
          "lng": 114.2084317
        },
        "location_type": "APPROXIMATE",
        "viewport": {
          "northeast": {
            "lat": 22.3401129,
            "lng": 114.2217423
          },
          "southwest": {
            "lat": 22.3322135,
            "lng": 114.2039966
          }
        }
      },
      "partial_match": true,
      "place_id": "ChIJm4KyxccGBDQRtm0FK5L5CHU",
      "types": [
        "neighborhood",
        "political"
      ]
    }
  ],
  "licno": "2253072294",
  "timestamp": 1564968756,
  "version": "1564966095"
}
