{
  "adr_en": "\u516d\u8a18, G/F, 92 CHUNG MEI VILLAGE, TSING YI, NEW TERRITORIES",
  "adr_tc": "\u65b0\u754c\u9752\u8863\u6d8c\u5c3e\u675192\u865f\u5730\u4e0b \u516d\u8a18",
  "geocode_en": [
    {
      "address_components": [
        {
          "long_name": "Hong Kong",
          "short_name": "HK",
          "types": [
            "country",
            "political"
          ]
        }
      ],
      "formatted_address": "Hong Kong, \u9752\u8863\u6d8c\u7f8e\u675192\u865f\u5730\u4e0b",
      "geometry": {
        "location": {
          "lat": 22.350884,
          "lng": 114.105348
        },
        "location_type": "GEOMETRIC_CENTER",
        "viewport": {
          "northeast": {
            "lat": 22.3522329802915,
            "lng": 114.1066969802915
          },
          "southwest": {
            "lat": 22.3495350197085,
            "lng": 114.1039990197085
          }
        }
      },
      "partial_match": true,
      "place_id": "ChIJkRAzX9D4AzQRdzeqzBTFMgM",
      "plus_code": {
        "compound_code": "9424+94 Hong Kong",
        "global_code": "7PJP9424+94"
      },
      "types": [
        "establishment",
        "food",
        "point_of_interest",
        "restaurant"
      ]
    },
    {
      "address_components": [
        {
          "long_name": "G",
          "short_name": "G",
          "types": [
            "subpremise"
          ]
        },
        {
          "long_name": "92",
          "short_name": "92",
          "types": [
            "street_number"
          ]
        },
        {
          "long_name": "Chung Mei Road",
          "short_name": "Chung Mei Rd",
          "types": [
            "route"
          ]
        },
        {
          "long_name": "Tsing Yi",
          "short_name": "Tsing Yi",
          "types": [
            "neighborhood",
            "political"
          ]
        },
        {
          "long_name": "New Territories",
          "short_name": "New Territories",
          "types": [
            "administrative_area_level_1",
            "political"
          ]
        },
        {
          "long_name": "Hong Kong",
          "short_name": "HK",
          "types": [
            "country",
            "political"
          ]
        }
      ],
      "formatted_address": "G, 92 Chung Mei Rd, Tsing Yi, Hong Kong",
      "geometry": {
        "location": {
          "lat": 22.3509296,
          "lng": 114.1026333
        },
        "location_type": "RANGE_INTERPOLATED",
        "viewport": {
          "northeast": {
            "lat": 22.35227858029151,
            "lng": 114.1039822802915
          },
          "southwest": {
            "lat": 22.3495806197085,
            "lng": 114.1012843197085
          }
        }
      },
      "partial_match": true,
      "place_id": "EidHLCA5MiBDaHVuZyBNZWkgUmQsIFRzaW5nIFlpLCBIb25nIEtvbmciIRofChoSGAoUChIJPTscztD4AzQRwAiUw4Em9OcQXBIBRw",
      "types": [
        "subpremise"
      ]
    },
    {
      "address_components": [
        {
          "long_name": "F",
          "short_name": "F",
          "types": [
            "subpremise"
          ]
        },
        {
          "long_name": "92",
          "short_name": "92",
          "types": [
            "street_number"
          ]
        },
        {
          "long_name": "Chung Mei Road",
          "short_name": "Chung Mei Rd",
          "types": [
            "route"
          ]
        },
        {
          "long_name": "Tsing Yi",
          "short_name": "Tsing Yi",
          "types": [
            "neighborhood",
            "political"
          ]
        },
        {
          "long_name": "New Territories",
          "short_name": "New Territories",
          "types": [
            "administrative_area_level_1",
            "political"
          ]
        },
        {
          "long_name": "Hong Kong",
          "short_name": "HK",
          "types": [
            "country",
            "political"
          ]
        }
      ],
      "formatted_address": "F, 92 Chung Mei Rd, Tsing Yi, Hong Kong",
      "geometry": {
        "location": {
          "lat": 22.3509296,
          "lng": 114.1026333
        },
        "location_type": "RANGE_INTERPOLATED",
        "viewport": {
          "northeast": {
            "lat": 22.35227858029151,
            "lng": 114.1039822802915
          },
          "southwest": {
            "lat": 22.3495806197085,
            "lng": 114.1012843197085
          }
        }
      },
      "partial_match": true,
      "place_id": "EidGLCA5MiBDaHVuZyBNZWkgUmQsIFRzaW5nIFlpLCBIb25nIEtvbmciIRofChoSGAoUChIJPTscztD4AzQRwAiUw4Em9OcQXBIBRg",
      "types": [
        "subpremise"
      ]
    }
  ],
  "geocode_tc": [
    {
      "address_components": [
        {
          "long_name": "\u9999\u6e2f",
          "short_name": "HK",
          "types": [
            "country",
            "political"
          ]
        }
      ],
      "formatted_address": "\u9999\u6e2f\u9752\u8863\u6d8c\u7f8e\u675192\u865f\u5730\u4e0b",
      "geometry": {
        "location": {
          "lat": 22.350884,
          "lng": 114.105348
        },
        "location_type": "GEOMETRIC_CENTER",
        "viewport": {
          "northeast": {
            "lat": 22.3522329802915,
            "lng": 114.1066969802915
          },
          "southwest": {
            "lat": 22.3495350197085,
            "lng": 114.1039990197085
          }
        }
      },
      "place_id": "ChIJkRAzX9D4AzQRdzeqzBTFMgM",
      "plus_code": {
        "compound_code": "9424+94 \u9999\u6e2f",
        "global_code": "7PJP9424+94"
      },
      "types": [
        "establishment",
        "food",
        "point_of_interest",
        "restaurant"
      ]
    }
  ],
  "licno": "2291801726",
  "timestamp": 1564968756,
  "version": "1564966095"
}
