{
  "adr_en": "\u76c8\u76c8\u5c0f\u5eda, SHOP A2, G/F, YEN NING BUILDING, 100-102 TING ON STREET, NGAU TAU KOK, KOWLOON",
  "adr_tc": "\u4e5d\u9f8d\u725b\u982d\u89d2\u5b9a\u5b89\u8857100-102\u865f\u4ec1\u5be7\u5927\u5ec8\u5730\u4e0bA2\u92ea \u76c8\u76c8\u5c0f\u5eda",
  "geocode_en": [
    {
      "address_components": [
        {
          "long_name": "19",
          "short_name": "19",
          "types": [
            "street_number"
          ]
        },
        {
          "long_name": "Ting Yip Street",
          "short_name": "Ting Yip St",
          "types": [
            "route"
          ]
        },
        {
          "long_name": "Tsat Tsz Mui",
          "short_name": "Tsat Tsz Mui",
          "types": [
            "neighborhood",
            "political"
          ]
        },
        {
          "long_name": "Kowloon",
          "short_name": "Kowloon",
          "types": [
            "administrative_area_level_1",
            "political"
          ]
        },
        {
          "long_name": "Hong Kong",
          "short_name": "HK",
          "types": [
            "country",
            "political"
          ]
        }
      ],
      "formatted_address": "19 Ting Yip St, Tsat Tsz Mui, Hong Kong",
      "geometry": {
        "location": {
          "lat": 22.3181094,
          "lng": 114.2153947
        },
        "location_type": "ROOFTOP",
        "viewport": {
          "northeast": {
            "lat": 22.3194583802915,
            "lng": 114.2167436802915
          },
          "southwest": {
            "lat": 22.31676041970849,
            "lng": 114.2140457197085
          }
        }
      },
      "partial_match": true,
      "place_id": "ChIJv0Db_UkBBDQRyQxyLI633zY",
      "plus_code": {
        "compound_code": "8698+65 Hong Kong",
        "global_code": "7PJP8698+65"
      },
      "types": [
        "establishment",
        "food",
        "point_of_interest",
        "restaurant"
      ]
    },
    {
      "address_components": [
        {
          "long_name": "Yen Ning Building",
          "short_name": "Yen Ning Building",
          "types": [
            "premise"
          ]
        },
        {
          "long_name": "100-102",
          "short_name": "100-102",
          "types": [
            "street_number"
          ]
        },
        {
          "long_name": "Ting On Street",
          "short_name": "Ting On St",
          "types": [
            "route"
          ]
        },
        {
          "long_name": "Ngau Tau Kok",
          "short_name": "Ngau Tau Kok",
          "types": [
            "neighborhood",
            "political"
          ]
        },
        {
          "long_name": "Kowloon",
          "short_name": "Kowloon",
          "types": [
            "administrative_area_level_1",
            "political"
          ]
        },
        {
          "long_name": "Hong Kong",
          "short_name": "HK",
          "types": [
            "country",
            "political"
          ]
        }
      ],
      "formatted_address": "Yen Ning Building, 100-102 Ting On St, Ngau Tau Kok, Hong Kong",
      "geometry": {
        "bounds": {
          "northeast": {
            "lat": 22.3181831,
            "lng": 114.215677
          },
          "southwest": {
            "lat": 22.3178859,
            "lng": 114.215324
          }
        },
        "location": {
          "lat": 22.3180875,
          "lng": 114.2155053
        },
        "location_type": "ROOFTOP",
        "viewport": {
          "northeast": {
            "lat": 22.3193834802915,
            "lng": 114.2168494802915
          },
          "southwest": {
            "lat": 22.3166855197085,
            "lng": 114.2141515197085
          }
        }
      },
      "partial_match": true,
      "place_id": "ChIJCWFI_EkBBDQRiCP0oNDqvK4",
      "types": [
        "premise"
      ]
    }
  ],
  "geocode_tc": [
    {
      "address_components": [
        {
          "long_name": "19",
          "short_name": "19",
          "types": [
            "street_number"
          ]
        },
        {
          "long_name": "\u5b9a\u696d\u8857",
          "short_name": "\u5b9a\u696d\u8857",
          "types": [
            "route"
          ]
        },
        {
          "long_name": "\u4e03\u59ca\u59b9",
          "short_name": "\u4e03\u59ca\u59b9",
          "types": [
            "neighborhood",
            "political"
          ]
        },
        {
          "long_name": "\u4e5d\u9f8d",
          "short_name": "\u4e5d\u9f8d",
          "types": [
            "administrative_area_level_1",
            "political"
          ]
        },
        {
          "long_name": "\u9999\u6e2f",
          "short_name": "HK",
          "types": [
            "country",
            "political"
          ]
        }
      ],
      "formatted_address": "\u9999\u6e2f\u4e03\u59ca\u59b9\u5b9a\u696d\u885719\u865f",
      "geometry": {
        "location": {
          "lat": 22.3181094,
          "lng": 114.2153947
        },
        "location_type": "ROOFTOP",
        "viewport": {
          "northeast": {
            "lat": 22.3194583802915,
            "lng": 114.2167436802915
          },
          "southwest": {
            "lat": 22.31676041970849,
            "lng": 114.2140457197085
          }
        }
      },
      "partial_match": true,
      "place_id": "ChIJv0Db_UkBBDQRyQxyLI633zY",
      "plus_code": {
        "compound_code": "8698+65 \u9999\u6e2f",
        "global_code": "7PJP8698+65"
      },
      "types": [
        "establishment",
        "food",
        "point_of_interest",
        "restaurant"
      ]
    },
    {
      "address_components": [
        {
          "long_name": "\u4ec1\u5be7\u5927\u5ec8",
          "short_name": "\u4ec1\u5be7\u5927\u5ec8",
          "types": [
            "premise"
          ]
        },
        {
          "long_name": "100-102",
          "short_name": "100-102",
          "types": [
            "street_number"
          ]
        },
        {
          "long_name": "\u5b9a\u5b89\u8857",
          "short_name": "\u5b9a\u5b89\u8857",
          "types": [
            "route"
          ]
        },
        {
          "long_name": "\u725b\u982d\u89d2",
          "short_name": "\u725b\u982d\u89d2",
          "types": [
            "neighborhood",
            "political"
          ]
        },
        {
          "long_name": "\u4e5d\u9f8d",
          "short_name": "\u4e5d\u9f8d",
          "types": [
            "administrative_area_level_1",
            "political"
          ]
        },
        {
          "long_name": "\u9999\u6e2f",
          "short_name": "HK",
          "types": [
            "country",
            "political"
          ]
        }
      ],
      "formatted_address": "\u9999\u6e2f\u725b\u982d\u89d2\u5b9a\u5b89\u8857100-102\u865f\u4ec1\u5be7\u5927\u5ec8",
      "geometry": {
        "bounds": {
          "northeast": {
            "lat": 22.3181831,
            "lng": 114.215677
          },
          "southwest": {
            "lat": 22.3178859,
            "lng": 114.215324
          }
        },
        "location": {
          "lat": 22.3180875,
          "lng": 114.2155053
        },
        "location_type": "ROOFTOP",
        "viewport": {
          "northeast": {
            "lat": 22.3193834802915,
            "lng": 114.2168494802915
          },
          "southwest": {
            "lat": 22.3166855197085,
            "lng": 114.2141515197085
          }
        }
      },
      "partial_match": true,
      "place_id": "ChIJCWFI_EkBBDQRiCP0oNDqvK4",
      "types": [
        "premise"
      ]
    }
  ],
  "licno": "2251805018",
  "timestamp": 1564968756,
  "version": "1564966095"
}
