{
  "adr_en": "Starbucks Coffee, PORTION A OF SHOP A, 1/F, HUNG ON BUILDING, NO. 3 TIN HAU TEMPLE ROAD, TIN HAU, HONG KONG",
  "adr_tc": "\u9999\u6e2f\u5929\u540e\u5929\u540e\u5edf\u90533\u865f\u9d3b\u5b89\u5927\u5ec81\u6a13A\u92eaA\u90e8\u4efd Starbucks Coffee",
  "geocode_en": [
    {
      "address_components": [
        {
          "long_name": "SHOP A",
          "short_name": "SHOP A",
          "types": [
            "subpremise"
          ]
        },
        {
          "long_name": "Hung On Building",
          "short_name": "Hung On Building",
          "types": [
            "premise"
          ]
        },
        {
          "long_name": "2-4A",
          "short_name": "2-4A",
          "types": [
            "street_number"
          ]
        },
        {
          "long_name": "King's Road",
          "short_name": "King's Rd",
          "types": [
            "route"
          ]
        },
        {
          "long_name": "Causeway Bay",
          "short_name": "Causeway Bay",
          "types": [
            "neighborhood",
            "political"
          ]
        },
        {
          "long_name": "Hong Kong Island",
          "short_name": "Hong Kong Island",
          "types": [
            "administrative_area_level_1",
            "political"
          ]
        },
        {
          "long_name": "Hong Kong",
          "short_name": "HK",
          "types": [
            "country",
            "political"
          ]
        }
      ],
      "formatted_address": "SHOP A, Hung On Building, 2-4A King's Rd, Causeway Bay, Hong Kong",
      "geometry": {
        "bounds": {
          "northeast": {
            "lat": 22.282506,
            "lng": 114.192526
          },
          "southwest": {
            "lat": 22.2823241,
            "lng": 114.1922191
          }
        },
        "location": {
          "lat": 22.2824007,
          "lng": 114.1923543
        },
        "location_type": "ROOFTOP",
        "viewport": {
          "northeast": {
            "lat": 22.2837640302915,
            "lng": 114.1937215302915
          },
          "southwest": {
            "lat": 22.2810660697085,
            "lng": 114.1910235697085
          }
        }
      },
      "partial_match": true,
      "place_id": "EkFTSE9QIEEsIEh1bmcgT24gQnVpbGRpbmcsIDItNEEgS2luZydzIFJkLCBDYXVzZXdheSBCYXksIEhvbmcgS29uZyIiGiAKFgoUChIJVxQwpaoBBDQREvjBX6BrefsSBlNIT1AgQQ",
      "types": [
        "subpremise"
      ]
    },
    {
      "address_components": [
        {
          "long_name": "3",
          "short_name": "3",
          "types": [
            "street_number"
          ]
        },
        {
          "long_name": "Tin Hau Temple Road",
          "short_name": "Tin Hau Temple Rd",
          "types": [
            "route"
          ]
        },
        {
          "long_name": "Causeway Bay",
          "short_name": "Causeway Bay",
          "types": [
            "neighborhood",
            "political"
          ]
        },
        {
          "long_name": "Hong Kong Island",
          "short_name": "Hong Kong Island",
          "types": [
            "administrative_area_level_1",
            "political"
          ]
        },
        {
          "long_name": "Hong Kong",
          "short_name": "HK",
          "types": [
            "country",
            "political"
          ]
        }
      ],
      "formatted_address": "3 Tin Hau Temple Rd, Causeway Bay, Hong Kong",
      "geometry": {
        "location": {
          "lat": 22.2824102,
          "lng": 114.1923757
        },
        "location_type": "ROOFTOP",
        "viewport": {
          "northeast": {
            "lat": 22.2837591802915,
            "lng": 114.1937246802915
          },
          "southwest": {
            "lat": 22.28106121970849,
            "lng": 114.1910267197085
          }
        }
      },
      "partial_match": true,
      "place_id": "ChIJwyQwpaoBBDQR6BGMVfBHRz4",
      "plus_code": {
        "compound_code": "75JR+XX Hong Kong",
        "global_code": "7PJP75JR+XX"
      },
      "types": [
        "street_address"
      ]
    }
  ],
  "geocode_tc": [
    {
      "address_components": [
        {
          "long_name": "\u9d3b\u5b89\u5927\u5ec8",
          "short_name": "\u9d3b\u5b89\u5927\u5ec8",
          "types": [
            "premise"
          ]
        },
        {
          "long_name": "2-4A",
          "short_name": "2-4A",
          "types": [
            "street_number"
          ]
        },
        {
          "long_name": "\u82f1\u7687\u9053",
          "short_name": "\u82f1\u7687\u9053",
          "types": [
            "route"
          ]
        },
        {
          "long_name": "\u9285\u947c\u7063",
          "short_name": "\u9285\u947c\u7063",
          "types": [
            "neighborhood",
            "political"
          ]
        },
        {
          "long_name": "\u9999\u6e2f\u5cf6",
          "short_name": "\u9999\u6e2f\u5cf6",
          "types": [
            "administrative_area_level_1",
            "political"
          ]
        },
        {
          "long_name": "\u9999\u6e2f",
          "short_name": "HK",
          "types": [
            "country",
            "political"
          ]
        }
      ],
      "formatted_address": "\u9999\u6e2f\u9285\u947c\u7063\u82f1\u7687\u90532-4A\u865f\u9d3b\u5b89\u5927\u5ec8",
      "geometry": {
        "bounds": {
          "northeast": {
            "lat": 22.282506,
            "lng": 114.192526
          },
          "southwest": {
            "lat": 22.2823241,
            "lng": 114.1922191
          }
        },
        "location": {
          "lat": 22.2824007,
          "lng": 114.1923543
        },
        "location_type": "ROOFTOP",
        "viewport": {
          "northeast": {
            "lat": 22.2837640302915,
            "lng": 114.1937215302915
          },
          "southwest": {
            "lat": 22.2810660697085,
            "lng": 114.1910235697085
          }
        }
      },
      "partial_match": true,
      "place_id": "ChIJVxQwpaoBBDQREvjBX6Brefs",
      "types": [
        "premise"
      ]
    },
    {
      "address_components": [
        {
          "long_name": "3",
          "short_name": "3",
          "types": [
            "street_number"
          ]
        },
        {
          "long_name": "\u5929\u540e\u5edf\u9053",
          "short_name": "\u5929\u540e\u5edf\u9053",
          "types": [
            "route"
          ]
        },
        {
          "long_name": "\u9285\u947c\u7063",
          "short_name": "\u9285\u947c\u7063",
          "types": [
            "neighborhood",
            "political"
          ]
        },
        {
          "long_name": "\u9999\u6e2f\u5cf6",
          "short_name": "\u9999\u6e2f\u5cf6",
          "types": [
            "administrative_area_level_1",
            "political"
          ]
        },
        {
          "long_name": "\u9999\u6e2f",
          "short_name": "HK",
          "types": [
            "country",
            "political"
          ]
        }
      ],
      "formatted_address": "\u9999\u6e2f\u9285\u947c\u7063\u5929\u540e\u5edf\u90533\u865f",
      "geometry": {
        "location": {
          "lat": 22.2824102,
          "lng": 114.1923757
        },
        "location_type": "ROOFTOP",
        "viewport": {
          "northeast": {
            "lat": 22.2837591802915,
            "lng": 114.1937246802915
          },
          "southwest": {
            "lat": 22.28106121970849,
            "lng": 114.1910267197085
          }
        }
      },
      "partial_match": true,
      "place_id": "ChIJwyQwpaoBBDQR6BGMVfBHRz4",
      "plus_code": {
        "compound_code": "75JR+XX \u9999\u6e2f",
        "global_code": "7PJP75JR+XX"
      },
      "types": [
        "street_address"
      ]
    }
  ],
  "licno": "3111802112",
  "timestamp": 1564975666,
  "version": "1564966095"
}
