{
  "adr_en": "Tequila on Davis, SHOP 7, G/F & C/L., GRAND FORTUNE MANSION, NO. 1 DAVIS STREET, KENNEDY TOWN, HONG KONG",
  "adr_tc": "\u9999\u6e2f\u5805\u5c3c\u5730\u57ce\u7239\u6838\u58eb\u88571\u865f\u88d5\u798f\u5927\u5ec87\u865f\u92ea\u5730\u4e0b\u53ca\u95a3\u6a13 Tequila on Davis",
  "geocode_en": [
    {
      "address_components": [
        {
          "long_name": "Hong Kong",
          "short_name": "HK",
          "types": [
            "country",
            "political"
          ]
        }
      ],
      "formatted_address": "Shop 7, G/F & C/L., Grand Fortune Mansion, No. 1 Davis Street, Kennedy Town, Hong Kong, Hong Kong",
      "geometry": {
        "location": {
          "lat": 22.283576,
          "lng": 114.12679
        },
        "location_type": "GEOMETRIC_CENTER",
        "viewport": {
          "northeast": {
            "lat": 22.2849249802915,
            "lng": 114.1281389802915
          },
          "southwest": {
            "lat": 22.2822270197085,
            "lng": 114.1254410197085
          }
        }
      },
      "place_id": "ChIJ910QGJr_AzQRF-6JnOhflXA",
      "plus_code": {
        "compound_code": "74MG+CP Hong Kong",
        "global_code": "7PJP74MG+CP"
      },
      "types": [
        "bar",
        "establishment",
        "food",
        "point_of_interest",
        "restaurant"
      ]
    }
  ],
  "geocode_tc": [
    {
      "address_components": [
        {
          "long_name": "\u865f\u92ea\u5730\u4e0b\u53ca",
          "short_name": "\u865f\u92ea\u5730\u4e0b\u53ca",
          "types": [
            "subpremise"
          ]
        },
        {
          "long_name": "\u88d5\u798f\u5927\u5ec8",
          "short_name": "\u88d5\u798f\u5927\u5ec8",
          "types": [
            "premise"
          ]
        },
        {
          "long_name": "1",
          "short_name": "1",
          "types": [
            "street_number"
          ]
        },
        {
          "long_name": "\u7239\u6838\u58eb\u8857",
          "short_name": "\u7239\u6838\u58eb\u8857",
          "types": [
            "route"
          ]
        },
        {
          "long_name": "\u5805\u5c3c\u5730\u57ce",
          "short_name": "\u5805\u5c3c\u5730\u57ce",
          "types": [
            "neighborhood",
            "political"
          ]
        },
        {
          "long_name": "\u9999\u6e2f\u5cf6",
          "short_name": "\u9999\u6e2f\u5cf6",
          "types": [
            "administrative_area_level_1",
            "political"
          ]
        },
        {
          "long_name": "\u9999\u6e2f",
          "short_name": "HK",
          "types": [
            "country",
            "political"
          ]
        }
      ],
      "formatted_address": "\u9999\u6e2f\u5805\u5c3c\u5730\u57ce\u7239\u6838\u58eb\u88571\u865f\u88d5\u798f\u5927\u5ec8\u865f\u92ea\u5730\u4e0b\u53ca",
      "geometry": {
        "bounds": {
          "northeast": {
            "lat": 22.283711,
            "lng": 114.1269099
          },
          "southwest": {
            "lat": 22.2834419,
            "lng": 114.126671
          }
        },
        "location": {
          "lat": 22.2835844,
          "lng": 114.1267959
        },
        "location_type": "ROOFTOP",
        "viewport": {
          "northeast": {
            "lat": 22.2849254302915,
            "lng": 114.1281394302915
          },
          "southwest": {
            "lat": 22.2822274697085,
            "lng": 114.1254414697085
          }
        }
      },
      "partial_match": true,
      "place_id": "EkvomZ_pi6rlnLDkuIvlj4osIEdyYW5kIEZvcnR1bmUgTWFuc2lvbiwgMSBEYXZpcyBTdCwgS2VubmVkeSBUb3duLCBIb25nIEtvbmciKxopChYKFAoSCaNnEBia_wM0ERCKId3CopQOEg_omZ_pi6rlnLDkuIvlj4o",
      "types": [
        "subpremise"
      ]
    },
    {
      "address_components": [
        {
          "long_name": "\u9999\u6e2f",
          "short_name": "HK",
          "types": [
            "country",
            "political"
          ]
        }
      ],
      "formatted_address": "Shop 7, G/F & C/L., Grand Fortune Mansion, No. 1 Davis Street, Kennedy Town, Hong Kong, \u9999\u6e2f",
      "geometry": {
        "location": {
          "lat": 22.283576,
          "lng": 114.12679
        },
        "location_type": "GEOMETRIC_CENTER",
        "viewport": {
          "northeast": {
            "lat": 22.2849249802915,
            "lng": 114.1281389802915
          },
          "southwest": {
            "lat": 22.2822270197085,
            "lng": 114.1254410197085
          }
        }
      },
      "partial_match": true,
      "place_id": "ChIJ910QGJr_AzQRF-6JnOhflXA",
      "plus_code": {
        "compound_code": "74MG+CP \u9999\u6e2f",
        "global_code": "7PJP74MG+CP"
      },
      "types": [
        "bar",
        "establishment",
        "food",
        "point_of_interest",
        "restaurant"
      ]
    }
  ],
  "licno": "3118802087",
  "timestamp": 1564975666,
  "version": "1564966095"
}
