{
  "adr_en": "\u91cd\u6176, SHOP A, G/F, FLORENCE MANSION, 6 TSING LING PATH, TUEN MUN, NEW TERRITORIES",
  "adr_tc": "\u65b0\u754c\u5c6f\u9580\u9752\u83f1\u5f916\u865f \u5bcc\u9e97\u5927\u5ec8\u5730\u4e0bA\u92ea \u91cd\u6176",
  "geocode_en": [
    {
      "address_components": [
        {
          "long_name": "Chongqing",
          "short_name": "Chongqing",
          "types": [
            "locality",
            "political"
          ]
        },
        {
          "long_name": "Chongqing",
          "short_name": "Chongqing",
          "types": [
            "administrative_area_level_1",
            "political"
          ]
        },
        {
          "long_name": "China",
          "short_name": "CN",
          "types": [
            "country",
            "political"
          ]
        }
      ],
      "formatted_address": "Chongqing, China",
      "geometry": {
        "bounds": {
          "northeast": {
            "lat": 32.2011872,
            "lng": 110.1998581
          },
          "southwest": {
            "lat": 28.1602251,
            "lng": 105.2897606
          }
        },
        "location": {
          "lat": 29.4315861,
          "lng": 106.912251
        },
        "location_type": "APPROXIMATE",
        "viewport": {
          "northeast": {
            "lat": 29.7401968,
            "lng": 106.8138242
          },
          "southwest": {
            "lat": 29.3696283,
            "lng": 106.2832832
          }
        }
      },
      "partial_match": true,
      "place_id": "ChIJQ0_m87o0kzYRIbOI3BaGn94",
      "types": [
        "locality",
        "political"
      ]
    },
    {
      "address_components": [
        {
          "long_name": "Florence Mansion",
          "short_name": "Florence Mansion",
          "types": [
            "premise"
          ]
        },
        {
          "long_name": "6",
          "short_name": "6",
          "types": [
            "street_number"
          ]
        },
        {
          "long_name": "Tsing Ling Path",
          "short_name": "Tsing Ling Path",
          "types": [
            "route"
          ]
        },
        {
          "long_name": "San Hui",
          "short_name": "San Hui",
          "types": [
            "neighborhood",
            "political"
          ]
        },
        {
          "long_name": "New Territories",
          "short_name": "New Territories",
          "types": [
            "administrative_area_level_1",
            "political"
          ]
        },
        {
          "long_name": "Hong Kong",
          "short_name": "HK",
          "types": [
            "country",
            "political"
          ]
        }
      ],
      "formatted_address": "Florence Mansion, 6 Tsing Ling Path, San Hui, Hong Kong",
      "geometry": {
        "bounds": {
          "northeast": {
            "lat": 22.4022859,
            "lng": 113.9779949
          },
          "southwest": {
            "lat": 22.4020689,
            "lng": 113.9777561
          }
        },
        "location": {
          "lat": 22.40217,
          "lng": 113.9778783
        },
        "location_type": "ROOFTOP",
        "viewport": {
          "northeast": {
            "lat": 22.4035263802915,
            "lng": 113.9792244802915
          },
          "southwest": {
            "lat": 22.4008284197085,
            "lng": 113.9765265197085
          }
        }
      },
      "partial_match": true,
      "place_id": "ChIJWc_GZh_7AzQRFGacaeySN8M",
      "types": [
        "premise"
      ]
    }
  ],
  "geocode_tc": [
    {
      "address_components": [
        {
          "long_name": "\u5bcc\u9e97\u5927\u5ec8",
          "short_name": "\u5bcc\u9e97\u5927\u5ec8",
          "types": [
            "premise"
          ]
        },
        {
          "long_name": "6",
          "short_name": "6",
          "types": [
            "street_number"
          ]
        },
        {
          "long_name": "\u9752\u83f1\u5f91",
          "short_name": "\u9752\u83f1\u5f91",
          "types": [
            "route"
          ]
        },
        {
          "long_name": "\u65b0\u589f",
          "short_name": "\u65b0\u589f",
          "types": [
            "neighborhood",
            "political"
          ]
        },
        {
          "long_name": "\u65b0\u754c",
          "short_name": "\u65b0\u754c",
          "types": [
            "administrative_area_level_1",
            "political"
          ]
        },
        {
          "long_name": "\u9999\u6e2f",
          "short_name": "HK",
          "types": [
            "country",
            "political"
          ]
        }
      ],
      "formatted_address": "\u9999\u6e2f\u65b0\u589f\u9752\u83f1\u5f916\u865f\u5bcc\u9e97\u5927\u5ec8",
      "geometry": {
        "bounds": {
          "northeast": {
            "lat": 22.4022859,
            "lng": 113.9779949
          },
          "southwest": {
            "lat": 22.4020689,
            "lng": 113.9777561
          }
        },
        "location": {
          "lat": 22.40217,
          "lng": 113.9778783
        },
        "location_type": "ROOFTOP",
        "viewport": {
          "northeast": {
            "lat": 22.4035263802915,
            "lng": 113.9792244802915
          },
          "southwest": {
            "lat": 22.4008284197085,
            "lng": 113.9765265197085
          }
        }
      },
      "partial_match": true,
      "place_id": "ChIJWc_GZh_7AzQRFGacaeySN8M",
      "types": [
        "premise"
      ]
    },
    {
      "address_components": [
        {
          "long_name": "6",
          "short_name": "6",
          "types": [
            "subpremise"
          ]
        },
        {
          "long_name": "Florence Mansion",
          "short_name": "Florence Mansion",
          "types": [
            "premise"
          ]
        },
        {
          "long_name": "6",
          "short_name": "6",
          "types": [
            "street_number"
          ]
        },
        {
          "long_name": "Tsing Ling Path",
          "short_name": "Tsing Ling Path",
          "types": [
            "route"
          ]
        },
        {
          "long_name": "\u9999\u6e2f",
          "short_name": "HK",
          "types": [
            "country",
            "political"
          ]
        }
      ],
      "formatted_address": "\u865f A, 6 Florence Mansion, 6 Tsing Ling Path, \u9999\u6e2f",
      "geometry": {
        "location": {
          "lat": 22.4021675,
          "lng": 113.9780606
        },
        "location_type": "ROOFTOP",
        "viewport": {
          "northeast": {
            "lat": 22.4035164802915,
            "lng": 113.9794095802915
          },
          "southwest": {
            "lat": 22.4008185197085,
            "lng": 113.9767116197085
          }
        }
      },
      "partial_match": true,
      "place_id": "ChIJ0-1pZh_7AzQRE41TsWNANXk",
      "plus_code": {
        "compound_code": "CX2H+V6 \u9999\u6e2f",
        "global_code": "7PJMCX2H+V6"
      },
      "types": [
        "establishment",
        "food",
        "point_of_interest",
        "restaurant"
      ]
    }
  ],
  "licno": "2293802361",
  "timestamp": 1564968756,
  "version": "1564966095"
}
