{
  "adr_en": "PARAMOUNT JOY CUISINE, SHOP 1, 3, 5, 6, 7 & 8, 1/F, ABERDEEN CENTRE SITE 2, NAM NING STREET, ABERDEEN, HONG KONG",
  "adr_tc": "\u9999\u6e2f\u9999\u6e2f\u4ed4\u5357\u5be7\u8857\u9999\u6e2f\u4ed4\u4e2d\u5fc32\u671f1\u6a13 1,3,5,6,7\u53ca8\u865f\u92ea \u767e\u6a02\u9580\u56cd\u5bb4",
  "geocode_en": [
    {
      "address_components": [
        {
          "long_name": "8",
          "short_name": "8",
          "types": [
            "street_number"
          ]
        },
        {
          "long_name": "Hart Avenue",
          "short_name": "Hart Ave",
          "types": [
            "route"
          ]
        },
        {
          "long_name": "Tsim Sha Tsui",
          "short_name": "Tsim Sha Tsui",
          "types": [
            "neighborhood",
            "political"
          ]
        },
        {
          "long_name": "Kowloon",
          "short_name": "Kowloon",
          "types": [
            "administrative_area_level_1",
            "political"
          ]
        },
        {
          "long_name": "Hong Kong",
          "short_name": "HK",
          "types": [
            "country",
            "political"
          ]
        }
      ],
      "formatted_address": "8 Hart Ave, Tsim Sha Tsui, Hong Kong",
      "geometry": {
        "location": {
          "lat": 22.2980899,
          "lng": 114.1747418
        },
        "location_type": "ROOFTOP",
        "viewport": {
          "northeast": {
            "lat": 22.2994388802915,
            "lng": 114.1760907802915
          },
          "southwest": {
            "lat": 22.29674091970849,
            "lng": 114.1733928197085
          }
        }
      },
      "partial_match": true,
      "place_id": "ChIJVVWFE-4ABDQRRaIHDnii42k",
      "plus_code": {
        "compound_code": "75XF+6V Hong Kong",
        "global_code": "7PJP75XF+6V"
      },
      "types": [
        "establishment",
        "food",
        "point_of_interest",
        "restaurant"
      ]
    },
    {
      "address_components": [
        {
          "long_name": "Nam Ning Street",
          "short_name": "Nam Ning St",
          "types": [
            "route"
          ]
        },
        {
          "long_name": "Aberdeen",
          "short_name": "Aberdeen",
          "types": [
            "neighborhood",
            "political"
          ]
        },
        {
          "long_name": "Hong Kong Island",
          "short_name": "Hong Kong Island",
          "types": [
            "administrative_area_level_1",
            "political"
          ]
        },
        {
          "long_name": "Hong Kong",
          "short_name": "HK",
          "types": [
            "country",
            "political"
          ]
        }
      ],
      "formatted_address": "Nam Ning St, Aberdeen, Hong Kong",
      "geometry": {
        "location": {
          "lat": 22.2488004,
          "lng": 114.1538683
        },
        "location_type": "GEOMETRIC_CENTER",
        "viewport": {
          "northeast": {
            "lat": 22.2501493802915,
            "lng": 114.1552172802915
          },
          "southwest": {
            "lat": 22.2474514197085,
            "lng": 114.1525193197085
          }
        }
      },
      "partial_match": true,
      "place_id": "ChIJ1xJyPgMABDQRXv0m3mw5APg",
      "plus_code": {
        "compound_code": "65X3+GG Aberdeen, Hong Kong",
        "global_code": "7PJP65X3+GG"
      },
      "types": [
        "establishment",
        "point_of_interest",
        "shopping_mall"
      ]
    },
    {
      "address_components": [
        {
          "long_name": "Aberdeen Centre Hoi Chu Court",
          "short_name": "Aberdeen Centre Hoi Chu Court",
          "types": [
            "premise"
          ]
        },
        {
          "long_name": "2",
          "short_name": "2",
          "types": [
            "street_number"
          ]
        },
        {
          "long_name": "Nam Ning Street",
          "short_name": "Nam Ning St",
          "types": [
            "route"
          ]
        },
        {
          "long_name": "Aberdeen",
          "short_name": "Aberdeen",
          "types": [
            "neighborhood",
            "political"
          ]
        },
        {
          "long_name": "Hong Kong Island",
          "short_name": "Hong Kong Island",
          "types": [
            "administrative_area_level_1",
            "political"
          ]
        },
        {
          "long_name": "Hong Kong",
          "short_name": "HK",
          "types": [
            "country",
            "political"
          ]
        }
      ],
      "formatted_address": "Aberdeen Centre Hoi Chu Court, 2 Nam Ning St, Aberdeen, Hong Kong",
      "geometry": {
        "bounds": {
          "northeast": {
            "lat": 22.248504,
            "lng": 114.1546919
          },
          "southwest": {
            "lat": 22.2483181,
            "lng": 114.1544621
          }
        },
        "location": {
          "lat": 22.2484155,
          "lng": 114.1545485
        },
        "location_type": "ROOFTOP",
        "viewport": {
          "northeast": {
            "lat": 22.2497600302915,
            "lng": 114.1559259802915
          },
          "southwest": {
            "lat": 22.2470620697085,
            "lng": 114.1532280197085
          }
        }
      },
      "partial_match": true,
      "place_id": "ChIJeaAcPwMABDQRDIEII1obhLs",
      "types": [
        "premise"
      ]
    }
  ],
  "geocode_tc": [
    {
      "address_components": [
        {
          "long_name": "9\u865f",
          "short_name": "9\u865f",
          "types": [
            "street_number"
          ]
        },
        {
          "long_name": "\u5357\u5be7\u8857",
          "short_name": "\u5357\u5be7\u8857",
          "types": [
            "route"
          ]
        },
        {
          "long_name": "\u9999\u6e2f\u4ed4",
          "short_name": "\u9999\u6e2f\u4ed4",
          "types": [
            "neighborhood",
            "political"
          ]
        },
        {
          "long_name": "\u9999\u6e2f",
          "short_name": "HK",
          "types": [
            "country",
            "political"
          ]
        }
      ],
      "formatted_address": "\u9999\u6e2f\u9999\u6e2f\u4ed4\u5357\u5be7\u88579\u865f\u9999\u6e2f\u4ed4\u4e2d\u5fc3\u5546\u5834\u7b2c5\u671f1\u6a13F\u8216",
      "geometry": {
        "location": {
          "lat": 22.248453,
          "lng": 114.15382
        },
        "location_type": "ROOFTOP",
        "viewport": {
          "northeast": {
            "lat": 22.2498019802915,
            "lng": 114.1551689802915
          },
          "southwest": {
            "lat": 22.2471040197085,
            "lng": 114.1524710197085
          }
        }
      },
      "place_id": "ChIJqcRAEQMABDQRvd851Vp7F_s",
      "plus_code": {
        "compound_code": "65X3+9G \u9999\u6e2f",
        "global_code": "7PJP65X3+9G"
      },
      "types": [
        "establishment",
        "food",
        "point_of_interest",
        "restaurant"
      ]
    },
    {
      "address_components": [
        {
          "long_name": "\u9999\u6e2f",
          "short_name": "HK",
          "types": [
            "country",
            "political"
          ]
        }
      ],
      "formatted_address": "\u9999\u6e2f\u4ed4 \u4e2d\u5fc3 \u7b2c 2 \u671f 1 \u6a13 1,3,5-8,10-11 \u865f \u8216",
      "geometry": {
        "location": {
          "lat": 22.2483378,
          "lng": 114.153383
        },
        "location_type": "GEOMETRIC_CENTER",
        "viewport": {
          "northeast": {
            "lat": 22.2496867802915,
            "lng": 114.1547319802915
          },
          "southwest": {
            "lat": 22.24698881970849,
            "lng": 114.1520340197085
          }
        }
      },
      "place_id": "ChIJ1aaODgMABDQROKdctMOA0E4",
      "plus_code": {
        "compound_code": "65X3+89 \u9999\u6e2f",
        "global_code": "7PJP65X3+89"
      },
      "types": [
        "establishment",
        "food",
        "point_of_interest",
        "restaurant"
      ]
    }
  ],
  "licno": "2215800897",
  "timestamp": 1564968756,
  "version": "1564966095"
}
