{
  "adr_en": "New Sing Yip Restaurant, SHOP 7 & 9, G/F, CHUNG HING MANSION, 981A-981F KING'S ROAD, HONG KONG",
  "adr_tc": "\u9999\u6e2f\u9c02\u9b5a\u6d8c \u82f1\u7687\u9053981A-981F\u865f \u4e2d\u8208\u5927\u5ec8\u5730\u4e0b7\u53ca9\u865f\u92ea \u65b0\u6210\u696d\u8336\u9910\u5ef3",
  "geocode_en": [
    {
      "address_components": [
        {
          "long_name": "SHOP 7",
          "short_name": "SHOP 7",
          "types": [
            "subpremise"
          ]
        },
        {
          "long_name": "Chung Hing Mansion",
          "short_name": "Chung Hing Mansion",
          "types": [
            "premise"
          ]
        },
        {
          "long_name": "981A-981F",
          "short_name": "981A-981F",
          "types": [
            "street_number"
          ]
        },
        {
          "long_name": "King's Road",
          "short_name": "King's Rd",
          "types": [
            "route"
          ]
        },
        {
          "long_name": "Quarry Bay",
          "short_name": "Quarry Bay",
          "types": [
            "neighborhood",
            "political"
          ]
        },
        {
          "long_name": "Hong Kong Island",
          "short_name": "Hong Kong Island",
          "types": [
            "administrative_area_level_1",
            "political"
          ]
        },
        {
          "long_name": "Hong Kong",
          "short_name": "HK",
          "types": [
            "country",
            "political"
          ]
        }
      ],
      "formatted_address": "SHOP 7, Chung Hing Mansion, 981A-981F King's Rd, Quarry Bay, Hong Kong",
      "geometry": {
        "bounds": {
          "northeast": {
            "lat": 22.2867317,
            "lng": 114.2112313
          },
          "southwest": {
            "lat": 22.286437,
            "lng": 114.2107465
          }
        },
        "location": {
          "lat": 22.2865621,
          "lng": 114.2109912
        },
        "location_type": "ROOFTOP",
        "viewport": {
          "northeast": {
            "lat": 22.2879333302915,
            "lng": 114.2123378802915
          },
          "southwest": {
            "lat": 22.2852353697085,
            "lng": 114.2096399197085
          }
        }
      },
      "partial_match": true,
      "place_id": "EkZTSE9QIDcsIENodW5nIEhpbmcgTWFuc2lvbiwgOTgxQS05ODFGIEtpbmcncyBSZCwgUXVhcnJ5IEJheSwgSG9uZyBLb25nIiIaIAoWChQKEgnjPP5sDAEENBGMvooESGPiDxIGU0hPUCA3",
      "types": [
        "subpremise"
      ]
    }
  ],
  "geocode_tc": [
    {
      "address_components": [
        {
          "long_name": "\u92ea \u65b0\u6210\u696d",
          "short_name": "\u92ea \u65b0\u6210\u696d",
          "types": [
            "subpremise"
          ]
        },
        {
          "long_name": "\u4e2d\u8208\u5927\u5ec8",
          "short_name": "\u4e2d\u8208\u5927\u5ec8",
          "types": [
            "premise"
          ]
        },
        {
          "long_name": "981A-981F",
          "short_name": "981A-981F",
          "types": [
            "street_number"
          ]
        },
        {
          "long_name": "\u82f1\u7687\u9053",
          "short_name": "\u82f1\u7687\u9053",
          "types": [
            "route"
          ]
        },
        {
          "long_name": "\u9c02\u9b5a\u6d8c",
          "short_name": "\u9c02\u9b5a\u6d8c",
          "types": [
            "neighborhood",
            "political"
          ]
        },
        {
          "long_name": "\u9999\u6e2f\u5cf6",
          "short_name": "\u9999\u6e2f\u5cf6",
          "types": [
            "administrative_area_level_1",
            "political"
          ]
        },
        {
          "long_name": "\u9999\u6e2f",
          "short_name": "HK",
          "types": [
            "country",
            "political"
          ]
        }
      ],
      "formatted_address": "\u9999\u6e2f\u9c02\u9b5a\u6d8c\u82f1\u7687\u9053981A-981F\u865f\u4e2d\u8208\u5927\u5ec8\u92ea \u65b0\u6210\u696d",
      "geometry": {
        "bounds": {
          "northeast": {
            "lat": 22.2867317,
            "lng": 114.2112313
          },
          "southwest": {
            "lat": 22.286437,
            "lng": 114.2107465
          }
        },
        "location": {
          "lat": 22.2865621,
          "lng": 114.2109912
        },
        "location_type": "ROOFTOP",
        "viewport": {
          "northeast": {
            "lat": 22.2879333302915,
            "lng": 114.2123378802915
          },
          "southwest": {
            "lat": 22.2852353697085,
            "lng": 114.2096399197085
          }
        }
      },
      "partial_match": true,
      "place_id": "Ek3pi6og5paw5oiQ5qWtLCBDaHVuZyBIaW5nIE1hbnNpb24sIDk4MUEtOTgxRiBLaW5nJ3MgUmQsIFF1YXJyeSBCYXksIEhvbmcgS29uZyIpGicKFgoUChIJ4zz-bAwBBDQRjL6KBEhj4g8SDemLqiDmlrDmiJDmpa0",
      "types": [
        "subpremise"
      ]
    }
  ],
  "licno": "2211223434",
  "timestamp": 1564966180,
  "version": "1564966095"
}
