{
  "adr_en": "PAK SING RESTAURANT, 5/F 5TH MEZZ FLOOR (CENTRAL PORTION), GRANDSTAND II, SHATIN RACECOURSE, STTL NO 13, SHA TIN, NEW TERRITORIES",
  "adr_tc": "\u65b0\u754c\u6c99\u7530 \u6c99\u7530\u5e02\u5730\u6bb513\u865f \u6c99\u7530\u99ac\u58342\u865f\u770b\u53f0 5\u6a13(\u4e2d\u592e\u90e8\u4efd) \u767e\u52dd\u5ef3",
  "geocode_en": [
    {
      "address_components": [
        {
          "long_name": "Sha Tin",
          "short_name": "Sha Tin",
          "types": [
            "neighborhood",
            "political"
          ]
        },
        {
          "long_name": "New Territories",
          "short_name": "New Territories",
          "types": [
            "administrative_area_level_1",
            "political"
          ]
        },
        {
          "long_name": "Hong Kong",
          "short_name": "HK",
          "types": [
            "country",
            "political"
          ]
        }
      ],
      "formatted_address": "Sha Tin, Hong Kong",
      "geometry": {
        "location": {
          "lat": 22.401765,
          "lng": 114.205804
        },
        "location_type": "GEOMETRIC_CENTER",
        "viewport": {
          "northeast": {
            "lat": 22.4031139802915,
            "lng": 114.2071529802915
          },
          "southwest": {
            "lat": 22.40041601970849,
            "lng": 114.2044550197085
          }
        }
      },
      "partial_match": true,
      "place_id": "ChIJQQr-5DoGBDQRMP7mouUB2g0",
      "plus_code": {
        "compound_code": "C624+P8 Hong Kong",
        "global_code": "7PJPC624+P8"
      },
      "types": [
        "establishment",
        "food",
        "point_of_interest",
        "restaurant"
      ]
    },
    {
      "address_components": [
        {
          "long_name": "New Territories",
          "short_name": "New Territories",
          "types": [
            "administrative_area_level_1",
            "political"
          ]
        },
        {
          "long_name": "Hong Kong",
          "short_name": "HK",
          "types": [
            "country",
            "political"
          ]
        }
      ],
      "formatted_address": "The Hong Kong Jockey Club Sha Tin Racecourse Stand, Sha Tin, Hong Kong, Hong Kong",
      "geometry": {
        "location": {
          "lat": 22.401109,
          "lng": 114.205262
        },
        "location_type": "GEOMETRIC_CENTER",
        "viewport": {
          "northeast": {
            "lat": 22.4024579802915,
            "lng": 114.2066109802915
          },
          "southwest": {
            "lat": 22.39976001970849,
            "lng": 114.2039130197085
          }
        }
      },
      "partial_match": true,
      "place_id": "ChIJw5O3UjoGBDQRHUM7KP-zLeU",
      "plus_code": {
        "compound_code": "C624+C4 Hong Kong",
        "global_code": "7PJPC624+C4"
      },
      "types": [
        "establishment",
        "point_of_interest"
      ]
    }
  ],
  "geocode_tc": [
    {
      "address_components": [
        {
          "long_name": "New Territories",
          "short_name": "New Territories",
          "types": [
            "administrative_area_level_1",
            "political"
          ]
        },
        {
          "long_name": "\u9999\u6e2f",
          "short_name": "HK",
          "types": [
            "country",
            "political"
          ]
        }
      ],
      "formatted_address": "The Hong Kong Jockey Club Sha Tin Racecourse Stand, Sha Tin, Hong Kong, \u9999\u6e2f",
      "geometry": {
        "location": {
          "lat": 22.401109,
          "lng": 114.205262
        },
        "location_type": "GEOMETRIC_CENTER",
        "viewport": {
          "northeast": {
            "lat": 22.4024579802915,
            "lng": 114.2066109802915
          },
          "southwest": {
            "lat": 22.39976001970849,
            "lng": 114.2039130197085
          }
        }
      },
      "partial_match": true,
      "place_id": "ChIJw5O3UjoGBDQRHUM7KP-zLeU",
      "plus_code": {
        "compound_code": "C624+C4 \u9999\u6e2f",
        "global_code": "7PJPC624+C4"
      },
      "types": [
        "establishment",
        "point_of_interest"
      ]
    },
    {
      "address_components": [
        {
          "long_name": "\u6c99\u7530",
          "short_name": "\u6c99\u7530",
          "types": [
            "neighborhood",
            "political"
          ]
        },
        {
          "long_name": "\u65b0\u754c",
          "short_name": "\u65b0\u754c",
          "types": [
            "administrative_area_level_1",
            "political"
          ]
        },
        {
          "long_name": "\u9999\u6e2f",
          "short_name": "HK",
          "types": [
            "country",
            "political"
          ]
        }
      ],
      "formatted_address": "\u9999\u6e2f\u6c99\u7530",
      "geometry": {
        "location": {
          "lat": 22.3871184,
          "lng": 114.1953501
        },
        "location_type": "APPROXIMATE",
        "viewport": {
          "northeast": {
            "lat": 22.397435,
            "lng": 114.2113575
          },
          "southwest": {
            "lat": 22.376801,
            "lng": 114.1793427
          }
        }
      },
      "partial_match": true,
      "place_id": "ChIJaQfyQkwGBDQRZnaAp0jyeW0",
      "types": [
        "neighborhood",
        "political"
      ]
    },
    {
      "address_components": [
        {
          "long_name": "\u6c99\u7530",
          "short_name": "\u6c99\u7530",
          "types": [
            "neighborhood",
            "political"
          ]
        },
        {
          "long_name": "\u65b0\u754c",
          "short_name": "\u65b0\u754c",
          "types": [
            "administrative_area_level_1",
            "political"
          ]
        },
        {
          "long_name": "\u9999\u6e2f",
          "short_name": "HK",
          "types": [
            "country",
            "political"
          ]
        }
      ],
      "formatted_address": "\u9999\u6e2f\u6c99\u7530",
      "geometry": {
        "location": {
          "lat": 22.401765,
          "lng": 114.205804
        },
        "location_type": "GEOMETRIC_CENTER",
        "viewport": {
          "northeast": {
            "lat": 22.4031139802915,
            "lng": 114.2071529802915
          },
          "southwest": {
            "lat": 22.40041601970849,
            "lng": 114.2044550197085
          }
        }
      },
      "partial_match": true,
      "place_id": "ChIJQQr-5DoGBDQRMP7mouUB2g0",
      "plus_code": {
        "compound_code": "C624+P8 \u9999\u6e2f",
        "global_code": "7PJPC624+P8"
      },
      "types": [
        "establishment",
        "food",
        "point_of_interest",
        "restaurant"
      ]
    }
  ],
  "licno": "2297001470",
  "timestamp": 1564975666,
  "version": "1564966095"
}
