{
  "adr_en": "ITO SAN Janpanese Cuisine, UNIT G01, G/F, BERKSHIRE HOUSE, 25 WESTLANDS ROAD, QUARRY BAY, HONG KONG",
  "adr_tc": "\u9999\u6e2f\u9c02\u9b5a\u6d8c \u83ef\u862d\u8def25\u865f \u67cf\u514b\u5927\u5ec8\u5730\u4e0bG01\u92ea \u4f0a\u85e4\u9152\u83dc\u8655",
  "geocode_en": [
    {
      "address_components": [
        {
          "long_name": "25",
          "short_name": "25",
          "types": [
            "street_number"
          ]
        },
        {
          "long_name": "Westlands Road",
          "short_name": "Westlands Rd",
          "types": [
            "route"
          ]
        },
        {
          "long_name": "Quarry Bay",
          "short_name": "Quarry Bay",
          "types": [
            "neighborhood",
            "political"
          ]
        },
        {
          "long_name": "Hong Kong Island",
          "short_name": "Hong Kong Island",
          "types": [
            "administrative_area_level_1",
            "political"
          ]
        },
        {
          "long_name": "Hong Kong",
          "short_name": "HK",
          "types": [
            "country",
            "political"
          ]
        }
      ],
      "formatted_address": "25 Westlands Rd, Quarry Bay, Hong Kong",
      "geometry": {
        "location": {
          "lat": 22.2876946,
          "lng": 114.2131292
        },
        "location_type": "ROOFTOP",
        "viewport": {
          "northeast": {
            "lat": 22.2890435802915,
            "lng": 114.2144781802915
          },
          "southwest": {
            "lat": 22.2863456197085,
            "lng": 114.2117802197085
          }
        }
      },
      "place_id": "ChIJxwRO5AwBBDQRxjG5gkxrsgs",
      "plus_code": {
        "compound_code": "76Q7+37 Hong Kong",
        "global_code": "7PJP76Q7+37"
      },
      "types": [
        "establishment",
        "food",
        "point_of_interest",
        "restaurant"
      ]
    }
  ],
  "geocode_tc": [
    {
      "address_components": [
        {
          "long_name": "Quarry Bay",
          "short_name": "Quarry Bay",
          "types": [
            "neighborhood",
            "political"
          ]
        },
        {
          "long_name": "\u9999\u6e2f",
          "short_name": "HK",
          "types": [
            "country",
            "political"
          ]
        }
      ],
      "formatted_address": "25 Westlands Road, Taikoo Place, Quarry Bay, \u9999\u6e2f",
      "geometry": {
        "location": {
          "lat": 22.2876222,
          "lng": 114.2132931
        },
        "location_type": "GEOMETRIC_CENTER",
        "viewport": {
          "northeast": {
            "lat": 22.2889711802915,
            "lng": 114.2146420802915
          },
          "southwest": {
            "lat": 22.28627321970849,
            "lng": 114.2119441197085
          }
        }
      },
      "partial_match": true,
      "place_id": "ChIJxwRO5AwBBDQRmSZMXyjBEl0",
      "plus_code": {
        "compound_code": "76Q7+28 \u9999\u6e2f\u9c02\u9b5a\u6d8c",
        "global_code": "7PJP76Q7+28"
      },
      "types": [
        "establishment",
        "point_of_interest",
        "premise"
      ]
    },
    {
      "address_components": [
        {
          "long_name": "25",
          "short_name": "25",
          "types": [
            "street_number"
          ]
        },
        {
          "long_name": "\u83ef\u862d\u8def",
          "short_name": "\u83ef\u862d\u8def",
          "types": [
            "route"
          ]
        },
        {
          "long_name": "\u9c02\u9b5a\u6d8c",
          "short_name": "\u9c02\u9b5a\u6d8c",
          "types": [
            "neighborhood",
            "political"
          ]
        },
        {
          "long_name": "\u9999\u6e2f\u5cf6",
          "short_name": "\u9999\u6e2f\u5cf6",
          "types": [
            "administrative_area_level_1",
            "political"
          ]
        },
        {
          "long_name": "\u9999\u6e2f",
          "short_name": "HK",
          "types": [
            "country",
            "political"
          ]
        }
      ],
      "formatted_address": "\u9999\u6e2f\u9c02\u9b5a\u6d8c\u83ef\u862d\u8def25\u865f",
      "geometry": {
        "bounds": {
          "northeast": {
            "lat": 22.2877424,
            "lng": 114.2135542
          },
          "southwest": {
            "lat": 22.2874486,
            "lng": 114.2130831
          }
        },
        "location": {
          "lat": 22.2876231,
          "lng": 114.2133236
        },
        "location_type": "ROOFTOP",
        "viewport": {
          "northeast": {
            "lat": 22.28894448029151,
            "lng": 114.2146676302915
          },
          "southwest": {
            "lat": 22.2862465197085,
            "lng": 114.2119696697085
          }
        }
      },
      "partial_match": true,
      "place_id": "ChIJM01Q5AwBBDQRrJkzLIgYwoQ",
      "types": [
        "premise"
      ]
    }
  ],
  "licno": "2211189493",
  "timestamp": 1564966180,
  "version": "1564966095"
}
