{
  "adr_en": "Shanghai Lao Lao, SHOP NO. 2202, LEVEL 2, SHEUNG SHUI CENTRE, SHEUNG SHUI, NEW TERRITORIES",
  "adr_tc": "\u65b0\u754c\u4e0a\u6c34\u4e0a\u6c34\u4e2d\u5fc3\u4e8c\u6a132202\u865f\u92ea \u4e0a\u6d77\u59e5\u59e5",
  "geocode_en": [
    {
      "address_components": [
        {
          "long_name": "3",
          "short_name": "3",
          "types": [
            "street_number"
          ]
        },
        {
          "long_name": "Chi Cheong Road",
          "short_name": "Chi Cheong Rd",
          "types": [
            "route"
          ]
        },
        {
          "long_name": "Sheung Shui",
          "short_name": "Sheung Shui",
          "types": [
            "neighborhood",
            "political"
          ]
        },
        {
          "long_name": "New Territories",
          "short_name": "New Territories",
          "types": [
            "administrative_area_level_1",
            "political"
          ]
        },
        {
          "long_name": "Hong Kong",
          "short_name": "HK",
          "types": [
            "country",
            "political"
          ]
        }
      ],
      "formatted_address": "3 Chi Cheong Rd, Sheung Shui, Hong Kong",
      "geometry": {
        "location": {
          "lat": 22.5007927,
          "lng": 114.1296794
        },
        "location_type": "ROOFTOP",
        "viewport": {
          "northeast": {
            "lat": 22.5021416802915,
            "lng": 114.1310283802915
          },
          "southwest": {
            "lat": 22.4994437197085,
            "lng": 114.1283304197085
          }
        }
      },
      "partial_match": true,
      "place_id": "ChIJ_5Bt3RD2AzQRL7jgZ-4Z0nQ",
      "plus_code": {
        "compound_code": "G42H+8V Hong Kong",
        "global_code": "7PJPG42H+8V"
      },
      "types": [
        "establishment",
        "food",
        "point_of_interest",
        "restaurant"
      ]
    }
  ],
  "geocode_tc": [
    {
      "address_components": [
        {
          "long_name": "3",
          "short_name": "3",
          "types": [
            "street_number"
          ]
        },
        {
          "long_name": "\u667a\u660c\u8def",
          "short_name": "\u667a\u660c\u8def",
          "types": [
            "route"
          ]
        },
        {
          "long_name": "\u4e0a\u6c34",
          "short_name": "\u4e0a\u6c34",
          "types": [
            "neighborhood",
            "political"
          ]
        },
        {
          "long_name": "\u65b0\u754c",
          "short_name": "\u65b0\u754c",
          "types": [
            "administrative_area_level_1",
            "political"
          ]
        },
        {
          "long_name": "\u9999\u6e2f",
          "short_name": "HK",
          "types": [
            "country",
            "political"
          ]
        }
      ],
      "formatted_address": "\u9999\u6e2f\u4e0a\u6c34\u667a\u660c\u8def3\u865f",
      "geometry": {
        "location": {
          "lat": 22.5008858,
          "lng": 114.1299577
        },
        "location_type": "ROOFTOP",
        "viewport": {
          "northeast": {
            "lat": 22.5022347802915,
            "lng": 114.1313066802915
          },
          "southwest": {
            "lat": 22.4995368197085,
            "lng": 114.1286087197085
          }
        }
      },
      "partial_match": true,
      "place_id": "ChIJ-753whD2AzQRV1IzqswHkZ8",
      "plus_code": {
        "compound_code": "G42H+9X \u9999\u6e2f",
        "global_code": "7PJPG42H+9X"
      },
      "types": [
        "establishment",
        "point_of_interest",
        "shopping_mall"
      ]
    },
    {
      "address_components": [
        {
          "long_name": "\u4e0a\u6d77",
          "short_name": "\u4e0a\u6d77",
          "types": [
            "locality",
            "political"
          ]
        },
        {
          "long_name": "\u4e0a\u6d77",
          "short_name": "\u4e0a\u6d77",
          "types": [
            "administrative_area_level_1",
            "political"
          ]
        },
        {
          "long_name": "\u4e2d\u570b",
          "short_name": "CN",
          "types": [
            "country",
            "political"
          ]
        }
      ],
      "formatted_address": "\u4e2d\u570b\u4e0a\u6d77",
      "geometry": {
        "bounds": {
          "northeast": {
            "lat": 31.8727163,
            "lng": 122.2471487
          },
          "southwest": {
            "lat": 30.6755933,
            "lng": 120.8568044
          }
        },
        "location": {
          "lat": 31.230416,
          "lng": 121.473701
        },
        "location_type": "APPROXIMATE",
        "viewport": {
          "northeast": {
            "lat": 31.6688967,
            "lng": 122.1137989
          },
          "southwest": {
            "lat": 30.7798012,
            "lng": 120.8397067
          }
        }
      },
      "partial_match": true,
      "place_id": "ChIJMzz1sUBwsjURoWTDI5QSlQI",
      "types": [
        "locality",
        "political"
      ]
    }
  ],
  "licno": "2296801907",
  "timestamp": 1564975666,
  "version": "1564966095"
}
