{
  "adr_en": "OASIS, SHOP NO.229, G/F, TUNG CHOI STREET, MONG KOK, KOWLOON",
  "adr_tc": "\u4e5d\u9f8d\u65fa\u89d2\u901a\u83dc\u8857\u5730\u4e0b229\u865f\u8216 \u7da0\u6d32",
  "geocode_en": [
    {
      "address_components": [
        {
          "long_name": "Tung Wai Building",
          "short_name": "Tung Wai Building",
          "types": [
            "premise"
          ]
        },
        {
          "long_name": "Tung Choi Street",
          "short_name": "Tung Choi St",
          "types": [
            "route"
          ]
        },
        {
          "long_name": "Prince Edward",
          "short_name": "Prince Edward",
          "types": [
            "neighborhood",
            "political"
          ]
        },
        {
          "long_name": "Kowloon",
          "short_name": "Kowloon",
          "types": [
            "administrative_area_level_1",
            "political"
          ]
        },
        {
          "long_name": "Hong Kong",
          "short_name": "HK",
          "types": [
            "country",
            "political"
          ]
        }
      ],
      "formatted_address": "Tung Wai Building, Tung Choi St, Prince Edward, Hong Kong",
      "geometry": {
        "location": {
          "lat": 22.326233,
          "lng": 114.16905
        },
        "location_type": "ROOFTOP",
        "viewport": {
          "northeast": {
            "lat": 22.3275819802915,
            "lng": 114.1703989802915
          },
          "southwest": {
            "lat": 22.3248840197085,
            "lng": 114.1677010197085
          }
        }
      },
      "partial_match": true,
      "place_id": "ChIJ6wMYGMoABDQRg4TBpUP3Xsg",
      "plus_code": {
        "compound_code": "85G9+FJ Hong Kong",
        "global_code": "7PJP85G9+FJ"
      },
      "types": [
        "bar",
        "establishment",
        "point_of_interest"
      ]
    }
  ],
  "geocode_tc": [
    {
      "address_components": [
        {
          "long_name": "\u901a\u83dc\u8857",
          "short_name": "\u901a\u83dc\u8857",
          "types": [
            "route"
          ]
        },
        {
          "long_name": "\u65fa\u89d2",
          "short_name": "\u65fa\u89d2",
          "types": [
            "neighborhood",
            "political"
          ]
        },
        {
          "long_name": "\u4e5d\u9f8d",
          "short_name": "\u4e5d\u9f8d",
          "types": [
            "administrative_area_level_1",
            "political"
          ]
        },
        {
          "long_name": "\u9999\u6e2f",
          "short_name": "HK",
          "types": [
            "country",
            "political"
          ]
        }
      ],
      "formatted_address": "\u9999\u6e2f\u65fa\u89d2\u901a\u83dc\u8857",
      "geometry": {
        "bounds": {
          "northeast": {
            "lat": 22.3266899,
            "lng": 114.1714315
          },
          "southwest": {
            "lat": 22.3154967,
            "lng": 114.168459
          }
        },
        "location": {
          "lat": 22.3210731,
          "lng": 114.1701978
        },
        "location_type": "GEOMETRIC_CENTER",
        "viewport": {
          "northeast": {
            "lat": 22.3266899,
            "lng": 114.1714315
          },
          "southwest": {
            "lat": 22.3154967,
            "lng": 114.168459
          }
        }
      },
      "partial_match": true,
      "place_id": "ChIJvdY9ZMgABDQRgKKu2iEGLGo",
      "types": [
        "route"
      ]
    }
  ],
  "licno": "3162248972",
  "timestamp": 1564975666,
  "version": "1564966095"
}
