{
  "adr_en": "McDonald's Restaurant, SHOP L011, G/F , COMMERCIAL CAR PARK BLOCK, TIN YIU ESTATE, TIN WU ROAD, TIN SHUI WAI, YUEN LONG, NEW TERRITORIES",
  "adr_tc": "\u65b0\u754c\u5143\u6717\u5929\u6c34\u570d\u5929\u6e56\u8def\u5929\u8000\u90a8\u5929\u8000\u5546\u5834\u5730\u4e0bL011\u865f\u92ea \u9ea5\u7576\u52de\u9910\u5ef3",
  "geocode_en": [
    {
      "address_components": [
        {
          "long_name": "Tin Wu Road",
          "short_name": "Tin Wu Rd",
          "types": [
            "route"
          ]
        },
        {
          "long_name": "Tin Shui Wai",
          "short_name": "Tin Shui Wai",
          "types": [
            "neighborhood",
            "political"
          ]
        },
        {
          "long_name": "New Territories",
          "short_name": "New Territories",
          "types": [
            "administrative_area_level_1",
            "political"
          ]
        },
        {
          "long_name": "Hong Kong",
          "short_name": "HK",
          "types": [
            "country",
            "political"
          ]
        }
      ],
      "formatted_address": "Tin Wu Rd, Tin Shui Wai, Hong Kong",
      "geometry": {
        "bounds": {
          "northeast": {
            "lat": 22.4542412,
            "lng": 114.0058722
          },
          "southwest": {
            "lat": 22.4513343,
            "lng": 114.0004827
          }
        },
        "location": {
          "lat": 22.4529608,
          "lng": 114.0032458
        },
        "location_type": "GEOMETRIC_CENTER",
        "viewport": {
          "northeast": {
            "lat": 22.4542412,
            "lng": 114.0058722
          },
          "southwest": {
            "lat": 22.4513343,
            "lng": 114.0004827
          }
        }
      },
      "partial_match": true,
      "place_id": "ChIJU_93MYfwAzQRFAZoCCitVCs",
      "types": [
        "route"
      ]
    }
  ],
  "geocode_tc": [
    {
      "address_components": [
        {
          "long_name": "\u5929\u8000\u90a8",
          "short_name": "\u5929\u8000\u90a8",
          "types": [
            "establishment",
            "point_of_interest"
          ]
        },
        {
          "long_name": "\u5929\u8000\u5ee3\u5834",
          "short_name": "\u5929\u8000\u5ee3\u5834",
          "types": [
            "premise"
          ]
        },
        {
          "long_name": "\u5929\u6e56\u8def",
          "short_name": "\u5929\u6e56\u8def",
          "types": [
            "route"
          ]
        },
        {
          "long_name": "\u5929\u6c34\u570d",
          "short_name": "\u5929\u6c34\u570d",
          "types": [
            "neighborhood",
            "political"
          ]
        },
        {
          "long_name": "\u9999\u6e2f",
          "short_name": "HK",
          "types": [
            "country",
            "political"
          ]
        }
      ],
      "formatted_address": "\u9999\u6e2f\u5929\u6c34\u570d\u5929\u6e56\u8def\u5929\u8000\u5ee3\u5834\u5929\u8000\u90a8L011\u865f\u8216",
      "geometry": {
        "location": {
          "lat": 22.4504647,
          "lng": 114.0035211
        },
        "location_type": "ROOFTOP",
        "viewport": {
          "northeast": {
            "lat": 22.4518136802915,
            "lng": 114.0048700802915
          },
          "southwest": {
            "lat": 22.44911571970849,
            "lng": 114.0021721197085
          }
        }
      },
      "place_id": "ChIJHz-6wYDwAzQR-LUF7knQplk",
      "plus_code": {
        "compound_code": "F223+5C \u9999\u6e2f\u5929\u6c34\u570d",
        "global_code": "7PJPF223+5C"
      },
      "types": [
        "establishment",
        "food",
        "point_of_interest",
        "restaurant"
      ]
    }
  ],
  "licno": "2294804115",
  "timestamp": 1564975666,
  "version": "1564966095"
}
