{
  "adr_en": "PIZZAEXPRESS, OSA ON THE PAVEMENT IN FRONT OF THE PREMISES ATG/F, COCKLOFT, 1/F, 90B STANLEY MAIN STREET, HONG KONG",
  "adr_tc": "\u9999\u6e2f\u5357\u5340\u8d64\u67f1\u8d64\u67f1\u5927\u885790B\u865f\u5730\u4e0b, \u95a3\u6a13,\u4e00\u6a13 \u53ca\u8216\u524d\u9732\u5929\u8336\u5ea7 PIZZAEXPRESS",
  "geocode_en": [
    {
      "address_components": [
        {
          "long_name": "1",
          "short_name": "1",
          "types": [
            "subpremise"
          ]
        },
        {
          "long_name": "90B",
          "short_name": "90B",
          "types": [
            "street_number"
          ]
        },
        {
          "long_name": "Stanley Main Street",
          "short_name": "Stanley Main St",
          "types": [
            "route"
          ]
        },
        {
          "long_name": "Stanley",
          "short_name": "Stanley",
          "types": [
            "neighborhood",
            "political"
          ]
        },
        {
          "long_name": "Hong Kong Island",
          "short_name": "Hong Kong Island",
          "types": [
            "administrative_area_level_1",
            "political"
          ]
        },
        {
          "long_name": "Hong Kong",
          "short_name": "HK",
          "types": [
            "country",
            "political"
          ]
        }
      ],
      "formatted_address": "1, 90B Stanley Main St, Stanley, Hong Kong",
      "geometry": {
        "bounds": {
          "northeast": {
            "lat": 22.2188222,
            "lng": 114.2111003
          },
          "southwest": {
            "lat": 22.2187324,
            "lng": 114.2109675
          }
        },
        "location": {
          "lat": 22.2187655,
          "lng": 114.2110223
        },
        "location_type": "ROOFTOP",
        "viewport": {
          "northeast": {
            "lat": 22.2201262802915,
            "lng": 114.2123828802915
          },
          "southwest": {
            "lat": 22.2174283197085,
            "lng": 114.2096849197085
          }
        }
      },
      "partial_match": true,
      "place_id": "EioxLCA5MEIgU3RhbmxleSBNYWluIFN0LCBTdGFubGV5LCBIb25nIEtvbmciHRobChYKFAoSCQNU43VsqgY0EYB3RyXTXqXlEgEx",
      "types": [
        "subpremise"
      ]
    },
    {
      "address_components": [
        {
          "long_name": "F",
          "short_name": "F",
          "types": [
            "subpremise"
          ]
        },
        {
          "long_name": "90B",
          "short_name": "90B",
          "types": [
            "street_number"
          ]
        },
        {
          "long_name": "Stanley Main Street",
          "short_name": "Stanley Main St",
          "types": [
            "route"
          ]
        },
        {
          "long_name": "Stanley",
          "short_name": "Stanley",
          "types": [
            "neighborhood",
            "political"
          ]
        },
        {
          "long_name": "Hong Kong Island",
          "short_name": "Hong Kong Island",
          "types": [
            "administrative_area_level_1",
            "political"
          ]
        },
        {
          "long_name": "Hong Kong",
          "short_name": "HK",
          "types": [
            "country",
            "political"
          ]
        }
      ],
      "formatted_address": "F, 90B Stanley Main St, Stanley, Hong Kong",
      "geometry": {
        "bounds": {
          "northeast": {
            "lat": 22.2188222,
            "lng": 114.2111003
          },
          "southwest": {
            "lat": 22.2187324,
            "lng": 114.2109675
          }
        },
        "location": {
          "lat": 22.2187655,
          "lng": 114.2110223
        },
        "location_type": "ROOFTOP",
        "viewport": {
          "northeast": {
            "lat": 22.2201262802915,
            "lng": 114.2123828802915
          },
          "southwest": {
            "lat": 22.2174283197085,
            "lng": 114.2096849197085
          }
        }
      },
      "partial_match": true,
      "place_id": "EipGLCA5MEIgU3RhbmxleSBNYWluIFN0LCBTdGFubGV5LCBIb25nIEtvbmciHRobChYKFAoSCQNU43VsqgY0EYB3RyXTXqXlEgFG",
      "types": [
        "subpremise"
      ]
    }
  ],
  "geocode_tc": [
    {
      "address_components": [
        {
          "long_name": "\u865f\u5730\u4e0b",
          "short_name": "\u865f\u5730\u4e0b",
          "types": [
            "subpremise"
          ]
        },
        {
          "long_name": "90B",
          "short_name": "90B",
          "types": [
            "street_number"
          ]
        },
        {
          "long_name": "\u8d64\u67f1\u5927\u8857",
          "short_name": "\u8d64\u67f1\u5927\u8857",
          "types": [
            "route"
          ]
        },
        {
          "long_name": "\u8d64\u67f1",
          "short_name": "\u8d64\u67f1",
          "types": [
            "neighborhood",
            "political"
          ]
        },
        {
          "long_name": "\u9999\u6e2f\u5cf6",
          "short_name": "\u9999\u6e2f\u5cf6",
          "types": [
            "administrative_area_level_1",
            "political"
          ]
        },
        {
          "long_name": "\u9999\u6e2f",
          "short_name": "HK",
          "types": [
            "country",
            "political"
          ]
        }
      ],
      "formatted_address": "\u9999\u6e2f\u8d64\u67f1\u8d64\u67f1\u5927\u885790B\u865f\u865f\u5730\u4e0b",
      "geometry": {
        "bounds": {
          "northeast": {
            "lat": 22.2188222,
            "lng": 114.2111003
          },
          "southwest": {
            "lat": 22.2187324,
            "lng": 114.2109675
          }
        },
        "location": {
          "lat": 22.2187655,
          "lng": 114.2110223
        },
        "location_type": "ROOFTOP",
        "viewport": {
          "northeast": {
            "lat": 22.2201262802915,
            "lng": 114.2123828802915
          },
          "southwest": {
            "lat": 22.2174283197085,
            "lng": 114.2096849197085
          }
        }
      },
      "partial_match": true,
      "place_id": "EjLomZ_lnLDkuIssIDkwQiBTdGFubGV5IE1haW4gU3QsIFN0YW5sZXksIEhvbmcgS29uZyIlGiMKFgoUChIJA1TjdWyqBjQRgHdHJdNepeUSCeiZn-WcsOS4iw",
      "types": [
        "subpremise"
      ]
    }
  ],
  "licno": "2215800338",
  "timestamp": 1564968756,
  "version": "1564966095"
}
