{
  "adr_en": "Pizza Baby, SHOP A , G/F, WAH HING MANSION , 7 TSING LING PATH, TUEN MUN, NEW TERRITORIES",
  "adr_tc": "\u65b0\u754c\u5c6f\u9580\u9752\u83f1\u5f917\u865f\u83ef\u8208\u5927\u5ec8\u5730\u4e0bA\u92ea Pizza Baby",
  "geocode_en": [
    {
      "address_components": [
        {
          "long_name": "Wah Hing Mansion",
          "short_name": "Wah Hing Mansion",
          "types": [
            "premise"
          ]
        },
        {
          "long_name": "7",
          "short_name": "7",
          "types": [
            "street_number"
          ]
        },
        {
          "long_name": "Tsing Ling Path",
          "short_name": "Tsing Ling Path",
          "types": [
            "route"
          ]
        },
        {
          "long_name": "San Hui",
          "short_name": "San Hui",
          "types": [
            "neighborhood",
            "political"
          ]
        },
        {
          "long_name": "New Territories",
          "short_name": "New Territories",
          "types": [
            "administrative_area_level_1",
            "political"
          ]
        },
        {
          "long_name": "Hong Kong",
          "short_name": "HK",
          "types": [
            "country",
            "political"
          ]
        }
      ],
      "formatted_address": "Wah Hing Mansion, 7 Tsing Ling Path, San Hui, Hong Kong",
      "geometry": {
        "bounds": {
          "northeast": {
            "lat": 22.401936,
            "lng": 113.9783109
          },
          "southwest": {
            "lat": 22.4017541,
            "lng": 113.97812
          }
        },
        "location": {
          "lat": 22.4018135,
          "lng": 113.9782036
        },
        "location_type": "ROOFTOP",
        "viewport": {
          "northeast": {
            "lat": 22.4031940302915,
            "lng": 113.9795644302915
          },
          "southwest": {
            "lat": 22.4004960697085,
            "lng": 113.9768664697085
          }
        }
      },
      "partial_match": true,
      "place_id": "ChIJNwCvQh_7AzQRPuIL4NcylRs",
      "types": [
        "premise"
      ]
    }
  ],
  "geocode_tc": [
    {
      "address_components": [
        {
          "long_name": "9",
          "short_name": "9",
          "types": [
            "street_number"
          ]
        },
        {
          "long_name": "\u9752\u83f1\u5f91",
          "short_name": "\u9752\u83f1\u5f91",
          "types": [
            "route"
          ]
        },
        {
          "long_name": "\u5c6f\u9580",
          "short_name": "\u5c6f\u9580",
          "types": [
            "neighborhood",
            "political"
          ]
        },
        {
          "long_name": "\u65b0\u754c",
          "short_name": "\u65b0\u754c",
          "types": [
            "administrative_area_level_1",
            "political"
          ]
        },
        {
          "long_name": "\u9999\u6e2f",
          "short_name": "HK",
          "types": [
            "country",
            "political"
          ]
        }
      ],
      "formatted_address": "\u9999\u6e2f\u5c6f\u9580\u9752\u83f1\u5f919\u865f",
      "geometry": {
        "location": {
          "lat": 22.4018858,
          "lng": 113.9781081
        },
        "location_type": "ROOFTOP",
        "viewport": {
          "northeast": {
            "lat": 22.4032347802915,
            "lng": 113.9794570802915
          },
          "southwest": {
            "lat": 22.4005368197085,
            "lng": 113.9767591197085
          }
        }
      },
      "place_id": "ChIJRzEtXR_7AzQRB7V5eLbLD6g",
      "plus_code": {
        "compound_code": "CX2H+Q6 \u9999\u6e2f",
        "global_code": "7PJMCX2H+Q6"
      },
      "types": [
        "establishment",
        "food",
        "point_of_interest",
        "restaurant"
      ]
    }
  ],
  "licno": "2293803249",
  "timestamp": 1564968756,
  "version": "1564966095"
}
