{
  "adr_en": "\u6b63\u5b97\u9178\u8fa3\u7c89, PORTION MARKED A5 OF SHOP A, G/F, YUET LOONG MANSION, 15/25 KO FONG STREET & 39 SHUN FONG STREET, KWAI CHUNG, NEW TERRITORIES",
  "adr_tc": "\u65b0\u754c\u8475\u6d8c\u4fe1\u82b3\u885739\u865f\u53ca\u9ad8\u82b3\u885715/25\u865f \u6085\u9f8d\u5927\u5ec8\u5730\u4e0bA\u92eaA5\u90e8\u4efd \u6b63\u5b97\u9178\u8fa3\u7c89",
  "geocode_en": [
    {
      "address_components": [
        {
          "long_name": "Hong Kong",
          "short_name": "HK",
          "types": [
            "country",
            "political"
          ]
        }
      ],
      "formatted_address": "Portion Marked A5 of Shop A, G/F, Yuet Loong Mansion, 15/25 Ko Fong Street & 39 Shun Fong Street, Kwai Chung, New Territories, Hong Kong",
      "geometry": {
        "location": {
          "lat": 22.359628,
          "lng": 114.126546
        },
        "location_type": "GEOMETRIC_CENTER",
        "viewport": {
          "northeast": {
            "lat": 22.3609769802915,
            "lng": 114.1278949802915
          },
          "southwest": {
            "lat": 22.3582790197085,
            "lng": 114.1251970197085
          }
        }
      },
      "place_id": "ChIJj8CV5L34AzQRt8WjBQhVTi8",
      "plus_code": {
        "compound_code": "945G+VJ Hong Kong",
        "global_code": "7PJP945G+VJ"
      },
      "types": [
        "establishment",
        "point_of_interest"
      ]
    }
  ],
  "geocode_tc": [
    {
      "address_components": [
        {
          "long_name": "\u6085\u9f8d\u5927\u5ec8",
          "short_name": "\u6085\u9f8d\u5927\u5ec8",
          "types": [
            "premise"
          ]
        },
        {
          "long_name": "15",
          "short_name": "15",
          "types": [
            "street_number"
          ]
        },
        {
          "long_name": "\u9ad8\u82b3\u8857",
          "short_name": "\u9ad8\u82b3\u8857",
          "types": [
            "route"
          ]
        },
        {
          "long_name": "\u8475\u6d8c",
          "short_name": "\u8475\u6d8c",
          "types": [
            "neighborhood",
            "political"
          ]
        },
        {
          "long_name": "\u65b0\u754c",
          "short_name": "\u65b0\u754c",
          "types": [
            "administrative_area_level_1",
            "political"
          ]
        },
        {
          "long_name": "\u9999\u6e2f",
          "short_name": "HK",
          "types": [
            "country",
            "political"
          ]
        }
      ],
      "formatted_address": "\u9999\u6e2f\u8475\u6d8c\u9ad8\u82b3\u885715\u865f\u6085\u9f8d\u5927\u5ec8",
      "geometry": {
        "bounds": {
          "northeast": {
            "lat": 22.3596271,
            "lng": 114.126735
          },
          "southwest": {
            "lat": 22.359355,
            "lng": 114.126436
          }
        },
        "location": {
          "lat": 22.3594933,
          "lng": 114.1266101
        },
        "location_type": "ROOFTOP",
        "viewport": {
          "northeast": {
            "lat": 22.36084003029151,
            "lng": 114.1279344802915
          },
          "southwest": {
            "lat": 22.3581420697085,
            "lng": 114.1252365197085
          }
        }
      },
      "partial_match": true,
      "place_id": "ChIJK2FD5L34AzQRdLFYReo9pNg",
      "types": [
        "premise"
      ]
    },
    {
      "address_components": [
        {
          "long_name": "\u6a02\u5e73\u6a13",
          "short_name": "\u6a02\u5e73\u6a13",
          "types": [
            "premise"
          ]
        },
        {
          "long_name": "16",
          "short_name": "16",
          "types": [
            "street_number"
          ]
        },
        {
          "long_name": "\u6c38\u5eb7\u8857",
          "short_name": "\u6c38\u5eb7\u8857",
          "types": [
            "route"
          ]
        },
        {
          "long_name": "\u6fb3\u9580",
          "short_name": "MO",
          "types": [
            "country",
            "political"
          ]
        }
      ],
      "formatted_address": "\u6fb3\u9580\u6c38\u5eb7\u885716\u865f\u6a02\u5e73\u6a1342D-53E \u865f \u5730\u4e0b",
      "geometry": {
        "location": {
          "lat": 22.2101563,
          "lng": 113.5516235
        },
        "location_type": "ROOFTOP",
        "viewport": {
          "northeast": {
            "lat": 22.2115052802915,
            "lng": 113.5529724802915
          },
          "southwest": {
            "lat": 22.2088073197085,
            "lng": 113.5502745197085
          }
        }
      },
      "partial_match": true,
      "place_id": "ChIJk_RZMSJ7ATQRlNi5RVe__rQ",
      "plus_code": {
        "compound_code": "6H62+3J \u6fb3\u9580",
        "global_code": "7PJM6H62+3J"
      },
      "types": [
        "establishment",
        "food",
        "point_of_interest",
        "restaurant"
      ]
    }
  ],
  "licno": "3191800828",
  "timestamp": 1564975666,
  "version": "1564966095"
}
