{
  "adr_en": "FORCE, SHOP NO. 6, G/F, UNIT NO. 4, HEUNG SHING BUILDING, 6, 8, 12 & 14 HEUNG SHING STREET, TSUEN WAN, NEW TERRITORIES",
  "adr_tc": "\u65b0\u754c\u8343\u7063\u4eab\u6210\u88576\u30018\u300112\u53ca14\u865f\u9999\u57ce\u5927\u5ec84\u865f\u5730\u4e0b6\u865f\u92ea FORCE",
  "geocode_en": [
    {
      "address_components": [
        {
          "long_name": "Heung Shing Street",
          "short_name": "Heung Shing St",
          "types": [
            "route"
          ]
        },
        {
          "long_name": "Tsuen Wan",
          "short_name": "Tsuen Wan",
          "types": [
            "neighborhood",
            "political"
          ]
        },
        {
          "long_name": "New Territories",
          "short_name": "New Territories",
          "types": [
            "administrative_area_level_1",
            "political"
          ]
        },
        {
          "long_name": "Hong Kong",
          "short_name": "HK",
          "types": [
            "country",
            "political"
          ]
        }
      ],
      "formatted_address": "Heung Shing St, Tsuen Wan, Hong Kong",
      "geometry": {
        "bounds": {
          "northeast": {
            "lat": 22.3724768,
            "lng": 114.1112351
          },
          "southwest": {
            "lat": 22.3716777,
            "lng": 114.1106777
          }
        },
        "location": {
          "lat": 22.3721365,
          "lng": 114.1110023
        },
        "location_type": "GEOMETRIC_CENTER",
        "viewport": {
          "northeast": {
            "lat": 22.3734262302915,
            "lng": 114.1123053802915
          },
          "southwest": {
            "lat": 22.37072826970849,
            "lng": 114.1096074197085
          }
        }
      },
      "partial_match": true,
      "place_id": "ChIJCbTATu74AzQRQZfBO3uOjOM",
      "types": [
        "route"
      ]
    }
  ],
  "geocode_tc": [
    {
      "address_components": [
        {
          "long_name": "\u9999\u57ce\u5927\u5ec8",
          "short_name": "\u9999\u57ce\u5927\u5ec8",
          "types": [
            "premise"
          ]
        },
        {
          "long_name": "6-14",
          "short_name": "6-14",
          "types": [
            "street_number"
          ]
        },
        {
          "long_name": "\u4eab\u6210\u8857",
          "short_name": "\u4eab\u6210\u8857",
          "types": [
            "route"
          ]
        },
        {
          "long_name": "\u8343\u7063",
          "short_name": "\u8343\u7063",
          "types": [
            "neighborhood",
            "political"
          ]
        },
        {
          "long_name": "\u65b0\u754c",
          "short_name": "\u65b0\u754c",
          "types": [
            "administrative_area_level_1",
            "political"
          ]
        },
        {
          "long_name": "\u9999\u6e2f",
          "short_name": "HK",
          "types": [
            "country",
            "political"
          ]
        }
      ],
      "formatted_address": "\u9999\u6e2f\u8343\u7063\u4eab\u6210\u88576-14\u865f\u9999\u57ce\u5927\u5ec8",
      "geometry": {
        "bounds": {
          "northeast": {
            "lat": 22.3725399,
            "lng": 114.1111
          },
          "southwest": {
            "lat": 22.372243,
            "lng": 114.1108229
          }
        },
        "location": {
          "lat": 22.3724007,
          "lng": 114.1109796
        },
        "location_type": "ROOFTOP",
        "viewport": {
          "northeast": {
            "lat": 22.3737404302915,
            "lng": 114.1123104302915
          },
          "southwest": {
            "lat": 22.3710424697085,
            "lng": 114.1096124697085
          }
        }
      },
      "partial_match": true,
      "place_id": "ChIJ2WBAtO_4AzQRfm9pjGkixT0",
      "types": [
        "premise"
      ]
    }
  ],
  "licno": "3192801721",
  "timestamp": 1564975666,
  "version": "1564966095"
}
