{
  "adr_en": "coffee hut, G/F., NO. 10 MA WAN NEW VILLAGE, LOT NO. 2475 IN D.D. 3, TUNG CHUNG, LANTAU ISLAND, NEW TERRITORIES",
  "adr_tc": "\u65b0\u754c\u5927\u5dbc\u5c71\u6771\u6d8cLOT NO. 2475 IN D.D. 3 \u99ac\u7063\u65b0\u675110\u865f\u5730\u4e0b \u5496\u5561\u7aa9",
  "geocode_en": [
    {
      "address_components": [
        {
          "long_name": "Ma Wan",
          "short_name": "Ma Wan",
          "types": [
            "establishment",
            "natural_feature"
          ]
        },
        {
          "long_name": "Ma Wan",
          "short_name": "Ma Wan",
          "types": [
            "neighborhood",
            "political"
          ]
        },
        {
          "long_name": "New Territories",
          "short_name": "New Territories",
          "types": [
            "administrative_area_level_1",
            "political"
          ]
        },
        {
          "long_name": "Hong Kong",
          "short_name": "HK",
          "types": [
            "country",
            "political"
          ]
        }
      ],
      "formatted_address": "Ma Wan, Hong Kong",
      "geometry": {
        "bounds": {
          "northeast": {
            "lat": 22.3559259,
            "lng": 114.0662681
          },
          "southwest": {
            "lat": 22.3423909,
            "lng": 114.0540541
          }
        },
        "location": {
          "lat": 22.3500753,
          "lng": 114.059207
        },
        "location_type": "APPROXIMATE",
        "viewport": {
          "northeast": {
            "lat": 22.3559259,
            "lng": 114.0662681
          },
          "southwest": {
            "lat": 22.3423909,
            "lng": 114.0540541
          }
        }
      },
      "partial_match": true,
      "place_id": "ChIJL_Fzr1L5AzQR1is_ixrt3iI",
      "types": [
        "establishment",
        "natural_feature"
      ]
    },
    {
      "address_components": [
        {
          "long_name": "Tung Chung",
          "short_name": "Tung Chung",
          "types": [
            "neighborhood",
            "political"
          ]
        },
        {
          "long_name": "New Territories",
          "short_name": "New Territories",
          "types": [
            "administrative_area_level_1",
            "political"
          ]
        },
        {
          "long_name": "Hong Kong",
          "short_name": "HK",
          "types": [
            "country",
            "political"
          ]
        }
      ],
      "formatted_address": "Tung Chung, Hong Kong",
      "geometry": {
        "bounds": {
          "northeast": {
            "lat": 22.30033,
            "lng": 113.970623
          },
          "southwest": {
            "lat": 22.273268,
            "lng": 113.927226
          }
        },
        "location": {
          "lat": 22.2873743,
          "lng": 113.9425086
        },
        "location_type": "APPROXIMATE",
        "viewport": {
          "northeast": {
            "lat": 22.30033,
            "lng": 113.970623
          },
          "southwest": {
            "lat": 22.273268,
            "lng": 113.927226
          }
        }
      },
      "partial_match": true,
      "place_id": "ChIJ0ZRG7K3iAzQRQkyUkOQOKcc",
      "types": [
        "neighborhood",
        "political"
      ]
    }
  ],
  "geocode_tc": [
    {
      "address_components": [
        {
          "long_name": "\u99ac\u7063\u65b0\u6751",
          "short_name": "\u99ac\u7063\u65b0\u6751",
          "types": [
            "establishment",
            "point_of_interest",
            "transit_station"
          ]
        },
        {
          "long_name": "\u6771\u6d8c",
          "short_name": "\u6771\u6d8c",
          "types": [
            "neighborhood",
            "political"
          ]
        },
        {
          "long_name": "\u65b0\u754c",
          "short_name": "\u65b0\u754c",
          "types": [
            "administrative_area_level_1",
            "political"
          ]
        },
        {
          "long_name": "\u9999\u6e2f",
          "short_name": "HK",
          "types": [
            "country",
            "political"
          ]
        }
      ],
      "formatted_address": "\u9999\u6e2f\u6771\u6d8c\u99ac\u7063\u65b0\u6751",
      "geometry": {
        "location": {
          "lat": 22.280596,
          "lng": 113.941099
        },
        "location_type": "GEOMETRIC_CENTER",
        "viewport": {
          "northeast": {
            "lat": 22.2819449802915,
            "lng": 113.9424479802915
          },
          "southwest": {
            "lat": 22.2792470197085,
            "lng": 113.9397500197085
          }
        }
      },
      "partial_match": true,
      "place_id": "ChIJzeBJLabiAzQRRZluqbbOMvM",
      "plus_code": {
        "compound_code": "7WJR+6C \u9999\u6e2f",
        "global_code": "7PJM7WJR+6C"
      },
      "types": [
        "establishment",
        "point_of_interest",
        "transit_station"
      ]
    },
    {
      "address_components": [
        {
          "long_name": "\u6771\u6d8c",
          "short_name": "\u6771\u6d8c",
          "types": [
            "neighborhood",
            "political"
          ]
        },
        {
          "long_name": "\u65b0\u754c",
          "short_name": "\u65b0\u754c",
          "types": [
            "administrative_area_level_1",
            "political"
          ]
        },
        {
          "long_name": "\u9999\u6e2f",
          "short_name": "HK",
          "types": [
            "country",
            "political"
          ]
        }
      ],
      "formatted_address": "\u9999\u6e2f\u6771\u6d8c10 Ma Wan New Village,",
      "geometry": {
        "location": {
          "lat": 22.2795685,
          "lng": 113.9410832
        },
        "location_type": "GEOMETRIC_CENTER",
        "viewport": {
          "northeast": {
            "lat": 22.2809174802915,
            "lng": 113.9424321802915
          },
          "southwest": {
            "lat": 22.2782195197085,
            "lng": 113.9397342197085
          }
        }
      },
      "partial_match": true,
      "place_id": "ChIJkTVD26fiAzQRlCpAh2sJHek",
      "plus_code": {
        "compound_code": "7WHR+RC \u9999\u6e2f",
        "global_code": "7PJM7WHR+RC"
      },
      "types": [
        "cafe",
        "establishment",
        "food",
        "point_of_interest"
      ]
    }
  ],
  "licno": "2217802046",
  "timestamp": 1564968756,
  "version": "1564966095"
}
