{
  "adr_en": "SWIK RICE NOODLE, G/F , TSE CHONG BUILDING, 7 WAI YAN STREET, TAI PO, NEW TERRITORIES",
  "adr_tc": "\u65b0\u754c\u5927\u57d4\u61f7\u4ec1\u88577\u865f\u5b50\u838a\u6a13\u5730\u4e0b \u55ac\u8c50\u96f2\u5357\u944a\u4ed4\u7c73\u7dda",
  "geocode_en": [
    {
      "address_components": [
        {
          "long_name": "Tse Chong Building",
          "short_name": "Tse Chong Building",
          "types": [
            "premise"
          ]
        },
        {
          "long_name": "3",
          "short_name": "3",
          "types": [
            "street_number"
          ]
        },
        {
          "long_name": "Wai Yan Street",
          "short_name": "Wai Yan St",
          "types": [
            "route"
          ]
        },
        {
          "long_name": "Tai Po",
          "short_name": "Tai Po",
          "types": [
            "neighborhood",
            "political"
          ]
        },
        {
          "long_name": "New Territories",
          "short_name": "New Territories",
          "types": [
            "administrative_area_level_1",
            "political"
          ]
        },
        {
          "long_name": "Hong Kong",
          "short_name": "HK",
          "types": [
            "country",
            "political"
          ]
        }
      ],
      "formatted_address": "Tse Chong Building, 3 Wai Yan St, Tai Po, Hong Kong",
      "geometry": {
        "bounds": {
          "northeast": {
            "lat": 22.449084,
            "lng": 114.1655439
          },
          "southwest": {
            "lat": 22.448837,
            "lng": 114.1652261
          }
        },
        "location": {
          "lat": 22.4489542,
          "lng": 114.1653472
        },
        "location_type": "ROOFTOP",
        "viewport": {
          "northeast": {
            "lat": 22.4503094802915,
            "lng": 114.1667339802915
          },
          "southwest": {
            "lat": 22.4476115197085,
            "lng": 114.1640360197085
          }
        }
      },
      "partial_match": true,
      "place_id": "ChIJ_1miLT8IBDQRBIH8513fPgY",
      "types": [
        "premise"
      ]
    }
  ],
  "geocode_tc": [
    {
      "address_components": [
        {
          "long_name": "\u61f7\u4ec1\u8857",
          "short_name": "\u61f7\u4ec1\u8857",
          "types": [
            "route"
          ]
        },
        {
          "long_name": "\u5927\u57d4",
          "short_name": "\u5927\u57d4",
          "types": [
            "neighborhood",
            "political"
          ]
        },
        {
          "long_name": "\u65b0\u754c",
          "short_name": "\u65b0\u754c",
          "types": [
            "administrative_area_level_1",
            "political"
          ]
        },
        {
          "long_name": "\u9999\u6e2f",
          "short_name": "HK",
          "types": [
            "country",
            "political"
          ]
        }
      ],
      "formatted_address": "\u9999\u6e2f\u5927\u57d4\u61f7\u4ec1\u8857",
      "geometry": {
        "bounds": {
          "northeast": {
            "lat": 22.4489474,
            "lng": 114.1664154
          },
          "southwest": {
            "lat": 22.4483055,
            "lng": 114.165115
          }
        },
        "location": {
          "lat": 22.44874,
          "lng": 114.165498
        },
        "location_type": "GEOMETRIC_CENTER",
        "viewport": {
          "northeast": {
            "lat": 22.4499754302915,
            "lng": 114.1671141802915
          },
          "southwest": {
            "lat": 22.4472774697085,
            "lng": 114.1644162197085
          }
        }
      },
      "partial_match": true,
      "place_id": "ChIJFf8jMT8IBDQRHnUWa8Okovo",
      "types": [
        "route"
      ]
    }
  ],
  "licno": "2295802754",
  "timestamp": 1564975666,
  "version": "1564966095"
}
