{
  "adr_en": "Jasmine Place, SHOP 5, LG/F, JARDINE HOUSE, CONNAUGHT ROAD CENTRAL, CENTRAL, HONG KONG",
  "adr_tc": "\u9999\u6e2f\u4e2d\u74b0 \u5e72\u8afe\u9053\u4e2d\u6021\u548c\u5927\u5ec8\u5730\u4e0b\u4e0b\u5c645\u865f\u8216 \u6021\u7fe0\u8ed2",
  "geocode_en": [
    {
      "address_components": [
        {
          "long_name": "Hong Kong",
          "short_name": "HK",
          "types": [
            "country",
            "political"
          ]
        }
      ],
      "formatted_address": "Shop 5, LG/F, Jardine House, Central, Hong Kong",
      "geometry": {
        "location": {
          "lat": 22.2829697,
          "lng": 114.1592628
        },
        "location_type": "GEOMETRIC_CENTER",
        "viewport": {
          "northeast": {
            "lat": 22.2843186802915,
            "lng": 114.1606117802915
          },
          "southwest": {
            "lat": 22.2816207197085,
            "lng": 114.1579138197085
          }
        }
      },
      "place_id": "ChIJ6yRNgWMABDQRagwqV7t9MnY",
      "plus_code": {
        "compound_code": "75M5+5P Hong Kong",
        "global_code": "7PJP75M5+5P"
      },
      "types": [
        "establishment",
        "food",
        "point_of_interest",
        "restaurant"
      ]
    }
  ],
  "geocode_tc": [
    {
      "address_components": [
        {
          "long_name": "\u9999\u6e2f",
          "short_name": "HK",
          "types": [
            "country",
            "political"
          ]
        }
      ],
      "formatted_address": "\u9999\u6e2f\u5eb7\u6a02\u5ee3\u58341\u865f\u6021\u548c\u5927\u5ec8\u5730\u4e0b5",
      "geometry": {
        "location": {
          "lat": 22.283009,
          "lng": 114.159199
        },
        "location_type": "GEOMETRIC_CENTER",
        "viewport": {
          "northeast": {
            "lat": 22.2843579802915,
            "lng": 114.1605479802915
          },
          "southwest": {
            "lat": 22.2816600197085,
            "lng": 114.1578500197085
          }
        }
      },
      "place_id": "ChIJKxOxhmMABDQRMw_GiKvuBk4",
      "plus_code": {
        "compound_code": "75M5+6M \u9999\u6e2f",
        "global_code": "7PJP75M5+6M"
      },
      "types": [
        "establishment",
        "food",
        "point_of_interest",
        "restaurant"
      ]
    }
  ],
  "licno": "2213018665",
  "timestamp": 1564968756,
  "version": "1564966095"
}
