{
  "adr_en": "Wedding Banquet Specialist, 2/F, KWUN TONG VIEW, 410 KWUN TONG ROAD, KWUN TONG, KOWLOON",
  "adr_tc": "\u4e5d\u9f8d\u89c0\u5858\u89c0\u5858\u9053410\u865f\u89c0\u9ede\u4e2d\u5fc32\u6a13 \u714c\u5e9c\u5bb4\u6703\u5ef3",
  "geocode_en": [
    {
      "address_components": [
        {
          "long_name": "Kwun Tong View",
          "short_name": "Kwun Tong View",
          "types": [
            "premise"
          ]
        },
        {
          "long_name": "410",
          "short_name": "410",
          "types": [
            "street_number"
          ]
        },
        {
          "long_name": "Kwun Tong Road",
          "short_name": "Kwun Tong Rd",
          "types": [
            "route"
          ]
        },
        {
          "long_name": "Kwun Tong",
          "short_name": "Kwun Tong",
          "types": [
            "neighborhood",
            "political"
          ]
        },
        {
          "long_name": "Kowloon",
          "short_name": "Kowloon",
          "types": [
            "administrative_area_level_1",
            "political"
          ]
        },
        {
          "long_name": "Hong Kong",
          "short_name": "HK",
          "types": [
            "country",
            "political"
          ]
        }
      ],
      "formatted_address": "Kwun Tong View, 410 Kwun Tong Rd, Kwun Tong, Hong Kong",
      "geometry": {
        "bounds": {
          "northeast": {
            "lat": 22.313024,
            "lng": 114.2244793
          },
          "southwest": {
            "lat": 22.312717,
            "lng": 114.2241239
          }
        },
        "location": {
          "lat": 22.3128723,
          "lng": 114.2242359
        },
        "location_type": "ROOFTOP",
        "viewport": {
          "northeast": {
            "lat": 22.3142194802915,
            "lng": 114.2256505802915
          },
          "southwest": {
            "lat": 22.3115215197085,
            "lng": 114.2229526197085
          }
        }
      },
      "partial_match": true,
      "place_id": "ChIJBc2Un08BBDQRfKuRI77v-SQ",
      "types": [
        "premise"
      ]
    }
  ],
  "geocode_tc": [
    {
      "address_components": [
        {
          "long_name": "\u89c0\u9ede\u4e2d\u5fc3",
          "short_name": "\u89c0\u9ede\u4e2d\u5fc3",
          "types": [
            "premise"
          ]
        },
        {
          "long_name": "410",
          "short_name": "410",
          "types": [
            "street_number"
          ]
        },
        {
          "long_name": "\u89c0\u5858\u9053",
          "short_name": "\u89c0\u5858\u9053",
          "types": [
            "route"
          ]
        },
        {
          "long_name": "\u89c0\u5858",
          "short_name": "\u89c0\u5858",
          "types": [
            "neighborhood",
            "political"
          ]
        },
        {
          "long_name": "\u4e5d\u9f8d",
          "short_name": "\u4e5d\u9f8d",
          "types": [
            "administrative_area_level_1",
            "political"
          ]
        },
        {
          "long_name": "\u9999\u6e2f",
          "short_name": "HK",
          "types": [
            "country",
            "political"
          ]
        }
      ],
      "formatted_address": "\u9999\u6e2f\u89c0\u5858\u89c0\u5858\u9053410\u865f\u89c0\u9ede\u4e2d\u5fc3",
      "geometry": {
        "bounds": {
          "northeast": {
            "lat": 22.313024,
            "lng": 114.2244793
          },
          "southwest": {
            "lat": 22.312717,
            "lng": 114.2241239
          }
        },
        "location": {
          "lat": 22.3128723,
          "lng": 114.2242359
        },
        "location_type": "ROOFTOP",
        "viewport": {
          "northeast": {
            "lat": 22.3142194802915,
            "lng": 114.2256505802915
          },
          "southwest": {
            "lat": 22.3115215197085,
            "lng": 114.2229526197085
          }
        }
      },
      "partial_match": true,
      "place_id": "ChIJBc2Un08BBDQRfKuRI77v-SQ",
      "types": [
        "premise"
      ]
    },
    {
      "address_components": [
        {
          "long_name": "\u6a13 \u714c\u5e9c",
          "short_name": "\u6a13 \u714c\u5e9c",
          "types": [
            "subpremise"
          ]
        },
        {
          "long_name": "\u89c0\u9ede\u4e2d\u5fc3",
          "short_name": "\u89c0\u9ede\u4e2d\u5fc3",
          "types": [
            "premise"
          ]
        },
        {
          "long_name": "410",
          "short_name": "410",
          "types": [
            "street_number"
          ]
        },
        {
          "long_name": "\u89c0\u5858\u9053",
          "short_name": "\u89c0\u5858\u9053",
          "types": [
            "route"
          ]
        },
        {
          "long_name": "\u89c0\u5858",
          "short_name": "\u89c0\u5858",
          "types": [
            "neighborhood",
            "political"
          ]
        },
        {
          "long_name": "\u4e5d\u9f8d",
          "short_name": "\u4e5d\u9f8d",
          "types": [
            "administrative_area_level_1",
            "political"
          ]
        },
        {
          "long_name": "\u9999\u6e2f",
          "short_name": "HK",
          "types": [
            "country",
            "political"
          ]
        }
      ],
      "formatted_address": "\u9999\u6e2f\u89c0\u5858\u89c0\u5858\u9053410\u865f\u89c0\u9ede\u4e2d\u5fc3\u6a13 \u714c\u5e9c",
      "geometry": {
        "bounds": {
          "northeast": {
            "lat": 22.313024,
            "lng": 114.2244793
          },
          "southwest": {
            "lat": 22.312717,
            "lng": 114.2241239
          }
        },
        "location": {
          "lat": 22.3128723,
          "lng": 114.2242359
        },
        "location_type": "ROOFTOP",
        "viewport": {
          "northeast": {
            "lat": 22.3142194802915,
            "lng": 114.2256505802915
          },
          "southwest": {
            "lat": 22.3115215197085,
            "lng": 114.2229526197085
          }
        }
      },
      "partial_match": true,
      "place_id": "EkLmqJMg54WM5bqcLCBLd3VuIFRvbmcgVmlldywgNDEwIEt3dW4gVG9uZyBSZCwgS3d1biBUb25nLCBIb25nIEtvbmciJhokChYKFAoSCQXNlJ9PAQQ0EXyrkSO-7_kkEgrmqJMg54WM5bqc",
      "types": [
        "subpremise"
      ]
    }
  ],
  "licno": "2251802639",
  "timestamp": 1564968756,
  "version": "1564966095"
}
