{
  "adr_en": "\u6ec7\u5712, SHOP C, G/F, LAI YING BUILDING, NOS. 780, 780A & 782 NATHAN ROAD, KOWLOON",
  "adr_tc": "\u4e5d\u9f8d\u5f4c\u6566\u9053780,780A\u53ca782\u865f\u9e97\u82f1\u5927\u5ec8\u5730\u4e0bC\u92ea \u6ec7\u5712",
  "geocode_en": [
    {
      "address_components": [
        {
          "long_name": "Hong Kong",
          "short_name": "HK",
          "types": [
            "country",
            "political"
          ]
        }
      ],
      "formatted_address": "Hong Kong, \u8343\u7063\u8343\u83ef\u885716\u865f\u5275\u610f\u7121\u9650\u5546\u5834\u5730\u4e0b38-39\u865f\u8216",
      "geometry": {
        "location": {
          "lat": 22.3684168,
          "lng": 114.1217329
        },
        "location_type": "GEOMETRIC_CENTER",
        "viewport": {
          "northeast": {
            "lat": 22.3697657802915,
            "lng": 114.1230818802915
          },
          "southwest": {
            "lat": 22.3670678197085,
            "lng": 114.1203839197085
          }
        }
      },
      "partial_match": true,
      "place_id": "ChIJnWMvFJP4AzQRPL0VAVLrr6E",
      "plus_code": {
        "compound_code": "949C+9M Hong Kong",
        "global_code": "7PJP949C+9M"
      },
      "types": [
        "establishment",
        "food",
        "point_of_interest",
        "restaurant"
      ]
    },
    {
      "address_components": [
        {
          "long_name": "780A",
          "short_name": "780A",
          "types": [
            "subpremise"
          ]
        },
        {
          "long_name": "Lai Ying Building",
          "short_name": "Lai Ying Building",
          "types": [
            "premise"
          ]
        },
        {
          "long_name": "780-782",
          "short_name": "780-782",
          "types": [
            "street_number"
          ]
        },
        {
          "long_name": "Nathan Road",
          "short_name": "Nathan Rd",
          "types": [
            "route"
          ]
        },
        {
          "long_name": "Prince Edward",
          "short_name": "Prince Edward",
          "types": [
            "neighborhood",
            "political"
          ]
        },
        {
          "long_name": "Kowloon",
          "short_name": "Kowloon",
          "types": [
            "administrative_area_level_1",
            "political"
          ]
        },
        {
          "long_name": "Hong Kong",
          "short_name": "HK",
          "types": [
            "country",
            "political"
          ]
        }
      ],
      "formatted_address": "780A, Lai Ying Building, 780-782 Nathan Rd, Prince Edward, Hong Kong",
      "geometry": {
        "bounds": {
          "northeast": {
            "lat": 22.325701,
            "lng": 114.168394
          },
          "southwest": {
            "lat": 22.3255569,
            "lng": 114.16823
          }
        },
        "location": {
          "lat": 22.325648,
          "lng": 114.1682965
        },
        "location_type": "ROOFTOP",
        "viewport": {
          "northeast": {
            "lat": 22.3269779302915,
            "lng": 114.1696609802915
          },
          "southwest": {
            "lat": 22.3242799697085,
            "lng": 114.1669630197085
          }
        }
      },
      "partial_match": true,
      "place_id": "EkQ3ODBBLCBMYWkgWWluZyBCdWlsZGluZywgNzgwLTc4MiBOYXRoYW4gUmQsIFByaW5jZSBFZHdhcmQsIEhvbmcgS29uZyIgGh4KFgoUChIJbcKa-ckABDQReksi9UaFn30SBDc4MEE",
      "types": [
        "subpremise"
      ]
    },
    {
      "address_components": [
        {
          "long_name": "780",
          "short_name": "780",
          "types": [
            "subpremise"
          ]
        },
        {
          "long_name": "Lai Ying Building",
          "short_name": "Lai Ying Building",
          "types": [
            "premise"
          ]
        },
        {
          "long_name": "780-782",
          "short_name": "780-782",
          "types": [
            "street_number"
          ]
        },
        {
          "long_name": "Nathan Road",
          "short_name": "Nathan Rd",
          "types": [
            "route"
          ]
        },
        {
          "long_name": "Prince Edward",
          "short_name": "Prince Edward",
          "types": [
            "neighborhood",
            "political"
          ]
        },
        {
          "long_name": "Kowloon",
          "short_name": "Kowloon",
          "types": [
            "administrative_area_level_1",
            "political"
          ]
        },
        {
          "long_name": "Hong Kong",
          "short_name": "HK",
          "types": [
            "country",
            "political"
          ]
        }
      ],
      "formatted_address": "780, Lai Ying Building, 780-782 Nathan Rd, Prince Edward, Hong Kong",
      "geometry": {
        "bounds": {
          "northeast": {
            "lat": 22.325701,
            "lng": 114.168394
          },
          "southwest": {
            "lat": 22.3255569,
            "lng": 114.16823
          }
        },
        "location": {
          "lat": 22.325648,
          "lng": 114.1682965
        },
        "location_type": "ROOFTOP",
        "viewport": {
          "northeast": {
            "lat": 22.3269779302915,
            "lng": 114.1696609802915
          },
          "southwest": {
            "lat": 22.3242799697085,
            "lng": 114.1669630197085
          }
        }
      },
      "partial_match": true,
      "place_id": "EkM3ODAsIExhaSBZaW5nIEJ1aWxkaW5nLCA3ODAtNzgyIE5hdGhhbiBSZCwgUHJpbmNlIEVkd2FyZCwgSG9uZyBLb25nIh8aHQoWChQKEgltwpr5yQAENBF6SyL1RoWffRIDNzgw",
      "types": [
        "subpremise"
      ]
    }
  ],
  "geocode_tc": [
    {
      "address_components": [
        {
          "long_name": "\u9e97\u82f1\u5927\u5ec8",
          "short_name": "\u9e97\u82f1\u5927\u5ec8",
          "types": [
            "premise"
          ]
        },
        {
          "long_name": "780-782",
          "short_name": "780-782",
          "types": [
            "street_number"
          ]
        },
        {
          "long_name": "\u5f4c\u6566\u9053",
          "short_name": "\u5f4c\u6566\u9053",
          "types": [
            "route"
          ]
        },
        {
          "long_name": "\u592a\u5b50",
          "short_name": "\u592a\u5b50",
          "types": [
            "neighborhood",
            "political"
          ]
        },
        {
          "long_name": "\u4e5d\u9f8d",
          "short_name": "\u4e5d\u9f8d",
          "types": [
            "administrative_area_level_1",
            "political"
          ]
        },
        {
          "long_name": "\u9999\u6e2f",
          "short_name": "HK",
          "types": [
            "country",
            "political"
          ]
        }
      ],
      "formatted_address": "\u9999\u6e2f\u592a\u5b50\u5f4c\u6566\u9053780-782\u865f\u9e97\u82f1\u5927\u5ec8",
      "geometry": {
        "bounds": {
          "northeast": {
            "lat": 22.325701,
            "lng": 114.168394
          },
          "southwest": {
            "lat": 22.3255569,
            "lng": 114.16823
          }
        },
        "location": {
          "lat": 22.325648,
          "lng": 114.1682965
        },
        "location_type": "ROOFTOP",
        "viewport": {
          "northeast": {
            "lat": 22.3269779302915,
            "lng": 114.1696609802915
          },
          "southwest": {
            "lat": 22.3242799697085,
            "lng": 114.1669630197085
          }
        }
      },
      "partial_match": true,
      "place_id": "ChIJbcKa-ckABDQReksi9UaFn30",
      "types": [
        "premise"
      ]
    },
    {
      "address_components": [
        {
          "long_name": "\u96f2\u5357",
          "short_name": "\u96f2\u5357",
          "types": [
            "administrative_area_level_1",
            "political"
          ]
        },
        {
          "long_name": "\u4e2d\u570b",
          "short_name": "CN",
          "types": [
            "country",
            "political"
          ]
        }
      ],
      "formatted_address": "\u4e2d\u570b\u96f2\u5357",
      "geometry": {
        "bounds": {
          "northeast": {
            "lat": 29.2233268,
            "lng": 106.1977222
          },
          "southwest": {
            "lat": 21.1417696,
            "lng": 97.5279781
          }
        },
        "location": {
          "lat": 24.4752847,
          "lng": 101.3431058
        },
        "location_type": "APPROXIMATE",
        "viewport": {
          "northeast": {
            "lat": 29.2233268,
            "lng": 106.1977222
          },
          "southwest": {
            "lat": 21.1417696,
            "lng": 97.5279781
          }
        }
      },
      "partial_match": true,
      "place_id": "ChIJKVugMtuD0DYRKayNyrfrPKY",
      "types": [
        "administrative_area_level_1",
        "political"
      ]
    }
  ],
  "licno": "2262809533",
  "timestamp": 1564968756,
  "version": "1564966095"
}
