{
  "adr_en": "NEXUS, 20/F, MONGKOK METRO, 594-596 NATHAN ROAD, MONG KOK, KOWLOON",
  "adr_tc": "\u4e5d\u9f8d\u65fa\u89d2\u5f4c\u6566\u9053594-596\u865f\u65fa\u89d2\u65b0\u57ce\u4e8c\u5341\u6a13 NEXUS",
  "geocode_en": [
    {
      "address_components": [
        {
          "long_name": "Mongkok Metro",
          "short_name": "Mongkok Metro",
          "types": [
            "premise"
          ]
        },
        {
          "long_name": "594-596",
          "short_name": "594-596",
          "types": [
            "street_number"
          ]
        },
        {
          "long_name": "Nathan Road",
          "short_name": "Nathan Rd",
          "types": [
            "route"
          ]
        },
        {
          "long_name": "Mong Kok",
          "short_name": "Mong Kok",
          "types": [
            "neighborhood",
            "political"
          ]
        },
        {
          "long_name": "Kowloon",
          "short_name": "Kowloon",
          "types": [
            "administrative_area_level_1",
            "political"
          ]
        },
        {
          "long_name": "Hong Kong",
          "short_name": "HK",
          "types": [
            "country",
            "political"
          ]
        }
      ],
      "formatted_address": "Mongkok Metro, 594-596 Nathan Rd, Mong Kok, Hong Kong",
      "geometry": {
        "bounds": {
          "northeast": {
            "lat": 22.316318,
            "lng": 114.1704011
          },
          "southwest": {
            "lat": 22.316152,
            "lng": 114.1701551
          }
        },
        "location": {
          "lat": 22.316221,
          "lng": 114.1702936
        },
        "location_type": "ROOFTOP",
        "viewport": {
          "northeast": {
            "lat": 22.3175839802915,
            "lng": 114.1716270802915
          },
          "southwest": {
            "lat": 22.3148860197085,
            "lng": 114.1689291197085
          }
        }
      },
      "partial_match": true,
      "place_id": "ChIJS-L6G8cABDQRPuZY5JTP-hg",
      "types": [
        "premise"
      ]
    }
  ],
  "geocode_tc": [
    {
      "address_components": [
        {
          "long_name": "\u65fa\u89d2",
          "short_name": "\u65fa\u89d2",
          "types": [
            "neighborhood",
            "political"
          ]
        },
        {
          "long_name": "\u4e5d\u9f8d",
          "short_name": "\u4e5d\u9f8d",
          "types": [
            "administrative_area_level_1",
            "political"
          ]
        },
        {
          "long_name": "\u9999\u6e2f",
          "short_name": "HK",
          "types": [
            "country",
            "political"
          ]
        }
      ],
      "formatted_address": "\u9999\u6e2f\u65fa\u89d2\u5f4c\u6566\u9053594-596\u865f \u65fa\u89d2\u65b0\u57ce\u5927\u5ec820\u6a13",
      "geometry": {
        "location": {
          "lat": 22.316235,
          "lng": 114.170278
        },
        "location_type": "GEOMETRIC_CENTER",
        "viewport": {
          "northeast": {
            "lat": 22.3175839802915,
            "lng": 114.1716269802915
          },
          "southwest": {
            "lat": 22.3148860197085,
            "lng": 114.1689290197085
          }
        }
      },
      "place_id": "ChIJcYZiGccABDQRDNoQ4ruhjkc",
      "plus_code": {
        "compound_code": "858C+F4 \u9999\u6e2f\u65fa\u89d2",
        "global_code": "7PJP858C+F4"
      },
      "types": [
        "bar",
        "establishment",
        "point_of_interest"
      ]
    }
  ],
  "licno": "3162802530",
  "timestamp": 1564975666,
  "version": "1564966095"
}
