{
  "adr_en": "\u9f8d\u7687\u661f, BASEMENT, DE FENWICK, 8-12 FENWICK ST, 42-50 LOCKHART RD, WAN CHAI, HONG KONG",
  "adr_tc": "\u9999\u6e2f\u7063\u4ed4\u5206\u57df\u88578-12\u865f\u53ca\u99f1\u514b\u905342-50\u865f\u541b\u6085\u5c45\u5730\u5eab \u9f8d\u7687\u661f",
  "geocode_en": [
    {
      "address_components": [
        {
          "long_name": "Hong Kong",
          "short_name": "HK",
          "types": [
            "country",
            "political"
          ]
        }
      ],
      "formatted_address": "Basement, de Fenwick, 8-12 Fenwick St, 42-50 Lockhart Rd, Wan Chai, Hong Kong",
      "geometry": {
        "location": {
          "lat": 22.278096,
          "lng": 114.170572
        },
        "location_type": "GEOMETRIC_CENTER",
        "viewport": {
          "northeast": {
            "lat": 22.2794449802915,
            "lng": 114.1719209802915
          },
          "southwest": {
            "lat": 22.27674701970849,
            "lng": 114.1692230197085
          }
        }
      },
      "place_id": "ChIJY_hxAF0ABDQRMQQfXpeIyaM",
      "plus_code": {
        "compound_code": "75HC+66 Hong Kong",
        "global_code": "7PJP75HC+66"
      },
      "types": [
        "bar",
        "establishment",
        "food",
        "point_of_interest",
        "restaurant"
      ]
    }
  ],
  "geocode_tc": [
    {
      "address_components": [
        {
          "long_name": "42-50",
          "short_name": "42-50",
          "types": [
            "street_number"
          ]
        },
        {
          "long_name": "Lockhart Road",
          "short_name": "Lockhart Rd",
          "types": [
            "route"
          ]
        },
        {
          "long_name": "Wan Chai",
          "short_name": "Wan Chai",
          "types": [
            "neighborhood",
            "political"
          ]
        },
        {
          "long_name": "Hong Kong Island",
          "short_name": "Hong Kong Island",
          "types": [
            "administrative_area_level_1",
            "political"
          ]
        },
        {
          "long_name": "\u9999\u6e2f",
          "short_name": "HK",
          "types": [
            "country",
            "political"
          ]
        }
      ],
      "formatted_address": "Shop E G/F, 42-50 Lockhart Rd, Wan Chai, \u9999\u6e2f",
      "geometry": {
        "location": {
          "lat": 22.27801,
          "lng": 114.170549
        },
        "location_type": "ROOFTOP",
        "viewport": {
          "northeast": {
            "lat": 22.2793589802915,
            "lng": 114.1718979802915
          },
          "southwest": {
            "lat": 22.2766610197085,
            "lng": 114.1692000197085
          }
        }
      },
      "partial_match": true,
      "place_id": "ChIJ9_BkAF0ABDQR3_rI0744qKo",
      "plus_code": {
        "compound_code": "75HC+66 \u9999\u6e2f\u7063\u4ed4",
        "global_code": "7PJP75HC+66"
      },
      "types": [
        "establishment",
        "lodging",
        "point_of_interest"
      ]
    },
    {
      "address_components": [
        {
          "long_name": "\u9999\u6e2f",
          "short_name": "HK",
          "types": [
            "country",
            "political"
          ]
        }
      ],
      "formatted_address": "Basement, de Fenwick, 8-12 Fenwick St, 42-50 Lockhart Rd, Wan Chai, \u9999\u6e2f",
      "geometry": {
        "location": {
          "lat": 22.278096,
          "lng": 114.170572
        },
        "location_type": "GEOMETRIC_CENTER",
        "viewport": {
          "northeast": {
            "lat": 22.2794449802915,
            "lng": 114.1719209802915
          },
          "southwest": {
            "lat": 22.27674701970849,
            "lng": 114.1692230197085
          }
        }
      },
      "partial_match": true,
      "place_id": "ChIJY_hxAF0ABDQRMQQfXpeIyaM",
      "plus_code": {
        "compound_code": "75HC+66 \u9999\u6e2f",
        "global_code": "7PJP75HC+66"
      },
      "types": [
        "bar",
        "establishment",
        "food",
        "point_of_interest",
        "restaurant"
      ]
    }
  ],
  "licno": "2212801525",
  "timestamp": 1564966180,
  "version": "1564966095"
}
