{
  "adr_en": "---, SHOP 110, 1/F, HONG SING GARDEN SHOPPING CENTRE, 1 PO LAM ROAD NORTH, TSEUNG KWAN O, SAI KUNG, NEW TERRITORIES",
  "adr_tc": "\u65b0\u754c\u897f\u8ca2\u5c07\u8ecd\u6fb3 \u5bf6\u7433\u5317\u8def1\u865f  \u5eb7\u76db\u82b1\u5712\u5546\u5834 1\u6a13 110\u865f ---",
  "geocode_en": [
    {
      "address_components": [
        {
          "long_name": "1",
          "short_name": "1",
          "types": [
            "street_number"
          ]
        },
        {
          "long_name": "Po Lam Road",
          "short_name": "Po Lam Rd",
          "types": [
            "route"
          ]
        },
        {
          "long_name": "New Territories",
          "short_name": "New Territories",
          "types": [
            "administrative_area_level_1",
            "political"
          ]
        },
        {
          "long_name": "Hong Kong",
          "short_name": "HK",
          "types": [
            "country",
            "political"
          ]
        }
      ],
      "formatted_address": "1 Po Lam Rd, Hong Kong",
      "geometry": {
        "location": {
          "lat": 22.3199666,
          "lng": 114.2538948
        },
        "location_type": "ROOFTOP",
        "viewport": {
          "northeast": {
            "lat": 22.3213155802915,
            "lng": 114.2552437802915
          },
          "southwest": {
            "lat": 22.31861761970849,
            "lng": 114.2525458197085
          }
        }
      },
      "partial_match": true,
      "place_id": "ChIJGQAhOQgEBDQR0MC9q0_k7lg",
      "plus_code": {
        "compound_code": "8793+XH Hong Kong",
        "global_code": "7PJP8793+XH"
      },
      "types": [
        "establishment",
        "point_of_interest"
      ]
    },
    {
      "address_components": [
        {
          "long_name": "Hong Sing Gardens Block 4",
          "short_name": "Hong Sing Gardens Block 4",
          "types": [
            "premise"
          ]
        },
        {
          "long_name": "1",
          "short_name": "1",
          "types": [
            "street_number"
          ]
        },
        {
          "long_name": "Po Lam Road North",
          "short_name": "Po Lam Rd N",
          "types": [
            "route"
          ]
        },
        {
          "long_name": "New Territories",
          "short_name": "New Territories",
          "types": [
            "administrative_area_level_1",
            "political"
          ]
        },
        {
          "long_name": "Hong Kong",
          "short_name": "HK",
          "types": [
            "country",
            "political"
          ]
        }
      ],
      "formatted_address": "Hong Sing Gardens Block 4, 1 Po Lam Rd N, Hong Kong",
      "geometry": {
        "bounds": {
          "northeast": {
            "lat": 22.3196559,
            "lng": 114.254069
          },
          "southwest": {
            "lat": 22.3192721,
            "lng": 114.253639
          }
        },
        "location": {
          "lat": 22.3194307,
          "lng": 114.2538631
        },
        "location_type": "ROOFTOP",
        "viewport": {
          "northeast": {
            "lat": 22.3208129802915,
            "lng": 114.2552029802915
          },
          "southwest": {
            "lat": 22.3181150197085,
            "lng": 114.2525050197085
          }
        }
      },
      "partial_match": true,
      "place_id": "ChIJo625SggEBDQRwiCo__IPwKU",
      "types": [
        "premise"
      ]
    }
  ],
  "geocode_tc": [
    {
      "address_components": [
        {
          "long_name": "1",
          "short_name": "1",
          "types": [
            "street_number"
          ]
        },
        {
          "long_name": "\u5bf6\u7433\u5317\u8def",
          "short_name": "\u5bf6\u7433\u5317\u8def",
          "types": [
            "route"
          ]
        },
        {
          "long_name": "\u5c07\u8ecd\u6fb3",
          "short_name": "\u5c07\u8ecd\u6fb3",
          "types": [
            "neighborhood",
            "political"
          ]
        },
        {
          "long_name": "\u65b0\u754c",
          "short_name": "\u65b0\u754c",
          "types": [
            "administrative_area_level_1",
            "political"
          ]
        },
        {
          "long_name": "\u9999\u6e2f",
          "short_name": "HK",
          "types": [
            "country",
            "political"
          ]
        }
      ],
      "formatted_address": "\u9999\u6e2f\u5c07\u8ecd\u6fb3\u5bf6\u7433\u5317\u8def1\u865f",
      "geometry": {
        "location": {
          "lat": 22.3197337,
          "lng": 114.2530241
        },
        "location_type": "ROOFTOP",
        "viewport": {
          "northeast": {
            "lat": 22.3210826802915,
            "lng": 114.2543730802915
          },
          "southwest": {
            "lat": 22.3183847197085,
            "lng": 114.2516751197085
          }
        }
      },
      "place_id": "ChIJM0CUQAgEBDQRJoUdhd2Fdek",
      "plus_code": {
        "compound_code": "8793+V6 \u9999\u6e2f",
        "global_code": "7PJP8793+V6"
      },
      "types": [
        "establishment",
        "point_of_interest",
        "shopping_mall"
      ]
    },
    {
      "address_components": [
        {
          "long_name": "1",
          "short_name": "1",
          "types": [
            "street_number"
          ]
        },
        {
          "long_name": "\u5bf6\u7433\u8def",
          "short_name": "\u5bf6\u7433\u8def",
          "types": [
            "route"
          ]
        },
        {
          "long_name": "\u65b0\u754c",
          "short_name": "\u65b0\u754c",
          "types": [
            "administrative_area_level_1",
            "political"
          ]
        },
        {
          "long_name": "\u9999\u6e2f",
          "short_name": "HK",
          "types": [
            "country",
            "political"
          ]
        }
      ],
      "formatted_address": "\u9999\u6e2f\u5bf6\u7433\u8def1\u865f",
      "geometry": {
        "location": {
          "lat": 22.3199666,
          "lng": 114.2538948
        },
        "location_type": "ROOFTOP",
        "viewport": {
          "northeast": {
            "lat": 22.3213155802915,
            "lng": 114.2552437802915
          },
          "southwest": {
            "lat": 22.31861761970849,
            "lng": 114.2525458197085
          }
        }
      },
      "place_id": "ChIJGQAhOQgEBDQR0MC9q0_k7lg",
      "plus_code": {
        "compound_code": "8793+XH \u9999\u6e2f",
        "global_code": "7PJP8793+XH"
      },
      "types": [
        "establishment",
        "point_of_interest"
      ]
    }
  ],
  "licno": "3998801572",
  "timestamp": 1564975666,
  "version": "1564966095"
}
