{
  "adr_en": "\u6a02\u6eff\u9580\u5feb\u9910\u5ef3, G/F, 26 LUEN SHING STREET, LUEN WO MARKET, FANLING, NEW TERRITORIES",
  "adr_tc": "\u65b0\u754c\u7c89\u5dba \u806f\u548c\u589f\u806f\u76db\u8857 26\u865f\u5730\u4e0b \u6a02\u6eff\u9580\u5feb\u9910\u5ef3",
  "geocode_en": [
    {
      "address_components": [
        {
          "long_name": "Hong Kong",
          "short_name": "HK",
          "types": [
            "country",
            "political"
          ]
        }
      ],
      "formatted_address": "Hong Kong, \u7c89\u5dba\u806f\u548c\u589f\u548c\u9686\u885725\u865f",
      "geometry": {
        "location": {
          "lat": 22.49934,
          "lng": 114.142477
        },
        "location_type": "GEOMETRIC_CENTER",
        "viewport": {
          "northeast": {
            "lat": 22.5006889802915,
            "lng": 114.1438259802915
          },
          "southwest": {
            "lat": 22.4979910197085,
            "lng": 114.1411280197085
          }
        }
      },
      "partial_match": true,
      "place_id": "ChIJPx4slh32AzQRTzuG1H5ipDk",
      "plus_code": {
        "compound_code": "F4XR+PX Hong Kong",
        "global_code": "7PJPF4XR+PX"
      },
      "types": [
        "establishment",
        "food",
        "point_of_interest",
        "restaurant"
      ]
    },
    {
      "address_components": [
        {
          "long_name": "G",
          "short_name": "G",
          "types": [
            "subpremise"
          ]
        },
        {
          "long_name": "26",
          "short_name": "26",
          "types": [
            "street_number"
          ]
        },
        {
          "long_name": "Luen Shing Street",
          "short_name": "Luen Shing St",
          "types": [
            "route"
          ]
        },
        {
          "long_name": "Fanling",
          "short_name": "Fanling",
          "types": [
            "neighborhood",
            "political"
          ]
        },
        {
          "long_name": "New Territories",
          "short_name": "New Territories",
          "types": [
            "administrative_area_level_1",
            "political"
          ]
        },
        {
          "long_name": "Hong Kong",
          "short_name": "HK",
          "types": [
            "country",
            "political"
          ]
        }
      ],
      "formatted_address": "G, 26 Luen Shing St, Fanling, Hong Kong",
      "geometry": {
        "location": {
          "lat": 22.4993818,
          "lng": 114.1425347
        },
        "location_type": "RANGE_INTERPOLATED",
        "viewport": {
          "northeast": {
            "lat": 22.50073078029151,
            "lng": 114.1438836802915
          },
          "southwest": {
            "lat": 22.4980328197085,
            "lng": 114.1411857197085
          }
        }
      },
      "partial_match": true,
      "place_id": "EidHLCAyNiBMdWVuIFNoaW5nIFN0LCBGYW5saW5nLCBIb25nIEtvbmciIRofChoSGAoUChIJdfdqlh32AzQRmUwpXP8o0ZQQGhIBRw",
      "types": [
        "subpremise"
      ]
    },
    {
      "address_components": [
        {
          "long_name": "F",
          "short_name": "F",
          "types": [
            "subpremise"
          ]
        },
        {
          "long_name": "26",
          "short_name": "26",
          "types": [
            "street_number"
          ]
        },
        {
          "long_name": "Luen Shing Street",
          "short_name": "Luen Shing St",
          "types": [
            "route"
          ]
        },
        {
          "long_name": "Fanling",
          "short_name": "Fanling",
          "types": [
            "neighborhood",
            "political"
          ]
        },
        {
          "long_name": "New Territories",
          "short_name": "New Territories",
          "types": [
            "administrative_area_level_1",
            "political"
          ]
        },
        {
          "long_name": "Hong Kong",
          "short_name": "HK",
          "types": [
            "country",
            "political"
          ]
        }
      ],
      "formatted_address": "F, 26 Luen Shing St, Fanling, Hong Kong",
      "geometry": {
        "location": {
          "lat": 22.4993818,
          "lng": 114.1425347
        },
        "location_type": "RANGE_INTERPOLATED",
        "viewport": {
          "northeast": {
            "lat": 22.50073078029151,
            "lng": 114.1438836802915
          },
          "southwest": {
            "lat": 22.4980328197085,
            "lng": 114.1411857197085
          }
        }
      },
      "partial_match": true,
      "place_id": "EidGLCAyNiBMdWVuIFNoaW5nIFN0LCBGYW5saW5nLCBIb25nIEtvbmciIRofChoSGAoUChIJdfdqlh32AzQRmUwpXP8o0ZQQGhIBRg",
      "types": [
        "subpremise"
      ]
    }
  ],
  "geocode_tc": [
    {
      "address_components": [
        {
          "long_name": "\u9999\u6e2f",
          "short_name": "HK",
          "types": [
            "country",
            "political"
          ]
        }
      ],
      "formatted_address": "\u9999\u6e2f\u7c89\u5dba\u806f\u548c\u589f\u548c\u9686\u885725\u865f",
      "geometry": {
        "location": {
          "lat": 22.49934,
          "lng": 114.142477
        },
        "location_type": "GEOMETRIC_CENTER",
        "viewport": {
          "northeast": {
            "lat": 22.5006889802915,
            "lng": 114.1438259802915
          },
          "southwest": {
            "lat": 22.4979910197085,
            "lng": 114.1411280197085
          }
        }
      },
      "place_id": "ChIJPx4slh32AzQRTzuG1H5ipDk",
      "plus_code": {
        "compound_code": "F4XR+PX \u9999\u6e2f",
        "global_code": "7PJPF4XR+PX"
      },
      "types": [
        "establishment",
        "food",
        "point_of_interest",
        "restaurant"
      ]
    }
  ],
  "licno": "2296001543",
  "timestamp": 1564975666,
  "version": "1564966095"
}
