{
  "adr_en": "\u767c\u8a18\u751c\u54c1, G/F, NO. 4 TUNG CHOI STREET, MONG KOK, KOWLOON",
  "adr_tc": "\u4e5d\u9f8d\u65fa\u89d2\u901a\u83dc\u88574\u865f\u5730\u4e0b \u767c\u8a18\u751c\u54c1",
  "geocode_en": [
    {
      "address_components": [
        {
          "long_name": "38",
          "short_name": "38",
          "types": [
            "street_number"
          ]
        },
        {
          "long_name": "Shantung Street",
          "short_name": "Shantung Street",
          "types": [
            "route"
          ]
        },
        {
          "long_name": "Mong Kok",
          "short_name": "Mong Kok",
          "types": [
            "neighborhood",
            "political"
          ]
        },
        {
          "long_name": "Kowloon",
          "short_name": "Kowloon",
          "types": [
            "administrative_area_level_1",
            "political"
          ]
        },
        {
          "long_name": "Hong Kong",
          "short_name": "HK",
          "types": [
            "country",
            "political"
          ]
        }
      ],
      "formatted_address": "38 Shantung Street, Mong Kok, Hong Kong",
      "geometry": {
        "location": {
          "lat": 22.3173405,
          "lng": 114.1693315
        },
        "location_type": "ROOFTOP",
        "viewport": {
          "northeast": {
            "lat": 22.3186894802915,
            "lng": 114.1706804802915
          },
          "southwest": {
            "lat": 22.3159915197085,
            "lng": 114.1679825197085
          }
        }
      },
      "place_id": "ChIJCe2bCscABDQR6KedUF-LzNQ",
      "plus_code": {
        "compound_code": "8589+WP Hong Kong",
        "global_code": "7PJP8589+WP"
      },
      "types": [
        "establishment",
        "food",
        "point_of_interest"
      ]
    }
  ],
  "geocode_tc": [
    {
      "address_components": [
        {
          "long_name": "\u9999\u6e2f",
          "short_name": "HK",
          "types": [
            "country",
            "political"
          ]
        }
      ],
      "formatted_address": "\u9999\u6e2f\u901a\u83dc\u8857",
      "geometry": {
        "location": {
          "lat": 22.317014,
          "lng": 114.171135
        },
        "location_type": "GEOMETRIC_CENTER",
        "viewport": {
          "northeast": {
            "lat": 22.3183629802915,
            "lng": 114.1724839802915
          },
          "southwest": {
            "lat": 22.3156650197085,
            "lng": 114.1697860197085
          }
        }
      },
      "place_id": "ChIJtyHB-MYABDQRpNUoFibt4T8",
      "plus_code": {
        "compound_code": "858C+RF \u9999\u6e2f",
        "global_code": "7PJP858C+RF"
      },
      "types": [
        "establishment",
        "food",
        "point_of_interest"
      ]
    }
  ],
  "licno": "3162800862",
  "timestamp": 1564975666,
  "version": "1564966095"
}
