{
  "adr_en": "HANDI INDIAN RESTAURANT, G/F., NO. 8 HA LING PEI TSUEN, TUNG CHUNG, LANTAU, NEW TERRITORIES",
  "adr_tc": "\u65b0\u754c\u5927\u5dbc\u5c71\u6771\u6d8c\u4e0b\u5dba\u76ae\u67518\u865f\u5730\u4e0b HANDI INDIAN RESTAURANT",
  "geocode_en": [
    {
      "address_components": [
        {
          "long_name": "\u4e0b\u5dba\u76ae\u6751",
          "short_name": "\u4e0b\u5dba\u76ae\u6751",
          "types": [
            "establishment",
            "point_of_interest"
          ]
        },
        {
          "long_name": "Tung Chung",
          "short_name": "Tung Chung",
          "types": [
            "neighborhood",
            "political"
          ]
        },
        {
          "long_name": "Hong Kong",
          "short_name": "HK",
          "types": [
            "country",
            "political"
          ]
        }
      ],
      "formatted_address": "Hong Kong, Tung Chung, \u4e0b\u5dba\u76ae\u67518\u865f",
      "geometry": {
        "location": {
          "lat": 22.2776856,
          "lng": 113.9346881
        },
        "location_type": "GEOMETRIC_CENTER",
        "viewport": {
          "northeast": {
            "lat": 22.2790345802915,
            "lng": 113.9360370802915
          },
          "southwest": {
            "lat": 22.27633661970849,
            "lng": 113.9333391197085
          }
        }
      },
      "place_id": "ChIJI8I_FwpYATQRxjzSU7Ak6GQ",
      "plus_code": {
        "compound_code": "7WHM+3V Hong Kong",
        "global_code": "7PJM7WHM+3V"
      },
      "types": [
        "establishment",
        "food",
        "point_of_interest",
        "restaurant"
      ]
    }
  ],
  "geocode_tc": [
    {
      "address_components": [
        {
          "long_name": "\u9999\u6e2f",
          "short_name": "HK",
          "types": [
            "country",
            "political"
          ]
        }
      ],
      "formatted_address": "\u9999\u6e2f\u6771\u6d8c\u4e0b\u5dba\u76ae\u67518\u865f",
      "geometry": {
        "location": {
          "lat": 22.2776003,
          "lng": 113.9349604
        },
        "location_type": "GEOMETRIC_CENTER",
        "viewport": {
          "northeast": {
            "lat": 22.2789492802915,
            "lng": 113.9363093802915
          },
          "southwest": {
            "lat": 22.2762513197085,
            "lng": 113.9336114197085
          }
        }
      },
      "place_id": "ChIJI8I_FwpYATQRIiGkkmuD1GA",
      "plus_code": {
        "compound_code": "7WHM+2X \u9999\u6e2f",
        "global_code": "7PJM7WHM+2X"
      },
      "types": [
        "establishment",
        "food",
        "point_of_interest",
        "restaurant"
      ]
    },
    {
      "address_components": [
        {
          "long_name": "\u4e0b\u5dba\u76ae\u6751",
          "short_name": "\u4e0b\u5dba\u76ae\u6751",
          "types": [
            "establishment",
            "point_of_interest"
          ]
        },
        {
          "long_name": "\u6771\u6d8c",
          "short_name": "\u6771\u6d8c",
          "types": [
            "neighborhood",
            "political"
          ]
        },
        {
          "long_name": "\u9999\u6e2f",
          "short_name": "HK",
          "types": [
            "country",
            "political"
          ]
        }
      ],
      "formatted_address": "\u9999\u6e2f\u6771\u6d8c\u4e0b\u5dba\u76ae\u67518\u865f",
      "geometry": {
        "location": {
          "lat": 22.2776856,
          "lng": 113.9346881
        },
        "location_type": "GEOMETRIC_CENTER",
        "viewport": {
          "northeast": {
            "lat": 22.2790345802915,
            "lng": 113.9360370802915
          },
          "southwest": {
            "lat": 22.27633661970849,
            "lng": 113.9333391197085
          }
        }
      },
      "place_id": "ChIJI8I_FwpYATQRxjzSU7Ak6GQ",
      "plus_code": {
        "compound_code": "7WHM+3V \u9999\u6e2f",
        "global_code": "7PJM7WHM+3V"
      },
      "types": [
        "establishment",
        "food",
        "point_of_interest",
        "restaurant"
      ]
    }
  ],
  "licno": "2217800280",
  "timestamp": 1564968756,
  "version": "1564966095"
}
