{
  "adr_en": "Park Galleria, LEVEL 1 (PORTION) & LEVEL 2 (PORTION) AND THE OUTSIDE SEATING ACCOMMODATION AT SHOP FRONT OF LEVEL 1 (PORTION), NEW TOWN OFFICE TOWER, SHA TIN, NEW TERRITORIES",
  "adr_tc": "\u65b0\u754c\u6c99\u7530\u65b0\u57ce\u5e02\u5546\u696d\u5927\u5ec81\u6a13(\u90e8\u4efd)\u53ca2\u6a13(\u90e8\u4efd) \u53ca\u5e97\u92ea\u524d\u7684\u9732\u5929\u5ea7\u4f4d1\u6a13(\u90e8\u4efd) \u5e1d\u90fd\u8588",
  "geocode_en": [
    {
      "address_components": [
        {
          "long_name": "Sha Tin",
          "short_name": "Sha Tin",
          "types": [
            "neighborhood",
            "political"
          ]
        },
        {
          "long_name": "New Territories",
          "short_name": "New Territories",
          "types": [
            "administrative_area_level_1",
            "political"
          ]
        },
        {
          "long_name": "Hong Kong",
          "short_name": "HK",
          "types": [
            "country",
            "political"
          ]
        }
      ],
      "formatted_address": "Sha Tin, Hong Kong",
      "geometry": {
        "bounds": {
          "northeast": {
            "lat": 22.410345,
            "lng": 114.221425
          },
          "southwest": {
            "lat": 22.367131,
            "lng": 114.177721
          }
        },
        "location": {
          "lat": 22.3771304,
          "lng": 114.1974398
        },
        "location_type": "APPROXIMATE",
        "viewport": {
          "northeast": {
            "lat": 22.410345,
            "lng": 114.221425
          },
          "southwest": {
            "lat": 22.367131,
            "lng": 114.177721
          }
        }
      },
      "partial_match": true,
      "place_id": "ChIJE7LqOkkGBDQROkTLhUO0GXU",
      "types": [
        "neighborhood",
        "political"
      ]
    }
  ],
  "geocode_tc": [
    {
      "address_components": [
        {
          "long_name": "\u9999\u6e2f",
          "short_name": "HK",
          "types": [
            "country",
            "political"
          ]
        }
      ],
      "formatted_address": "\u9999\u6e2f\u767d\u9db4\u6c40\u8857",
      "geometry": {
        "location": {
          "lat": 22.3803772,
          "lng": 114.1884067
        },
        "location_type": "GEOMETRIC_CENTER",
        "viewport": {
          "northeast": {
            "lat": 22.3817261802915,
            "lng": 114.1897556802915
          },
          "southwest": {
            "lat": 22.37902821970849,
            "lng": 114.1870577197085
          }
        }
      },
      "partial_match": true,
      "place_id": "ChIJl_N39awHBDQRVRWMbD0yzE8",
      "plus_code": {
        "compound_code": "95JQ+59 \u9999\u6e2f",
        "global_code": "7PJP95JQ+59"
      },
      "types": [
        "establishment",
        "point_of_interest",
        "premise"
      ]
    },
    {
      "address_components": [
        {
          "long_name": "8",
          "short_name": "8",
          "types": [
            "street_number"
          ]
        },
        {
          "long_name": "\u767d\u9db4\u6c40\u8857",
          "short_name": "\u767d\u9db4\u6c40\u8857",
          "types": [
            "route"
          ]
        },
        {
          "long_name": "\u6c99\u7530",
          "short_name": "\u6c99\u7530",
          "types": [
            "neighborhood",
            "political"
          ]
        },
        {
          "long_name": "\u65b0\u754c",
          "short_name": "\u65b0\u754c",
          "types": [
            "administrative_area_level_1",
            "political"
          ]
        },
        {
          "long_name": "\u9999\u6e2f",
          "short_name": "HK",
          "types": [
            "country",
            "political"
          ]
        }
      ],
      "formatted_address": "\u9999\u6e2f\u6c99\u7530\u767d\u9db4\u6c40\u88578\u865f",
      "geometry": {
        "location": {
          "lat": 22.3798384,
          "lng": 114.1884927
        },
        "location_type": "ROOFTOP",
        "viewport": {
          "northeast": {
            "lat": 22.3811873802915,
            "lng": 114.1898416802915
          },
          "southwest": {
            "lat": 22.3784894197085,
            "lng": 114.1871437197085
          }
        }
      },
      "partial_match": true,
      "place_id": "ChIJyVDDWKwHBDQRerJTCLTw-Yo",
      "plus_code": {
        "compound_code": "95HQ+W9 \u9999\u6e2f\u6c99\u7530",
        "global_code": "7PJP95HQ+W9"
      },
      "types": [
        "bakery",
        "establishment",
        "food",
        "lodging",
        "point_of_interest",
        "restaurant",
        "store"
      ]
    }
  ],
  "licno": "2297801047",
  "timestamp": 1564975666,
  "version": "1564966095"
}
