{
  "adr_en": "\u91d1\u6708\u9910\u5ef3, SHOP NO. 2, G/F, DD 130, LOT 2762, LAM TEI SAN TSUEN, TUEN MUN, NEW TERRITORIES",
  "adr_tc": "\u65b0\u754c\u5c6f\u9580\u65b0\u90a8\u85cd\u5730\u4e08\u91cf\u7d04\u4efd\u7b2c2762\u7d04\u5730\u6bb5\u7b2c130\u865f\u5730\u4e0b 2\u865f\u92ea \u91d1\u6708\u9910\u5ef3",
  "geocode_en": [
    {
      "address_components": [
        {
          "long_name": "Lam Tei",
          "short_name": "Lam Tei",
          "types": [
            "neighborhood",
            "political"
          ]
        },
        {
          "long_name": "New Territories",
          "short_name": "New Territories",
          "types": [
            "administrative_area_level_1",
            "political"
          ]
        },
        {
          "long_name": "Hong Kong",
          "short_name": "HK",
          "types": [
            "country",
            "political"
          ]
        }
      ],
      "formatted_address": "Lam Tei, Hong Kong",
      "geometry": {
        "location": {
          "lat": 22.4186736,
          "lng": 113.9843445
        },
        "location_type": "GEOMETRIC_CENTER",
        "viewport": {
          "northeast": {
            "lat": 22.4200225802915,
            "lng": 113.9856934802915
          },
          "southwest": {
            "lat": 22.4173246197085,
            "lng": 113.9829955197085
          }
        }
      },
      "partial_match": true,
      "place_id": "ChIJBe4UJO_6AzQRZwnviyRsxA8",
      "plus_code": {
        "compound_code": "CX9M+FP Hong Kong",
        "global_code": "7PJMCX9M+FP"
      },
      "types": [
        "establishment",
        "food",
        "point_of_interest",
        "restaurant"
      ]
    },
    {
      "address_components": [
        {
          "long_name": "San Tsuen",
          "short_name": "San Tsuen",
          "types": [
            "neighborhood",
            "political"
          ]
        },
        {
          "long_name": "New Territories",
          "short_name": "New Territories",
          "types": [
            "administrative_area_level_1",
            "political"
          ]
        },
        {
          "long_name": "Hong Kong",
          "short_name": "HK",
          "types": [
            "country",
            "political"
          ]
        }
      ],
      "formatted_address": "San Tsuen, Hong Kong",
      "geometry": {
        "location": {
          "lat": 22.544489,
          "lng": 114.214791
        },
        "location_type": "APPROXIMATE",
        "viewport": {
          "northeast": {
            "lat": 22.5547939,
            "lng": 114.2307984
          },
          "southwest": {
            "lat": 22.5341833,
            "lng": 114.1987836
          }
        }
      },
      "partial_match": true,
      "place_id": "ChIJoWw506ELBDQRaLFYm1Jqm_I",
      "types": [
        "neighborhood",
        "political"
      ]
    }
  ],
  "geocode_tc": [
    {
      "address_components": [
        {
          "long_name": "\u9999\u6e2f",
          "short_name": "HK",
          "types": [
            "country",
            "political"
          ]
        }
      ],
      "formatted_address": "Lam Tei Tuen Mun, New Territories, \u9999\u6e2f",
      "geometry": {
        "location": {
          "lat": 22.418508,
          "lng": 113.983759
        },
        "location_type": "GEOMETRIC_CENTER",
        "viewport": {
          "northeast": {
            "lat": 22.4198569802915,
            "lng": 113.9851079802915
          },
          "southwest": {
            "lat": 22.4171590197085,
            "lng": 113.9824100197085
          }
        }
      },
      "partial_match": true,
      "place_id": "ChIJU-MHLu_6AzQRg7MMawQPp90",
      "plus_code": {
        "compound_code": "CX9M+CG \u9999\u6e2f",
        "global_code": "7PJMCX9M+CG"
      },
      "types": [
        "establishment",
        "point_of_interest"
      ]
    },
    {
      "address_components": [
        {
          "long_name": "\u85cd\u5730",
          "short_name": "\u85cd\u5730",
          "types": [
            "neighborhood",
            "political"
          ]
        },
        {
          "long_name": "\u65b0\u754c",
          "short_name": "\u65b0\u754c",
          "types": [
            "administrative_area_level_1",
            "political"
          ]
        },
        {
          "long_name": "\u9999\u6e2f",
          "short_name": "HK",
          "types": [
            "country",
            "political"
          ]
        }
      ],
      "formatted_address": "\u9999\u6e2f\u85cd\u5730",
      "geometry": {
        "location": {
          "lat": 22.4186736,
          "lng": 113.9843445
        },
        "location_type": "GEOMETRIC_CENTER",
        "viewport": {
          "northeast": {
            "lat": 22.4200225802915,
            "lng": 113.9856934802915
          },
          "southwest": {
            "lat": 22.4173246197085,
            "lng": 113.9829955197085
          }
        }
      },
      "partial_match": true,
      "place_id": "ChIJBe4UJO_6AzQRZwnviyRsxA8",
      "plus_code": {
        "compound_code": "CX9M+FP \u9999\u6e2f",
        "global_code": "7PJMCX9M+FP"
      },
      "types": [
        "establishment",
        "food",
        "point_of_interest",
        "restaurant"
      ]
    }
  ],
  "licno": "2293801146",
  "timestamp": 1564968756,
  "version": "1564966095"
}
