{
  "adr_en": "\u6843\u5712\u8336\u9910\u5ef3, G/F, 72 SHEUNG KENG HAU VILLAGE, AND THE OUTSIDE SEATING ACCOMMODATION , AT SHOP FRONT , LOT NO. 587, SHA TIN, NEW TERRITORIES",
  "adr_tc": "\u65b0\u754c\u6c99\u7530\u7b2c587\u865f\u5730\u6bb5\u4e0a\u5f91\u53e3\u675172\u865f\u5730\u4e0b\u53ca\u92ea\u4f4d\u524d\u7684\u5750\u4f4d \u6843\u5712\u8336\u9910\u5ef3",
  "geocode_en": [
    {
      "address_components": [
        {
          "long_name": "Taoyuan",
          "short_name": "Taoyuan",
          "types": [
            "colloquial_area",
            "locality",
            "political"
          ]
        },
        {
          "long_name": "Taoyuan District",
          "short_name": "Taoyuan District",
          "types": [
            "administrative_area_level_3",
            "political"
          ]
        },
        {
          "long_name": "Taoyuan City",
          "short_name": "Taoyuan City",
          "types": [
            "administrative_area_level_1",
            "political"
          ]
        },
        {
          "long_name": "Taiwan",
          "short_name": "TW",
          "types": [
            "country",
            "political"
          ]
        }
      ],
      "formatted_address": "Taoyuan, Taoyuan District, Taoyuan City, Taiwan",
      "geometry": {
        "bounds": {
          "northeast": {
            "lat": 25.1183727,
            "lng": 121.400057
          },
          "southwest": {
            "lat": 24.8302295,
            "lng": 121.0214127
          }
        },
        "location": {
          "lat": 24.9553806,
          "lng": 121.2300015
        },
        "location_type": "APPROXIMATE",
        "viewport": {
          "northeast": {
            "lat": 25.1183727,
            "lng": 121.400057
          },
          "southwest": {
            "lat": 24.8302295,
            "lng": 121.0214127
          }
        }
      },
      "partial_match": true,
      "place_id": "ChIJs21AiKwfaDQRHfjto-5qm_U",
      "types": [
        "colloquial_area",
        "locality",
        "political"
      ]
    },
    {
      "address_components": [
        {
          "long_name": "Sheung Keng Hau",
          "short_name": "Sheung Keng Hau",
          "types": [
            "neighborhood",
            "political"
          ]
        },
        {
          "long_name": "New Territories",
          "short_name": "New Territories",
          "types": [
            "administrative_area_level_1",
            "political"
          ]
        },
        {
          "long_name": "Hong Kong",
          "short_name": "HK",
          "types": [
            "country",
            "political"
          ]
        }
      ],
      "formatted_address": "Sheung Keng Hau, Hong Kong",
      "geometry": {
        "location": {
          "lat": 22.363936,
          "lng": 114.174372
        },
        "location_type": "APPROXIMATE",
        "viewport": {
          "northeast": {
            "lat": 22.3742544,
            "lng": 114.1903794
          },
          "southwest": {
            "lat": 22.3536169,
            "lng": 114.1583646
          }
        }
      },
      "partial_match": true,
      "place_id": "ChIJofo2_REHBDQRxlSyUPYrTNs",
      "types": [
        "neighborhood",
        "political"
      ]
    },
    {
      "address_components": [
        {
          "long_name": "Sha Tin",
          "short_name": "Sha Tin",
          "types": [
            "neighborhood",
            "political"
          ]
        },
        {
          "long_name": "New Territories",
          "short_name": "New Territories",
          "types": [
            "administrative_area_level_1",
            "political"
          ]
        },
        {
          "long_name": "Hong Kong",
          "short_name": "HK",
          "types": [
            "country",
            "political"
          ]
        }
      ],
      "formatted_address": "Sha Tin, Hong Kong",
      "geometry": {
        "bounds": {
          "northeast": {
            "lat": 22.410345,
            "lng": 114.221425
          },
          "southwest": {
            "lat": 22.367131,
            "lng": 114.177721
          }
        },
        "location": {
          "lat": 22.3771304,
          "lng": 114.1974398
        },
        "location_type": "APPROXIMATE",
        "viewport": {
          "northeast": {
            "lat": 22.410345,
            "lng": 114.221425
          },
          "southwest": {
            "lat": 22.367131,
            "lng": 114.177721
          }
        }
      },
      "partial_match": true,
      "place_id": "ChIJE7LqOkkGBDQROkTLhUO0GXU",
      "types": [
        "neighborhood",
        "political"
      ]
    }
  ],
  "geocode_tc": [
    {
      "address_components": [
        {
          "long_name": "\u4e0a\u5f91\u53e3\u6751",
          "short_name": "\u4e0a\u5f91\u53e3\u6751",
          "types": [
            "establishment",
            "point_of_interest",
            "transit_station"
          ]
        },
        {
          "long_name": "\u5927\u570d",
          "short_name": "\u5927\u570d",
          "types": [
            "neighborhood",
            "political"
          ]
        },
        {
          "long_name": "\u65b0\u754c",
          "short_name": "\u65b0\u754c",
          "types": [
            "administrative_area_level_1",
            "political"
          ]
        },
        {
          "long_name": "\u9999\u6e2f",
          "short_name": "HK",
          "types": [
            "country",
            "political"
          ]
        }
      ],
      "formatted_address": "\u9999\u6e2f\u5927\u570d\u4e0a\u5f91\u53e3\u6751",
      "geometry": {
        "location": {
          "lat": 22.363281,
          "lng": 114.173636
        },
        "location_type": "GEOMETRIC_CENTER",
        "viewport": {
          "northeast": {
            "lat": 22.3646299802915,
            "lng": 114.1749849802915
          },
          "southwest": {
            "lat": 22.3619320197085,
            "lng": 114.1722870197085
          }
        }
      },
      "place_id": "ChIJ8al4HRIHBDQRVlvtkkGLiPg",
      "plus_code": {
        "compound_code": "957F+8F \u9999\u6e2f",
        "global_code": "7PJP957F+8F"
      },
      "types": [
        "establishment",
        "point_of_interest",
        "transit_station"
      ]
    }
  ],
  "licno": "2297802633",
  "timestamp": 1564975666,
  "version": "1564966095"
}
