{
  "adr_en": "Robatayaki, SHOP G1 & G2, G/F, 22 TAK FUNG STREET, HUNG HOM, KOWLOON CITY, KOWLOON",
  "adr_tc": "\u4e5d\u9f8d\u7d05\u78e1\u5fb7\u8c50\u885722\u865f\u5730\u4e0bG1\u53caG2\u865f\u8216 Robatayaki",
  "geocode_en": [
    {
      "address_components": [
        {
          "long_name": "20",
          "short_name": "20",
          "types": [
            "street_number"
          ]
        },
        {
          "long_name": "Tak Fung Street",
          "short_name": "Tak Fung St",
          "types": [
            "route"
          ]
        },
        {
          "long_name": "Hung Hom",
          "short_name": "Hung Hom",
          "types": [
            "neighborhood",
            "political"
          ]
        },
        {
          "long_name": "Kowloon",
          "short_name": "Kowloon",
          "types": [
            "administrative_area_level_1",
            "political"
          ]
        },
        {
          "long_name": "Hong Kong",
          "short_name": "HK",
          "types": [
            "country",
            "political"
          ]
        }
      ],
      "formatted_address": "20 Tak Fung St, Hung Hom, Hong Kong",
      "geometry": {
        "location": {
          "lat": 22.302799,
          "lng": 114.1923036
        },
        "location_type": "ROOFTOP",
        "viewport": {
          "northeast": {
            "lat": 22.3041479802915,
            "lng": 114.1936525802915
          },
          "southwest": {
            "lat": 22.3014500197085,
            "lng": 114.1909546197085
          }
        }
      },
      "partial_match": true,
      "place_id": "ChIJEVj70x8BBDQRWBfk-umlCOE",
      "plus_code": {
        "compound_code": "853R+4W Hong Kong",
        "global_code": "7PJP853R+4W"
      },
      "types": [
        "establishment",
        "food",
        "point_of_interest",
        "restaurant"
      ]
    },
    {
      "address_components": [
        {
          "long_name": "G",
          "short_name": "G",
          "types": [
            "subpremise"
          ]
        },
        {
          "long_name": "Two Harbourfront",
          "short_name": "Two Harbourfront",
          "types": [
            "premise"
          ]
        },
        {
          "long_name": "22",
          "short_name": "22",
          "types": [
            "street_number"
          ]
        },
        {
          "long_name": "Tak Fung Street",
          "short_name": "Tak Fung St",
          "types": [
            "route"
          ]
        },
        {
          "long_name": "Hung Hom",
          "short_name": "Hung Hom",
          "types": [
            "neighborhood",
            "political"
          ]
        },
        {
          "long_name": "Kowloon",
          "short_name": "Kowloon",
          "types": [
            "administrative_area_level_1",
            "political"
          ]
        },
        {
          "long_name": "Hong Kong",
          "short_name": "HK",
          "types": [
            "country",
            "political"
          ]
        }
      ],
      "formatted_address": "G, Two Harbourfront, 22 Tak Fung St, Hung Hom, Hong Kong",
      "geometry": {
        "bounds": {
          "northeast": {
            "lat": 22.303248,
            "lng": 114.192249
          },
          "southwest": {
            "lat": 22.302614,
            "lng": 114.191738
          }
        },
        "location": {
          "lat": 22.30293,
          "lng": 114.1919596
        },
        "location_type": "ROOFTOP",
        "viewport": {
          "northeast": {
            "lat": 22.3042799802915,
            "lng": 114.1933424802915
          },
          "southwest": {
            "lat": 22.3015820197085,
            "lng": 114.1906445197085
          }
        }
      },
      "partial_match": true,
      "place_id": "EjhHLCBUd28gSGFyYm91cmZyb250LCAyMiBUYWsgRnVuZyBTdCwgSHVuZyBIb20sIEhvbmcgS29uZyIdGhsKFgoUChIJsQvH0x8BBDQR5EIzPlr3KIASAUc",
      "types": [
        "subpremise"
      ]
    },
    {
      "address_components": [
        {
          "long_name": "F",
          "short_name": "F",
          "types": [
            "subpremise"
          ]
        },
        {
          "long_name": "Two Harbourfront",
          "short_name": "Two Harbourfront",
          "types": [
            "premise"
          ]
        },
        {
          "long_name": "22",
          "short_name": "22",
          "types": [
            "street_number"
          ]
        },
        {
          "long_name": "Tak Fung Street",
          "short_name": "Tak Fung St",
          "types": [
            "route"
          ]
        },
        {
          "long_name": "Hung Hom",
          "short_name": "Hung Hom",
          "types": [
            "neighborhood",
            "political"
          ]
        },
        {
          "long_name": "Kowloon",
          "short_name": "Kowloon",
          "types": [
            "administrative_area_level_1",
            "political"
          ]
        },
        {
          "long_name": "Hong Kong",
          "short_name": "HK",
          "types": [
            "country",
            "political"
          ]
        }
      ],
      "formatted_address": "F, Two Harbourfront, 22 Tak Fung St, Hung Hom, Hong Kong",
      "geometry": {
        "bounds": {
          "northeast": {
            "lat": 22.303248,
            "lng": 114.192249
          },
          "southwest": {
            "lat": 22.302614,
            "lng": 114.191738
          }
        },
        "location": {
          "lat": 22.30293,
          "lng": 114.1919596
        },
        "location_type": "ROOFTOP",
        "viewport": {
          "northeast": {
            "lat": 22.3042799802915,
            "lng": 114.1933424802915
          },
          "southwest": {
            "lat": 22.3015820197085,
            "lng": 114.1906445197085
          }
        }
      },
      "partial_match": true,
      "place_id": "EjhGLCBUd28gSGFyYm91cmZyb250LCAyMiBUYWsgRnVuZyBTdCwgSHVuZyBIb20sIEhvbmcgS29uZyIdGhsKFgoUChIJsQvH0x8BBDQR5EIzPlr3KIASAUY",
      "types": [
        "subpremise"
      ]
    }
  ],
  "geocode_tc": [
    {
      "address_components": [
        {
          "long_name": "\u5730\u4e0bG1\u53caG2",
          "short_name": "\u5730\u4e0bG1\u53caG2",
          "types": [
            "subpremise"
          ]
        },
        {
          "long_name": "\u6d77\u6ff1\u5ee3\u5834\u4e8c\u5ea7",
          "short_name": "\u6d77\u6ff1\u5ee3\u5834\u4e8c\u5ea7",
          "types": [
            "premise"
          ]
        },
        {
          "long_name": "22",
          "short_name": "22",
          "types": [
            "street_number"
          ]
        },
        {
          "long_name": "\u5fb7\u8c50\u8857",
          "short_name": "\u5fb7\u8c50\u8857",
          "types": [
            "route"
          ]
        },
        {
          "long_name": "\u7d05\u78e1",
          "short_name": "\u7d05\u78e1",
          "types": [
            "neighborhood",
            "political"
          ]
        },
        {
          "long_name": "\u4e5d\u9f8d",
          "short_name": "\u4e5d\u9f8d",
          "types": [
            "administrative_area_level_1",
            "political"
          ]
        },
        {
          "long_name": "\u9999\u6e2f",
          "short_name": "HK",
          "types": [
            "country",
            "political"
          ]
        }
      ],
      "formatted_address": "\u9999\u6e2f\u7d05\u78e1\u5fb7\u8c50\u885722\u865f\u6d77\u6ff1\u5ee3\u5834\u4e8c\u5ea7\u5730\u4e0bG1\u53caG2",
      "geometry": {
        "bounds": {
          "northeast": {
            "lat": 22.303248,
            "lng": 114.192249
          },
          "southwest": {
            "lat": 22.302614,
            "lng": 114.191738
          }
        },
        "location": {
          "lat": 22.30293,
          "lng": 114.1919596
        },
        "location_type": "ROOFTOP",
        "viewport": {
          "northeast": {
            "lat": 22.3042799802915,
            "lng": 114.1933424802915
          },
          "southwest": {
            "lat": 22.3015820197085,
            "lng": 114.1906445197085
          }
        }
      },
      "partial_match": true,
      "place_id": "EkTlnLDkuItHMeWPikcyLCBUd28gSGFyYm91cmZyb250LCAyMiBUYWsgRnVuZyBTdCwgSHVuZyBIb20sIEhvbmcgS29uZyIpGicKFgoUChIJsQvH0x8BBDQR5EIzPlr3KIASDeWcsOS4i0cx5Y-KRzI",
      "types": [
        "subpremise"
      ]
    },
    {
      "address_components": [
        {
          "long_name": "20",
          "short_name": "20",
          "types": [
            "street_number"
          ]
        },
        {
          "long_name": "\u5fb7\u8c50\u8857",
          "short_name": "\u5fb7\u8c50\u8857",
          "types": [
            "route"
          ]
        },
        {
          "long_name": "\u7d05\u78e1",
          "short_name": "\u7d05\u78e1",
          "types": [
            "neighborhood",
            "political"
          ]
        },
        {
          "long_name": "\u4e5d\u9f8d",
          "short_name": "\u4e5d\u9f8d",
          "types": [
            "administrative_area_level_1",
            "political"
          ]
        },
        {
          "long_name": "\u9999\u6e2f",
          "short_name": "HK",
          "types": [
            "country",
            "political"
          ]
        }
      ],
      "formatted_address": "\u9999\u6e2f\u7d05\u78e1\u5fb7\u8c50\u885720\u865f",
      "geometry": {
        "location": {
          "lat": 22.302799,
          "lng": 114.1923036
        },
        "location_type": "ROOFTOP",
        "viewport": {
          "northeast": {
            "lat": 22.3041479802915,
            "lng": 114.1936525802915
          },
          "southwest": {
            "lat": 22.3014500197085,
            "lng": 114.1909546197085
          }
        }
      },
      "partial_match": true,
      "place_id": "ChIJEVj70x8BBDQRWBfk-umlCOE",
      "plus_code": {
        "compound_code": "853R+4W \u9999\u6e2f",
        "global_code": "7PJP853R+4W"
      },
      "types": [
        "establishment",
        "food",
        "point_of_interest",
        "restaurant"
      ]
    }
  ],
  "licno": "2252193237",
  "timestamp": 1564968756,
  "version": "1564966095"
}
