{
  "adr_en": "\u7fe0\u82d1\u725b\u96dc\u7c89\u9eb5\u5c08\u5bb6, SHOP NO. 4, G/F, CHEONG FAT BUILDING, 21 KWONG FAI CIRCUIT, KWAI CHUNG, NEW TERRITORIES",
  "adr_tc": "\u65b0\u754c\u8475\u6d8c \u5149\u8f1d\u570d21\u865f \u660c\u767c\u5927\u5ec8\u5730\u4e0b4\u865f\u92ea \u7fe0\u82d1\u725b\u96dc\u7c89\u9eb5\u5c08\u5bb6",
  "geocode_en": [
    {
      "address_components": [
        {
          "long_name": "Hong Kong",
          "short_name": "HK",
          "types": [
            "country",
            "political"
          ]
        }
      ],
      "formatted_address": "Shop No. 4, G/F, Cheong Fat Building, 21 Kwong Fai Circuit, Kwai Chung, New Territories, Hong Kong",
      "geometry": {
        "location": {
          "lat": 22.3677916,
          "lng": 114.1326338
        },
        "location_type": "GEOMETRIC_CENTER",
        "viewport": {
          "northeast": {
            "lat": 22.3691405802915,
            "lng": 114.1339827802915
          },
          "southwest": {
            "lat": 22.3664426197085,
            "lng": 114.1312848197085
          }
        }
      },
      "place_id": "ChIJS-h2h5r4AzQRDSLYVHXMGlc",
      "plus_code": {
        "compound_code": "949M+43 Hong Kong",
        "global_code": "7PJP949M+43"
      },
      "types": [
        "establishment",
        "food",
        "point_of_interest",
        "restaurant"
      ]
    }
  ],
  "geocode_tc": [
    {
      "address_components": [
        {
          "long_name": "\u865f\u92ea",
          "short_name": "\u865f\u92ea",
          "types": [
            "subpremise"
          ]
        },
        {
          "long_name": "\u660c\u767c\u6a13",
          "short_name": "\u660c\u767c\u6a13",
          "types": [
            "premise"
          ]
        },
        {
          "long_name": "21",
          "short_name": "21",
          "types": [
            "street_number"
          ]
        },
        {
          "long_name": "\u5149\u8f1d\u570d",
          "short_name": "\u5149\u8f1d\u570d",
          "types": [
            "route"
          ]
        },
        {
          "long_name": "\u8475\u6d8c",
          "short_name": "\u8475\u6d8c",
          "types": [
            "neighborhood",
            "political"
          ]
        },
        {
          "long_name": "\u65b0\u754c",
          "short_name": "\u65b0\u754c",
          "types": [
            "administrative_area_level_1",
            "political"
          ]
        },
        {
          "long_name": "\u9999\u6e2f",
          "short_name": "HK",
          "types": [
            "country",
            "political"
          ]
        }
      ],
      "formatted_address": "\u9999\u6e2f\u8475\u6d8c\u5149\u8f1d\u570d21\u865f\u660c\u767c\u6a13\u865f\u92ea",
      "geometry": {
        "bounds": {
          "northeast": {
            "lat": 22.368067,
            "lng": 114.13272
          },
          "southwest": {
            "lat": 22.367732,
            "lng": 114.132441
          }
        },
        "location": {
          "lat": 22.3678884,
          "lng": 114.1325556
        },
        "location_type": "ROOFTOP",
        "viewport": {
          "northeast": {
            "lat": 22.3692484802915,
            "lng": 114.1339294802915
          },
          "southwest": {
            "lat": 22.3665505197085,
            "lng": 114.1312315197085
          }
        }
      },
      "partial_match": true,
      "place_id": "EkjomZ_pi6osIENoZW9uZyBGYXQgQnVpbGRpbmcsIDIxIEt3b25nIEZhaSBDaXJjdWl0LCBLd2FpIENodW5nLCBIb25nIEtvbmciIhogChYKFAoSCU3Jdoea-AM0EZjGWuhvGEKEEgbomZ_pi6o",
      "types": [
        "subpremise"
      ]
    }
  ],
  "licno": "3191000774",
  "timestamp": 1564975666,
  "version": "1564966095"
}
