{
  "adr_en": "Forbes Thirty Six, SHOP A, B & F, G/F., LUEN HING APARTMENTS, 36 FORBES STREET, KENNEDY TOWN, HONG KONG",
  "adr_tc": "\u9999\u6e2f\u5805\u5c3c\u5730\u57ce\u79d1\u58eb\u8857 36 \u865f\u806f\u8208\u65b0\u6a13\u5730\u4e0b A, B\u53caF\u8216 ---",
  "geocode_en": [
    {
      "address_components": [
        {
          "long_name": "36",
          "short_name": "36",
          "types": [
            "street_number"
          ]
        },
        {
          "long_name": "Forbes Street",
          "short_name": "Forbes St",
          "types": [
            "route"
          ]
        },
        {
          "long_name": "Sai Wan",
          "short_name": "Sai Wan",
          "types": [
            "neighborhood",
            "political"
          ]
        },
        {
          "long_name": "Hong Kong Island",
          "short_name": "Hong Kong Island",
          "types": [
            "administrative_area_level_1",
            "political"
          ]
        },
        {
          "long_name": "Hong Kong",
          "short_name": "HK",
          "types": [
            "country",
            "political"
          ]
        }
      ],
      "formatted_address": "36 Forbes St, Sai Wan, Hong Kong",
      "geometry": {
        "location": {
          "lat": 22.281505,
          "lng": 114.127722
        },
        "location_type": "ROOFTOP",
        "viewport": {
          "northeast": {
            "lat": 22.2828539802915,
            "lng": 114.1290709802915
          },
          "southwest": {
            "lat": 22.2801560197085,
            "lng": 114.1263730197085
          }
        }
      },
      "place_id": "ChIJq-96mpD_AzQRuA1mBUgZeBI",
      "plus_code": {
        "compound_code": "74JH+J3 Hong Kong",
        "global_code": "7PJP74JH+J3"
      },
      "types": [
        "bar",
        "establishment",
        "point_of_interest"
      ]
    }
  ],
  "geocode_tc": [
    {
      "address_components": [
        {
          "long_name": "36",
          "short_name": "36",
          "types": [
            "street_number"
          ]
        },
        {
          "long_name": "\u79d1\u58eb\u8857",
          "short_name": "\u79d1\u58eb\u8857",
          "types": [
            "route"
          ]
        },
        {
          "long_name": "\u5805\u5c3c\u5730\u57ce",
          "short_name": "\u5805\u5c3c\u5730\u57ce",
          "types": [
            "neighborhood",
            "political"
          ]
        },
        {
          "long_name": "\u9999\u6e2f\u5cf6",
          "short_name": "\u9999\u6e2f\u5cf6",
          "types": [
            "administrative_area_level_1",
            "political"
          ]
        },
        {
          "long_name": "\u9999\u6e2f",
          "short_name": "HK",
          "types": [
            "country",
            "political"
          ]
        }
      ],
      "formatted_address": "\u9999\u6e2f\u5805\u5c3c\u5730\u57ce\u79d1\u58eb\u885736\u865f",
      "geometry": {
        "bounds": {
          "northeast": {
            "lat": 22.2816768,
            "lng": 114.1279712
          },
          "southwest": {
            "lat": 22.2814176,
            "lng": 114.1277228
          }
        },
        "location": {
          "lat": 22.2815906,
          "lng": 114.1278529
        },
        "location_type": "ROOFTOP",
        "viewport": {
          "northeast": {
            "lat": 22.2828961802915,
            "lng": 114.1291959802915
          },
          "southwest": {
            "lat": 22.2801982197085,
            "lng": 114.1264980197085
          }
        }
      },
      "partial_match": true,
      "place_id": "ChIJ0d9CmZD_AzQRbpqrGyB5CR0",
      "types": [
        "establishment",
        "premise"
      ]
    }
  ],
  "licno": "2218807871",
  "timestamp": 1564968756,
  "version": "1564966095"
}
