{
  "adr_en": "SU KOREAN RESTAURANT, SHOP UG04, UPPER GROUND FLOOR, ENERGY PLAZA, 92 GRANVILLE ROAD, TSIM SHA TSUI, KOWLOON",
  "adr_tc": "\u4e5d\u9f8d\u5c16\u6c99\u5480\u52a0\u9023\u5a01\u8001\u905392\u865f\u5e78\u798f\u4e2d\u5fc3\u9ad8\u5c64\u5730\u4e0bUG04\u8216 \u79c0",
  "geocode_en": [
    {
      "address_components": [
        {
          "long_name": "Hong Kong",
          "short_name": "HK",
          "types": [
            "country",
            "political"
          ]
        }
      ],
      "formatted_address": "Hong Kong, Tsim Sha Tsui \u52a0\u9023\u5a01\u8001\u905392\u865f\u5e78\u798f\u4e2d\u5fc3UG04\u865f\u8216",
      "geometry": {
        "location": {
          "lat": 22.2999261,
          "lng": 114.1767262
        },
        "location_type": "GEOMETRIC_CENTER",
        "viewport": {
          "northeast": {
            "lat": 22.3012750802915,
            "lng": 114.1780751802915
          },
          "southwest": {
            "lat": 22.2985771197085,
            "lng": 114.1753772197085
          }
        }
      },
      "partial_match": true,
      "place_id": "ChIJQ3xhAu8ABDQREujE68TN59Y",
      "plus_code": {
        "compound_code": "75XG+XM Hong Kong",
        "global_code": "7PJP75XG+XM"
      },
      "types": [
        "establishment",
        "food",
        "point_of_interest",
        "restaurant"
      ]
    },
    {
      "address_components": [
        {
          "long_name": "Energy Plaza",
          "short_name": "Energy Plaza",
          "types": [
            "premise"
          ]
        },
        {
          "long_name": "92",
          "short_name": "92",
          "types": [
            "street_number"
          ]
        },
        {
          "long_name": "Granville Road",
          "short_name": "Granville Rd",
          "types": [
            "route"
          ]
        },
        {
          "long_name": "Tsim Sha Tsui East",
          "short_name": "Tsim Sha Tsui East",
          "types": [
            "neighborhood",
            "political"
          ]
        },
        {
          "long_name": "Kowloon",
          "short_name": "Kowloon",
          "types": [
            "administrative_area_level_1",
            "political"
          ]
        },
        {
          "long_name": "Hong Kong",
          "short_name": "HK",
          "types": [
            "country",
            "political"
          ]
        }
      ],
      "formatted_address": "Energy Plaza, 92 Granville Rd, Tsim Sha Tsui East, Hong Kong",
      "geometry": {
        "bounds": {
          "northeast": {
            "lat": 22.3002771,
            "lng": 114.176996
          },
          "southwest": {
            "lat": 22.299724,
            "lng": 114.1764049
          }
        },
        "location": {
          "lat": 22.2999261,
          "lng": 114.1767262
        },
        "location_type": "ROOFTOP",
        "viewport": {
          "northeast": {
            "lat": 22.3013495302915,
            "lng": 114.1780494302915
          },
          "southwest": {
            "lat": 22.2986515697085,
            "lng": 114.1753514697085
          }
        }
      },
      "partial_match": true,
      "place_id": "ChIJu-djAu8ABDQRihCk9bsNRKA",
      "types": [
        "premise"
      ]
    }
  ],
  "geocode_tc": [
    {
      "address_components": [
        {
          "long_name": "\u9999\u6e2f",
          "short_name": "HK",
          "types": [
            "country",
            "political"
          ]
        }
      ],
      "formatted_address": "\u9999\u6e2f\u5c16\u6c99\u5480 \u52a0\u9023\u5a01\u8001\u905392\u865f\u5e78\u798f\u4e2d\u5fc3UG04\u865f\u8216",
      "geometry": {
        "location": {
          "lat": 22.3001987,
          "lng": 114.176685
        },
        "location_type": "GEOMETRIC_CENTER",
        "viewport": {
          "northeast": {
            "lat": 22.3015476802915,
            "lng": 114.1780339802915
          },
          "southwest": {
            "lat": 22.2988497197085,
            "lng": 114.1753360197085
          }
        }
      },
      "place_id": "ChIJQ3xhAu8ABDQRIYYKlbXLX-4",
      "plus_code": {
        "compound_code": "852G+3M \u9999\u6e2f",
        "global_code": "7PJP852G+3M"
      },
      "types": [
        "establishment",
        "food",
        "point_of_interest",
        "restaurant"
      ]
    }
  ],
  "licno": "2261810497",
  "timestamp": 1564968756,
  "version": "1564966095"
}
