{
  "adr_en": "\u5ddd\u4f73\u5473, SHOP 6, G/F, CHEONG HUNG MANSION, 2-14 MEI FONG STREET, KWAI CHUNG, NEW TERRITORIES",
  "adr_tc": "\u65b0\u754c\u8475\u6d8c\u7f8e\u82b3\u88572-14\u865f\u660c\u9d3b\u5927\u5ec8\u5730\u4e0b6\u865f\u92ea \u5ddd\u4f73\u5473",
  "geocode_en": [
    {
      "address_components": [
        {
          "long_name": "\u5ddd\u4f73\u5473, SHOP",
          "short_name": "\u5ddd\u4f73\u5473, SHOP",
          "types": [
            "subpremise"
          ]
        },
        {
          "long_name": "Cheong Hung Mansion",
          "short_name": "Cheong Hung Mansion",
          "types": [
            "premise"
          ]
        },
        {
          "long_name": "2",
          "short_name": "2",
          "types": [
            "street_number"
          ]
        },
        {
          "long_name": "Mei Fong Street",
          "short_name": "Mei Fong St",
          "types": [
            "route"
          ]
        },
        {
          "long_name": "Kwai Chung",
          "short_name": "Kwai Chung",
          "types": [
            "neighborhood",
            "political"
          ]
        },
        {
          "long_name": "New Territories",
          "short_name": "New Territories",
          "types": [
            "administrative_area_level_1",
            "political"
          ]
        },
        {
          "long_name": "Hong Kong",
          "short_name": "HK",
          "types": [
            "country",
            "political"
          ]
        }
      ],
      "formatted_address": "\u5ddd\u4f73\u5473, SHOP, Cheong Hung Mansion, 2 Mei Fong St, Kwai Chung, Hong Kong",
      "geometry": {
        "bounds": {
          "northeast": {
            "lat": 22.36019,
            "lng": 114.126782
          },
          "southwest": {
            "lat": 22.3598431,
            "lng": 114.126416
          }
        },
        "location": {
          "lat": 22.3600166,
          "lng": 114.1266101
        },
        "location_type": "ROOFTOP",
        "viewport": {
          "northeast": {
            "lat": 22.3613655302915,
            "lng": 114.1279479802915
          },
          "southwest": {
            "lat": 22.3586675697085,
            "lng": 114.1252500197085
          }
        }
      },
      "partial_match": true,
      "place_id": "Ekrlt53kvbPlkbMsIFNIT1AsIENoZW9uZyBIdW5nIE1hbnNpb24sIDIgTWVpIEZvbmcgU3QsIEt3YWkgQ2h1bmcsIEhvbmcgS29uZyIrGikKFgoUChIJsSnF-734AzQR-rbyaFdWNxUSD-W3neS9s-WRsywgU0hPUA",
      "types": [
        "subpremise"
      ]
    },
    {
      "address_components": [
        {
          "long_name": "Cheong Hung Mansion",
          "short_name": "Cheong Hung Mansion",
          "types": [
            "premise"
          ]
        },
        {
          "long_name": "2",
          "short_name": "2",
          "types": [
            "street_number"
          ]
        },
        {
          "long_name": "Mei Fong Street",
          "short_name": "Mei Fong St",
          "types": [
            "route"
          ]
        },
        {
          "long_name": "Kwai Chung",
          "short_name": "Kwai Chung",
          "types": [
            "neighborhood",
            "political"
          ]
        },
        {
          "long_name": "New Territories",
          "short_name": "New Territories",
          "types": [
            "administrative_area_level_1",
            "political"
          ]
        },
        {
          "long_name": "Hong Kong",
          "short_name": "HK",
          "types": [
            "country",
            "political"
          ]
        }
      ],
      "formatted_address": "Cheong Hung Mansion, 2 Mei Fong St, Kwai Chung, Hong Kong",
      "geometry": {
        "bounds": {
          "northeast": {
            "lat": 22.36019,
            "lng": 114.126782
          },
          "southwest": {
            "lat": 22.3598431,
            "lng": 114.126416
          }
        },
        "location": {
          "lat": 22.3600166,
          "lng": 114.1266101
        },
        "location_type": "ROOFTOP",
        "viewport": {
          "northeast": {
            "lat": 22.3613655302915,
            "lng": 114.1279479802915
          },
          "southwest": {
            "lat": 22.3586675697085,
            "lng": 114.1252500197085
          }
        }
      },
      "partial_match": true,
      "place_id": "ChIJsSnF-734AzQR-rbyaFdWNxU",
      "types": [
        "premise"
      ]
    }
  ],
  "geocode_tc": [
    {
      "address_components": [
        {
          "long_name": "\u660c\u9d3b\u5927\u5ec8",
          "short_name": "\u660c\u9d3b\u5927\u5ec8",
          "types": [
            "premise"
          ]
        },
        {
          "long_name": "2\u865f",
          "short_name": "2\u865f",
          "types": [
            "street_number"
          ]
        },
        {
          "long_name": "\u7f8e\u82b3\u8857",
          "short_name": "\u7f8e\u82b3\u8857",
          "types": [
            "route"
          ]
        },
        {
          "long_name": "\u8475\u6d8c",
          "short_name": "\u8475\u6d8c",
          "types": [
            "neighborhood",
            "political"
          ]
        },
        {
          "long_name": "\u9999\u6e2f",
          "short_name": "HK",
          "types": [
            "country",
            "political"
          ]
        }
      ],
      "formatted_address": "\u9999\u6e2f\u8475\u6d8c\u7f8e\u82b3\u88572\u865f\u660c\u9d3b\u5927\u5ec8\u5730\u4e0b6\u865f\u92ea",
      "geometry": {
        "location": {
          "lat": 22.3600166,
          "lng": 114.1266101
        },
        "location_type": "ROOFTOP",
        "viewport": {
          "northeast": {
            "lat": 22.3613655802915,
            "lng": 114.1279590802915
          },
          "southwest": {
            "lat": 22.35866761970849,
            "lng": 114.1252611197085
          }
        }
      },
      "place_id": "ChIJRdWZbtz5AzQRdBrWCpn4qUY",
      "plus_code": {
        "compound_code": "946G+2J \u9999\u6e2f",
        "global_code": "7PJP946G+2J"
      },
      "types": [
        "establishment",
        "food",
        "point_of_interest",
        "restaurant"
      ]
    }
  ],
  "licno": "3191801478",
  "timestamp": 1564975666,
  "version": "1564966095"
}
