{
  "adr_en": "CAFE LIFE, SHOP B & C, G/F., TERN CENTRE, TOWER 2, 251 QUEEN'S ROAD CENTRAL, SHEUNG WAN, HONG KONG",
  "adr_tc": "\u9999\u6e2f\u4e0a\u74b0\u7687\u540e\u5927\u9053\u4e2d251\u865f\u592a\u8208\u4e2d\u5fc32\u5ea7\u5730\u4e0bB\u53caC\u92ea CAFE LIFE",
  "geocode_en": [
    {
      "address_components": [
        {
          "long_name": "251",
          "short_name": "251",
          "types": [
            "street_number"
          ]
        },
        {
          "long_name": "Queen's Road Central",
          "short_name": "Queen's Road Central",
          "types": [
            "route"
          ]
        },
        {
          "long_name": "Sheung Wan",
          "short_name": "Sheung Wan",
          "types": [
            "neighborhood",
            "political"
          ]
        },
        {
          "long_name": "Hong Kong",
          "short_name": "HK",
          "types": [
            "country",
            "political"
          ]
        }
      ],
      "formatted_address": "Hong Kong, Sheung Wan, Queen's Road Central, 251\u865fShop B&C, , G/F, Tower II Tem Centre",
      "geometry": {
        "location": {
          "lat": 22.2845677,
          "lng": 114.1513503
        },
        "location_type": "ROOFTOP",
        "viewport": {
          "northeast": {
            "lat": 22.2859166802915,
            "lng": 114.1526992802915
          },
          "southwest": {
            "lat": 22.2832187197085,
            "lng": 114.1500013197085
          }
        }
      },
      "place_id": "ChIJf2xKDXwABDQRZQWkTeN6dhE",
      "plus_code": {
        "compound_code": "75M2+RG Hong Kong",
        "global_code": "7PJP75M2+RG"
      },
      "types": [
        "cafe",
        "establishment",
        "food",
        "point_of_interest"
      ]
    }
  ],
  "geocode_tc": [
    {
      "address_components": [
        {
          "long_name": "251",
          "short_name": "251",
          "types": [
            "street_number"
          ]
        },
        {
          "long_name": "\u7687\u540e\u5927\u9053\u4e2d",
          "short_name": "\u7687\u540e\u5927\u9053\u4e2d",
          "types": [
            "route"
          ]
        },
        {
          "long_name": "\u4e0a\u74b0",
          "short_name": "\u4e0a\u74b0",
          "types": [
            "neighborhood",
            "political"
          ]
        },
        {
          "long_name": "\u9999\u6e2f",
          "short_name": "HK",
          "types": [
            "country",
            "political"
          ]
        }
      ],
      "formatted_address": "\u9999\u6e2f\u4e0a\u74b0\u7687\u540e\u5927\u9053\u4e2d251\u865fShop B&C, , G/F, Tower II Tem Centre",
      "geometry": {
        "location": {
          "lat": 22.2845677,
          "lng": 114.1513503
        },
        "location_type": "ROOFTOP",
        "viewport": {
          "northeast": {
            "lat": 22.2859166802915,
            "lng": 114.1526992802915
          },
          "southwest": {
            "lat": 22.2832187197085,
            "lng": 114.1500013197085
          }
        }
      },
      "place_id": "ChIJf2xKDXwABDQRZQWkTeN6dhE",
      "plus_code": {
        "compound_code": "75M2+RG \u9999\u6e2f",
        "global_code": "7PJP75M2+RG"
      },
      "types": [
        "cafe",
        "establishment",
        "food",
        "point_of_interest"
      ]
    },
    {
      "address_components": [
        {
          "long_name": "\u9999\u6e2f",
          "short_name": "HK",
          "types": [
            "country",
            "political"
          ]
        }
      ],
      "formatted_address": "\u9999\u6e2f\u7687\u540e\u5927\u9053\u4e2d251",
      "geometry": {
        "location": {
          "lat": 22.284693,
          "lng": 114.151379
        },
        "location_type": "GEOMETRIC_CENTER",
        "viewport": {
          "northeast": {
            "lat": 22.2860419802915,
            "lng": 114.1527279802915
          },
          "southwest": {
            "lat": 22.2833440197085,
            "lng": 114.1500300197085
          }
        }
      },
      "place_id": "ChIJy-1mbHwABDQR9GdEd-ysMM8",
      "plus_code": {
        "compound_code": "75M2+VH \u9999\u6e2f",
        "global_code": "7PJP75M2+VH"
      },
      "types": [
        "establishment",
        "point_of_interest",
        "premise"
      ]
    }
  ],
  "licno": "3118807842",
  "timestamp": 1564975666,
  "version": "1564966095"
}
