{
  "adr_en": "IRON FAIRIES & J. BOROSKI, LG/F., CHINACHEM HOLLYWOOD CENTRE, 1-13 HOLLYWOOD ROAD, CENTRAL, HONG KONG",
  "adr_tc": "\u9999\u6e2f\u4e2d\u74b0\u8377\u674e\u6d3b\u9053\u4e00\u81f3\u5341\u4e09\u865f\u83ef\u61cb\u8377\u674e\u6d3b\u4e2d\u5fc3\u5730\u4e0b\u4f4e\u5c64 IRON FAIRIES & J. BOROSKI",
  "geocode_en": [
    {
      "address_components": [
        {
          "long_name": "Central",
          "short_name": "Central",
          "types": [
            "neighborhood",
            "political"
          ]
        },
        {
          "long_name": "Hong Kong Island",
          "short_name": "Hong Kong Island",
          "types": [
            "administrative_area_level_1",
            "political"
          ]
        },
        {
          "long_name": "Hong Kong",
          "short_name": "HK",
          "types": [
            "country",
            "political"
          ]
        }
      ],
      "formatted_address": "LG, 1 Hollywood Road, Central, Hong Kong",
      "geometry": {
        "location": {
          "lat": 22.2819989,
          "lng": 114.1545622
        },
        "location_type": "GEOMETRIC_CENTER",
        "viewport": {
          "northeast": {
            "lat": 22.2833478802915,
            "lng": 114.1559111802915
          },
          "southwest": {
            "lat": 22.28064991970849,
            "lng": 114.1532132197085
          }
        }
      },
      "place_id": "ChIJr-wKP3sABDQR7Mz6XkgCCpA",
      "plus_code": {
        "compound_code": "75J3+QR Central, Hong Kong",
        "global_code": "7PJP75J3+QR"
      },
      "types": [
        "bar",
        "establishment",
        "point_of_interest"
      ]
    }
  ],
  "geocode_tc": [
    {
      "address_components": [
        {
          "long_name": "Central",
          "short_name": "Central",
          "types": [
            "neighborhood",
            "political"
          ]
        },
        {
          "long_name": "Hong Kong Island",
          "short_name": "Hong Kong Island",
          "types": [
            "administrative_area_level_1",
            "political"
          ]
        },
        {
          "long_name": "\u9999\u6e2f",
          "short_name": "HK",
          "types": [
            "country",
            "political"
          ]
        }
      ],
      "formatted_address": "LG, 1 Hollywood Road, Central, \u9999\u6e2f",
      "geometry": {
        "location": {
          "lat": 22.2819989,
          "lng": 114.1545622
        },
        "location_type": "GEOMETRIC_CENTER",
        "viewport": {
          "northeast": {
            "lat": 22.2833478802915,
            "lng": 114.1559111802915
          },
          "southwest": {
            "lat": 22.28064991970849,
            "lng": 114.1532132197085
          }
        }
      },
      "partial_match": true,
      "place_id": "ChIJr-wKP3sABDQR7Mz6XkgCCpA",
      "plus_code": {
        "compound_code": "75J3+QR \u9999\u6e2f\u4e2d\u74b0",
        "global_code": "7PJP75J3+QR"
      },
      "types": [
        "bar",
        "establishment",
        "point_of_interest"
      ]
    },
    {
      "address_components": [
        {
          "long_name": "13",
          "short_name": "13",
          "types": [
            "street_number"
          ]
        },
        {
          "long_name": "\u8377\u674e\u6d3b\u9053",
          "short_name": "\u8377\u674e\u6d3b\u9053",
          "types": [
            "route"
          ]
        },
        {
          "long_name": "\u4e2d\u74b0",
          "short_name": "\u4e2d\u74b0",
          "types": [
            "neighborhood",
            "political"
          ]
        },
        {
          "long_name": "\u9999\u6e2f\u5cf6",
          "short_name": "\u9999\u6e2f\u5cf6",
          "types": [
            "administrative_area_level_1",
            "political"
          ]
        },
        {
          "long_name": "\u9999\u6e2f",
          "short_name": "HK",
          "types": [
            "country",
            "political"
          ]
        }
      ],
      "formatted_address": "\u9999\u6e2f\u4e2d\u74b0\u8377\u674e\u6d3b\u905313\u865f",
      "geometry": {
        "location": {
          "lat": 22.281962,
          "lng": 114.154176
        },
        "location_type": "ROOFTOP",
        "viewport": {
          "northeast": {
            "lat": 22.2833109802915,
            "lng": 114.1555249802915
          },
          "southwest": {
            "lat": 22.2806130197085,
            "lng": 114.1528270197085
          }
        }
      },
      "partial_match": true,
      "place_id": "ChIJ_TV2QHsABDQRnqVn3ZuPnHc",
      "plus_code": {
        "compound_code": "75J3+QM \u9999\u6e2f\u4e2d\u74b0",
        "global_code": "7PJP75J3+QM"
      },
      "types": [
        "bar",
        "establishment",
        "point_of_interest"
      ]
    },
    {
      "address_components": [
        {
          "long_name": "\u83ef\u61cb\u8377\u674e\u6d3b\u4e2d\u5fc3",
          "short_name": "\u83ef\u61cb\u8377\u674e\u6d3b\u4e2d\u5fc3",
          "types": [
            "premise"
          ]
        },
        {
          "long_name": "1",
          "short_name": "1",
          "types": [
            "street_number"
          ]
        },
        {
          "long_name": "\u8377\u674e\u6d3b\u9053",
          "short_name": "\u8377\u674e\u6d3b\u9053",
          "types": [
            "route"
          ]
        },
        {
          "long_name": "\u4e2d\u74b0",
          "short_name": "\u4e2d\u74b0",
          "types": [
            "neighborhood",
            "political"
          ]
        },
        {
          "long_name": "\u9999\u6e2f\u5cf6",
          "short_name": "\u9999\u6e2f\u5cf6",
          "types": [
            "administrative_area_level_1",
            "political"
          ]
        },
        {
          "long_name": "\u9999\u6e2f",
          "short_name": "HK",
          "types": [
            "country",
            "political"
          ]
        }
      ],
      "formatted_address": "\u9999\u6e2f\u4e2d\u74b0\u8377\u674e\u6d3b\u90531\u865f\u83ef\u61cb\u8377\u674e\u6d3b\u4e2d\u5fc3",
      "geometry": {
        "bounds": {
          "northeast": {
            "lat": 22.2820829,
            "lng": 114.154582
          },
          "southwest": {
            "lat": 22.281905,
            "lng": 114.1543
          }
        },
        "location": {
          "lat": 22.2820039,
          "lng": 114.1544556
        },
        "location_type": "ROOFTOP",
        "viewport": {
          "northeast": {
            "lat": 22.2833429302915,
            "lng": 114.1557899802915
          },
          "southwest": {
            "lat": 22.2806449697085,
            "lng": 114.1530920197085
          }
        }
      },
      "partial_match": true,
      "place_id": "ChIJqRyVP3sABDQR_tgxnmD0o3Y",
      "types": [
        "premise"
      ]
    }
  ],
  "licno": "2218810695",
  "timestamp": 1564968756,
  "version": "1564966095"
}
