{
  "adr_en": "\u5927\u767c, SHOP NO.28, G/F, TAK CHEUNG BUILDING, DD 124, LOT 4177, CASTLE PEAK ROAD, HUNG SHUI KIU, YUEN LONG, NEW TERRITORIES",
  "adr_tc": "\u65b0\u754c\u5143\u6717\u6d2a\u6c34\u6a4b\u4e08\u91cf\u7d04\u4efd\u7b2c124\u7d04\u5730\u6bb5\u7b2c4177\u865f \u9752\u5c71\u516c\u8def\u5fb7\u7965\u6a13\u5730\u4e0b28\u865f\u92ea \u5927\u767c",
  "geocode_en": [
    {
      "address_components": [
        {
          "long_name": "Tak Cheung Building",
          "short_name": "Tak Cheung Building",
          "types": [
            "premise"
          ]
        },
        {
          "long_name": "Castle Peak Road (Hung Shui Kiu)",
          "short_name": "Castle Peak Road (Hung Shui Kiu)",
          "types": [
            "route"
          ]
        },
        {
          "long_name": "Hung Shui Kiu",
          "short_name": "Hung Shui Kiu",
          "types": [
            "neighborhood",
            "political"
          ]
        },
        {
          "long_name": "New Territories",
          "short_name": "New Territories",
          "types": [
            "administrative_area_level_1",
            "political"
          ]
        },
        {
          "long_name": "Hong Kong",
          "short_name": "HK",
          "types": [
            "country",
            "political"
          ]
        }
      ],
      "formatted_address": "Tak Cheung Building, Castle Peak Road (Hung Shui Kiu), Hung Shui Kiu, Hong Kong",
      "geometry": {
        "bounds": {
          "northeast": {
            "lat": 22.4329431,
            "lng": 113.9960861
          },
          "southwest": {
            "lat": 22.432498,
            "lng": 113.995518
          }
        },
        "location": {
          "lat": 22.4327432,
          "lng": 113.9958132
        },
        "location_type": "ROOFTOP",
        "viewport": {
          "northeast": {
            "lat": 22.43406953029151,
            "lng": 113.9971510302915
          },
          "southwest": {
            "lat": 22.4313715697085,
            "lng": 113.9944530697085
          }
        }
      },
      "partial_match": true,
      "place_id": "ChIJYS02Non6AzQRiDyanS0atuM",
      "types": [
        "premise"
      ]
    }
  ],
  "geocode_tc": [
    {
      "address_components": [
        {
          "long_name": "\u5fb7\u7965\u6a13",
          "short_name": "\u5fb7\u7965\u6a13",
          "types": [
            "premise"
          ]
        },
        {
          "long_name": "\u9752\u5c71\u516c\u8def\u6d2a\u6c34\u6a4b\u6bb5",
          "short_name": "\u9752\u5c71\u516c\u8def\u6d2a\u6c34\u6a4b\u6bb5",
          "types": [
            "route"
          ]
        },
        {
          "long_name": "\u6d2a\u6c34\u6a4b",
          "short_name": "\u6d2a\u6c34\u6a4b",
          "types": [
            "neighborhood",
            "political"
          ]
        },
        {
          "long_name": "\u65b0\u754c",
          "short_name": "\u65b0\u754c",
          "types": [
            "administrative_area_level_1",
            "political"
          ]
        },
        {
          "long_name": "\u9999\u6e2f",
          "short_name": "HK",
          "types": [
            "country",
            "political"
          ]
        }
      ],
      "formatted_address": "\u9999\u6e2f\u6d2a\u6c34\u6a4b\u9752\u5c71\u516c\u8def\u6d2a\u6c34\u6a4b\u6bb5\u5fb7\u7965\u6a13",
      "geometry": {
        "bounds": {
          "northeast": {
            "lat": 22.4329431,
            "lng": 113.9960861
          },
          "southwest": {
            "lat": 22.432498,
            "lng": 113.995518
          }
        },
        "location": {
          "lat": 22.4327432,
          "lng": 113.9958132
        },
        "location_type": "ROOFTOP",
        "viewport": {
          "northeast": {
            "lat": 22.43406953029151,
            "lng": 113.9971510302915
          },
          "southwest": {
            "lat": 22.4313715697085,
            "lng": 113.9944530697085
          }
        }
      },
      "partial_match": true,
      "place_id": "ChIJYS02Non6AzQRiDyanS0atuM",
      "types": [
        "premise"
      ]
    }
  ],
  "licno": "3194001264",
  "timestamp": 1564975666,
  "version": "1564966095"
}
