{
  "adr_en": "GALAXIA, G/F, 14 TAI YUK ROAD, MA WAN, TSUEN WAN, NEW TERRITORIES",
  "adr_tc": "\u65b0\u754c\u8343\u7063\u99ac\u7063\u9ad4\u80b2\u8def14\u865f\u5730\u4e0b \u9280\u6cb3\u9910\u5ef3",
  "geocode_en": [
    {
      "address_components": [
        {
          "long_name": "G",
          "short_name": "G",
          "types": [
            "subpremise"
          ]
        },
        {
          "long_name": "14",
          "short_name": "14",
          "types": [
            "street_number"
          ]
        },
        {
          "long_name": "Yuen Long Tai Yuk Road",
          "short_name": "Yuen Long Tai Yuk Rd",
          "types": [
            "route"
          ]
        },
        {
          "long_name": "Yuen Long",
          "short_name": "Yuen Long",
          "types": [
            "neighborhood",
            "political"
          ]
        },
        {
          "long_name": "New Territories",
          "short_name": "New Territories",
          "types": [
            "administrative_area_level_1",
            "political"
          ]
        },
        {
          "long_name": "Hong Kong",
          "short_name": "HK",
          "types": [
            "country",
            "political"
          ]
        }
      ],
      "formatted_address": "G, 14 Yuen Long Tai Yuk Rd, Yuen Long, Hong Kong",
      "geometry": {
        "location": {
          "lat": 22.442094,
          "lng": 114.0221752
        },
        "location_type": "RANGE_INTERPOLATED",
        "viewport": {
          "northeast": {
            "lat": 22.4434429802915,
            "lng": 114.0235241802915
          },
          "southwest": {
            "lat": 22.44074501970849,
            "lng": 114.0208262197085
          }
        }
      },
      "partial_match": true,
      "place_id": "EjBHLCAxNCBZdWVuIExvbmcgVGFpIFl1ayBSZCwgWXVlbiBMb25nLCBIb25nIEtvbmciIRofChoSGAoUChIJBdUcCnX6AzQRHyIqn4zezlIQDhIBRw",
      "types": [
        "subpremise"
      ]
    },
    {
      "address_components": [
        {
          "long_name": "F",
          "short_name": "F",
          "types": [
            "subpremise"
          ]
        },
        {
          "long_name": "14",
          "short_name": "14",
          "types": [
            "street_number"
          ]
        },
        {
          "long_name": "Yuen Long Tai Yuk Road",
          "short_name": "Yuen Long Tai Yuk Rd",
          "types": [
            "route"
          ]
        },
        {
          "long_name": "Yuen Long",
          "short_name": "Yuen Long",
          "types": [
            "neighborhood",
            "political"
          ]
        },
        {
          "long_name": "New Territories",
          "short_name": "New Territories",
          "types": [
            "administrative_area_level_1",
            "political"
          ]
        },
        {
          "long_name": "Hong Kong",
          "short_name": "HK",
          "types": [
            "country",
            "political"
          ]
        }
      ],
      "formatted_address": "F, 14 Yuen Long Tai Yuk Rd, Yuen Long, Hong Kong",
      "geometry": {
        "location": {
          "lat": 22.442094,
          "lng": 114.0221752
        },
        "location_type": "RANGE_INTERPOLATED",
        "viewport": {
          "northeast": {
            "lat": 22.4434429802915,
            "lng": 114.0235241802915
          },
          "southwest": {
            "lat": 22.44074501970849,
            "lng": 114.0208262197085
          }
        }
      },
      "partial_match": true,
      "place_id": "EjBGLCAxNCBZdWVuIExvbmcgVGFpIFl1ayBSZCwgWXVlbiBMb25nLCBIb25nIEtvbmciIRofChoSGAoUChIJBdUcCnX6AzQRHyIqn4zezlIQDhIBRg",
      "types": [
        "subpremise"
      ]
    },
    {
      "address_components": [
        {
          "long_name": "Ma Wan",
          "short_name": "Ma Wan",
          "types": [
            "establishment",
            "natural_feature"
          ]
        },
        {
          "long_name": "Ma Wan",
          "short_name": "Ma Wan",
          "types": [
            "neighborhood",
            "political"
          ]
        },
        {
          "long_name": "New Territories",
          "short_name": "New Territories",
          "types": [
            "administrative_area_level_1",
            "political"
          ]
        },
        {
          "long_name": "Hong Kong",
          "short_name": "HK",
          "types": [
            "country",
            "political"
          ]
        }
      ],
      "formatted_address": "Ma Wan, Hong Kong",
      "geometry": {
        "bounds": {
          "northeast": {
            "lat": 22.3559259,
            "lng": 114.0662681
          },
          "southwest": {
            "lat": 22.3423909,
            "lng": 114.0540541
          }
        },
        "location": {
          "lat": 22.3500753,
          "lng": 114.059207
        },
        "location_type": "APPROXIMATE",
        "viewport": {
          "northeast": {
            "lat": 22.3559259,
            "lng": 114.0662681
          },
          "southwest": {
            "lat": 22.3423909,
            "lng": 114.0540541
          }
        }
      },
      "partial_match": true,
      "place_id": "ChIJL_Fzr1L5AzQR1is_ixrt3iI",
      "types": [
        "establishment",
        "natural_feature"
      ]
    },
    {
      "address_components": [
        {
          "long_name": "Tsuen Wan",
          "short_name": "Tsuen Wan",
          "types": [
            "neighborhood",
            "political"
          ]
        },
        {
          "long_name": "New Territories",
          "short_name": "New Territories",
          "types": [
            "administrative_area_level_1",
            "political"
          ]
        },
        {
          "long_name": "Hong Kong",
          "short_name": "HK",
          "types": [
            "country",
            "political"
          ]
        }
      ],
      "formatted_address": "Tsuen Wan, Hong Kong",
      "geometry": {
        "bounds": {
          "northeast": {
            "lat": 22.3865131,
            "lng": 114.12351
          },
          "southwest": {
            "lat": 22.354937,
            "lng": 114.083911
          }
        },
        "location": {
          "lat": 22.3699122,
          "lng": 114.1144306
        },
        "location_type": "APPROXIMATE",
        "viewport": {
          "northeast": {
            "lat": 22.3865131,
            "lng": 114.12351
          },
          "southwest": {
            "lat": 22.354937,
            "lng": 114.083911
          }
        }
      },
      "partial_match": true,
      "place_id": "ChIJmXQjje74AzQRsINigpbDAAo",
      "types": [
        "neighborhood",
        "political"
      ]
    }
  ],
  "geocode_tc": [
    {
      "address_components": [
        {
          "long_name": "\u865f\u5730\u4e0b",
          "short_name": "\u865f\u5730\u4e0b",
          "types": [
            "subpremise"
          ]
        },
        {
          "long_name": "14",
          "short_name": "14",
          "types": [
            "street_number"
          ]
        },
        {
          "long_name": "\u5143\u6717\u9ad4\u80b2\u8def",
          "short_name": "\u5143\u6717\u9ad4\u80b2\u8def",
          "types": [
            "route"
          ]
        },
        {
          "long_name": "\u5143\u6717",
          "short_name": "\u5143\u6717",
          "types": [
            "neighborhood",
            "political"
          ]
        },
        {
          "long_name": "\u65b0\u754c",
          "short_name": "\u65b0\u754c",
          "types": [
            "administrative_area_level_1",
            "political"
          ]
        },
        {
          "long_name": "\u9999\u6e2f",
          "short_name": "HK",
          "types": [
            "country",
            "political"
          ]
        }
      ],
      "formatted_address": "\u9999\u6e2f\u5143\u6717\u5143\u6717\u9ad4\u80b2\u8def14\u865f\u865f\u5730\u4e0b",
      "geometry": {
        "location": {
          "lat": 22.442094,
          "lng": 114.0221752
        },
        "location_type": "RANGE_INTERPOLATED",
        "viewport": {
          "northeast": {
            "lat": 22.4434429802915,
            "lng": 114.0235241802915
          },
          "southwest": {
            "lat": 22.44074501970849,
            "lng": 114.0208262197085
          }
        }
      },
      "partial_match": true,
      "place_id": "EjjomZ_lnLDkuIssIDE0IFl1ZW4gTG9uZyBUYWkgWXVrIFJkLCBZdWVuIExvbmcsIEhvbmcgS29uZyIpGicKGhIYChQKEgkF1RwKdfoDNBEfIiqfjN7OUhAOEgnomZ_lnLDkuIs",
      "types": [
        "subpremise"
      ]
    },
    {
      "address_components": [
        {
          "long_name": "\u99ac\u7063",
          "short_name": "\u99ac\u7063",
          "types": [
            "establishment",
            "natural_feature"
          ]
        },
        {
          "long_name": "\u99ac\u7063",
          "short_name": "\u99ac\u7063",
          "types": [
            "neighborhood",
            "political"
          ]
        },
        {
          "long_name": "\u65b0\u754c",
          "short_name": "\u65b0\u754c",
          "types": [
            "administrative_area_level_1",
            "political"
          ]
        },
        {
          "long_name": "\u9999\u6e2f",
          "short_name": "HK",
          "types": [
            "country",
            "political"
          ]
        }
      ],
      "formatted_address": "\u9999\u6e2f\u99ac\u7063",
      "geometry": {
        "bounds": {
          "northeast": {
            "lat": 22.3559259,
            "lng": 114.0662681
          },
          "southwest": {
            "lat": 22.3423909,
            "lng": 114.0540541
          }
        },
        "location": {
          "lat": 22.3500753,
          "lng": 114.059207
        },
        "location_type": "APPROXIMATE",
        "viewport": {
          "northeast": {
            "lat": 22.3559259,
            "lng": 114.0662681
          },
          "southwest": {
            "lat": 22.3423909,
            "lng": 114.0540541
          }
        }
      },
      "partial_match": true,
      "place_id": "ChIJL_Fzr1L5AzQR1is_ixrt3iI",
      "types": [
        "establishment",
        "natural_feature"
      ]
    }
  ],
  "licno": "2292803321",
  "timestamp": 1564968756,
  "version": "1564966095"
}
