{
  "adr_en": "New York Cafe n Bar, SHOP 29-32, G/F AND THE OUTSIDE SEATING ACCOMMODATION AT SHOP FRONT, TRANSPORT PLAZA, 2-6 FUNG CHEUNG ROAD, YUEN LONG, NEW TERRITORIES",
  "adr_tc": "\u65b0\u754c\u5143\u6717\u9cf3\u7fd4\u8def2-6\u865f\u4ea4\u901a\u5ee3\u5834\u5730\u4e0b29-32\u865f\u92ea \u53ca\u92ea\u524d\u9732\u5929\u5ea7\u4f4d New York Cafe n Bar",
  "geocode_en": [
    {
      "address_components": [
        {
          "long_name": "Hong Kong",
          "short_name": "HK",
          "types": [
            "country",
            "political"
          ]
        }
      ],
      "formatted_address": "Hong Kong, \u5143\u6717\u9cf3\u7fd4\u8def2-6\u865f\u4ea4\u901a\u5ee3\u5834\u5730\u4e0b33-34\u865f\u8216",
      "geometry": {
        "location": {
          "lat": 22.443872,
          "lng": 114.0320795
        },
        "location_type": "GEOMETRIC_CENTER",
        "viewport": {
          "northeast": {
            "lat": 22.4452209802915,
            "lng": 114.0334284802915
          },
          "southwest": {
            "lat": 22.4425230197085,
            "lng": 114.0307305197085
          }
        }
      },
      "partial_match": true,
      "place_id": "ChIJr6xHOafwAzQR18QSmgKQFCU",
      "plus_code": {
        "compound_code": "C2VJ+GR Hong Kong",
        "global_code": "7PJPC2VJ+GR"
      },
      "types": [
        "bar",
        "establishment",
        "food",
        "point_of_interest",
        "restaurant"
      ]
    },
    {
      "address_components": [
        {
          "long_name": "Transport Plaza",
          "short_name": "Transport Plaza",
          "types": [
            "premise"
          ]
        },
        {
          "long_name": "2-6",
          "short_name": "2-6",
          "types": [
            "street_number"
          ]
        },
        {
          "long_name": "Fung Cheung Road",
          "short_name": "Fung Cheung Rd",
          "types": [
            "route"
          ]
        },
        {
          "long_name": "Yuen Long",
          "short_name": "Yuen Long",
          "types": [
            "neighborhood",
            "political"
          ]
        },
        {
          "long_name": "New Territories",
          "short_name": "New Territories",
          "types": [
            "administrative_area_level_1",
            "political"
          ]
        },
        {
          "long_name": "Hong Kong",
          "short_name": "HK",
          "types": [
            "country",
            "political"
          ]
        }
      ],
      "formatted_address": "Transport Plaza, 2-6 Fung Cheung Rd, Yuen Long, Hong Kong",
      "geometry": {
        "bounds": {
          "northeast": {
            "lat": 22.4440761,
            "lng": 114.032141
          },
          "southwest": {
            "lat": 22.443475,
            "lng": 114.0315491
          }
        },
        "location": {
          "lat": 22.4438218,
          "lng": 114.031797
        },
        "location_type": "ROOFTOP",
        "viewport": {
          "northeast": {
            "lat": 22.4451245302915,
            "lng": 114.0331940302915
          },
          "southwest": {
            "lat": 22.4424265697085,
            "lng": 114.0304960697085
          }
        }
      },
      "partial_match": true,
      "place_id": "ChIJ111lOKfwAzQRTBEvSd3zJ6E",
      "types": [
        "premise"
      ]
    }
  ],
  "geocode_tc": [
    {
      "address_components": [
        {
          "long_name": "\u9999\u6e2f",
          "short_name": "HK",
          "types": [
            "country",
            "political"
          ]
        }
      ],
      "formatted_address": "\u9999\u6e2f\u5143\u6717\u9cf3\u7fd4\u8def2-6\u865f\u4ea4\u901a\u5ee3\u5834\u5730\u4e0b33-34\u865f\u8216",
      "geometry": {
        "location": {
          "lat": 22.443872,
          "lng": 114.0320795
        },
        "location_type": "GEOMETRIC_CENTER",
        "viewport": {
          "northeast": {
            "lat": 22.4452209802915,
            "lng": 114.0334284802915
          },
          "southwest": {
            "lat": 22.4425230197085,
            "lng": 114.0307305197085
          }
        }
      },
      "place_id": "ChIJr6xHOafwAzQR18QSmgKQFCU",
      "plus_code": {
        "compound_code": "C2VJ+GR \u9999\u6e2f",
        "global_code": "7PJPC2VJ+GR"
      },
      "types": [
        "bar",
        "establishment",
        "food",
        "point_of_interest",
        "restaurant"
      ]
    }
  ],
  "licno": "2294804708",
  "timestamp": 1564975666,
  "version": "1564966095"
}
