{
  "adr_en": "\u8208\u5712\u9ebb\u8fa3\u8eca\u4ed4\u9eb5, SHOP B3, G/F, LEE KWAN BUILDING, 2-10 WANG CHAU ROAD, YUEN LONG, NEW TERRITORIES",
  "adr_tc": "\u65b0\u754c\u5143\u6717\u6a6b\u6d32\u8def2-10\u865f\u5229\u7fa4\u5927\u5ec8\u5730\u4e0bB3\u92ea \u8208\u5712\u9ebb\u8fa3\u8eca\u4ed4\u9eb5",
  "geocode_en": [
    {
      "address_components": [
        {
          "long_name": "Lee Kwan Building",
          "short_name": "Lee Kwan Building",
          "types": [
            "premise"
          ]
        },
        {
          "long_name": "2-10",
          "short_name": "2-10",
          "types": [
            "street_number"
          ]
        },
        {
          "long_name": "Wang Chau Road",
          "short_name": "Wang Chau Rd",
          "types": [
            "route"
          ]
        },
        {
          "long_name": "Yuen Long",
          "short_name": "Yuen Long",
          "types": [
            "neighborhood",
            "political"
          ]
        },
        {
          "long_name": "New Territories",
          "short_name": "New Territories",
          "types": [
            "administrative_area_level_1",
            "political"
          ]
        },
        {
          "long_name": "Hong Kong",
          "short_name": "HK",
          "types": [
            "country",
            "political"
          ]
        }
      ],
      "formatted_address": "Lee Kwan Building, 2-10 Wang Chau Rd, Yuen Long, Hong Kong",
      "geometry": {
        "bounds": {
          "northeast": {
            "lat": 22.4463215,
            "lng": 114.0291005
          },
          "southwest": {
            "lat": 22.4460761,
            "lng": 114.0289316
          }
        },
        "location": {
          "lat": 22.4461983,
          "lng": 114.0290327
        },
        "location_type": "ROOFTOP",
        "viewport": {
          "northeast": {
            "lat": 22.4475477802915,
            "lng": 114.0303650302915
          },
          "southwest": {
            "lat": 22.4448498197085,
            "lng": 114.0276670697085
          }
        }
      },
      "partial_match": true,
      "place_id": "ChIJgXYBGqHwAzQRwkrNgqBynjU",
      "types": [
        "premise"
      ]
    }
  ],
  "geocode_tc": [
    {
      "address_components": [
        {
          "long_name": "\u5229\u7fa4\u6a13",
          "short_name": "\u5229\u7fa4\u6a13",
          "types": [
            "premise"
          ]
        },
        {
          "long_name": "2-10",
          "short_name": "2-10",
          "types": [
            "street_number"
          ]
        },
        {
          "long_name": "\u6a6b\u6d32\u8def",
          "short_name": "\u6a6b\u6d32\u8def",
          "types": [
            "route"
          ]
        },
        {
          "long_name": "\u5143\u6717",
          "short_name": "\u5143\u6717",
          "types": [
            "neighborhood",
            "political"
          ]
        },
        {
          "long_name": "\u65b0\u754c",
          "short_name": "\u65b0\u754c",
          "types": [
            "administrative_area_level_1",
            "political"
          ]
        },
        {
          "long_name": "\u9999\u6e2f",
          "short_name": "HK",
          "types": [
            "country",
            "political"
          ]
        }
      ],
      "formatted_address": "\u9999\u6e2f\u5143\u6717\u6a6b\u6d32\u8def2-10\u865f\u5229\u7fa4\u6a13",
      "geometry": {
        "bounds": {
          "northeast": {
            "lat": 22.4463215,
            "lng": 114.0291005
          },
          "southwest": {
            "lat": 22.4460761,
            "lng": 114.0289316
          }
        },
        "location": {
          "lat": 22.4461983,
          "lng": 114.0290327
        },
        "location_type": "ROOFTOP",
        "viewport": {
          "northeast": {
            "lat": 22.4475477802915,
            "lng": 114.0303650302915
          },
          "southwest": {
            "lat": 22.4448498197085,
            "lng": 114.0276670697085
          }
        }
      },
      "partial_match": true,
      "place_id": "ChIJgXYBGqHwAzQRwkrNgqBynjU",
      "types": [
        "premise"
      ]
    }
  ],
  "licno": "3194802481",
  "timestamp": 1564975666,
  "version": "1564966095"
}
