{
  "adr_en": "Gin Curry, SHOP NO. 5, LG/F, 18 FARM ROAD, KOWLOON",
  "adr_tc": "\u4e5d\u9f8d\u8fb2\u5703\u905318\u865f\u5730\u4e0b\u4f4e\u5c645\u865f\u8216 \u9280\u5496\u54e9",
  "geocode_en": [
    {
      "address_components": [
        {
          "long_name": "F",
          "short_name": "F",
          "types": [
            "subpremise"
          ]
        },
        {
          "long_name": "18 Farm Road",
          "short_name": "18 Farm Road",
          "types": [
            "premise"
          ]
        },
        {
          "long_name": "18",
          "short_name": "18",
          "types": [
            "street_number"
          ]
        },
        {
          "long_name": "Farm Road",
          "short_name": "Farm Rd",
          "types": [
            "route"
          ]
        },
        {
          "long_name": "Kau Pui Lung",
          "short_name": "Kau Pui Lung",
          "types": [
            "neighborhood",
            "political"
          ]
        },
        {
          "long_name": "Kowloon",
          "short_name": "Kowloon",
          "types": [
            "administrative_area_level_1",
            "political"
          ]
        },
        {
          "long_name": "Hong Kong",
          "short_name": "HK",
          "types": [
            "country",
            "political"
          ]
        }
      ],
      "formatted_address": "F, 18 Farm Road, 18 Farm Rd, Kau Pui Lung, Hong Kong",
      "geometry": {
        "bounds": {
          "northeast": {
            "lat": 22.3209883,
            "lng": 114.1874166
          },
          "southwest": {
            "lat": 22.3205259,
            "lng": 114.1868789
          }
        },
        "location": {
          "lat": 22.3208065,
          "lng": 114.18724
        },
        "location_type": "ROOFTOP",
        "viewport": {
          "northeast": {
            "lat": 22.3221060802915,
            "lng": 114.1884967302915
          },
          "southwest": {
            "lat": 22.3194081197085,
            "lng": 114.1857987697085
          }
        }
      },
      "partial_match": true,
      "place_id": "EjRGLCAxOCBGYXJtIFJvYWQsIDE4IEZhcm0gUmQsIEthdSBQdWkgTHVuZywgSG9uZyBLb25nIh0aGwoWChQKEgnBYC7m1gAENBFYzuckCW6PihIBRg",
      "types": [
        "subpremise"
      ]
    }
  ],
  "geocode_tc": [
    {
      "address_components": [
        {
          "long_name": "\u8fb2\u5703\u905318\u865f",
          "short_name": "\u8fb2\u5703\u905318\u865f",
          "types": [
            "premise"
          ]
        },
        {
          "long_name": "18",
          "short_name": "18",
          "types": [
            "street_number"
          ]
        },
        {
          "long_name": "\u8fb2\u5703\u9053",
          "short_name": "\u8fb2\u5703\u9053",
          "types": [
            "route"
          ]
        },
        {
          "long_name": "\u9760\u80cc\u58df",
          "short_name": "\u9760\u80cc\u58df",
          "types": [
            "neighborhood",
            "political"
          ]
        },
        {
          "long_name": "\u4e5d\u9f8d",
          "short_name": "\u4e5d\u9f8d",
          "types": [
            "administrative_area_level_1",
            "political"
          ]
        },
        {
          "long_name": "\u9999\u6e2f",
          "short_name": "HK",
          "types": [
            "country",
            "political"
          ]
        }
      ],
      "formatted_address": "\u9999\u6e2f\u9760\u80cc\u58df\u8fb2\u5703\u905318\u865f\u8fb2\u5703\u905318\u865f",
      "geometry": {
        "bounds": {
          "northeast": {
            "lat": 22.3209883,
            "lng": 114.1874166
          },
          "southwest": {
            "lat": 22.3205259,
            "lng": 114.1868789
          }
        },
        "location": {
          "lat": 22.3208065,
          "lng": 114.18724
        },
        "location_type": "ROOFTOP",
        "viewport": {
          "northeast": {
            "lat": 22.3221060802915,
            "lng": 114.1884967302915
          },
          "southwest": {
            "lat": 22.3194081197085,
            "lng": 114.1857987697085
          }
        }
      },
      "partial_match": true,
      "place_id": "ChIJwWAu5tYABDQRWM7nJAluj4o",
      "types": [
        "premise"
      ]
    },
    {
      "address_components": [
        {
          "long_name": "18",
          "short_name": "18",
          "types": [
            "street_number"
          ]
        },
        {
          "long_name": "\u8fb2\u5703\u9053",
          "short_name": "\u8fb2\u5703\u9053",
          "types": [
            "route"
          ]
        },
        {
          "long_name": "\u9760\u80cc\u58df",
          "short_name": "\u9760\u80cc\u58df",
          "types": [
            "neighborhood",
            "political"
          ]
        },
        {
          "long_name": "\u4e5d\u9f8d",
          "short_name": "\u4e5d\u9f8d",
          "types": [
            "administrative_area_level_1",
            "political"
          ]
        },
        {
          "long_name": "\u9999\u6e2f",
          "short_name": "HK",
          "types": [
            "country",
            "political"
          ]
        }
      ],
      "formatted_address": "\u9999\u6e2f\u9760\u80cc\u58df\u8fb2\u5703\u905318\u865f",
      "geometry": {
        "location": {
          "lat": 22.3207571,
          "lng": 114.1871478
        },
        "location_type": "ROOFTOP",
        "viewport": {
          "northeast": {
            "lat": 22.3221060802915,
            "lng": 114.1884967802915
          },
          "southwest": {
            "lat": 22.3194081197085,
            "lng": 114.1857988197085
          }
        }
      },
      "partial_match": true,
      "place_id": "ChIJDaG-59YABDQRLa7lFkWX8Bw",
      "plus_code": {
        "compound_code": "85CP+8V \u9999\u6e2f",
        "global_code": "7PJP85CP+8V"
      },
      "types": [
        "establishment",
        "food",
        "point_of_interest",
        "restaurant"
      ]
    },
    {
      "address_components": [
        {
          "long_name": "\u865f\u8216",
          "short_name": "\u865f\u8216",
          "types": [
            "subpremise"
          ]
        },
        {
          "long_name": "\u8fb2\u5703\u905318\u865f",
          "short_name": "\u8fb2\u5703\u905318\u865f",
          "types": [
            "premise"
          ]
        },
        {
          "long_name": "18",
          "short_name": "18",
          "types": [
            "street_number"
          ]
        },
        {
          "long_name": "\u8fb2\u5703\u9053",
          "short_name": "\u8fb2\u5703\u9053",
          "types": [
            "route"
          ]
        },
        {
          "long_name": "\u9760\u80cc\u58df",
          "short_name": "\u9760\u80cc\u58df",
          "types": [
            "neighborhood",
            "political"
          ]
        },
        {
          "long_name": "\u4e5d\u9f8d",
          "short_name": "\u4e5d\u9f8d",
          "types": [
            "administrative_area_level_1",
            "political"
          ]
        },
        {
          "long_name": "\u9999\u6e2f",
          "short_name": "HK",
          "types": [
            "country",
            "political"
          ]
        }
      ],
      "formatted_address": "\u9999\u6e2f\u9760\u80cc\u58df\u8fb2\u5703\u905318\u865f\u8fb2\u5703\u905318\u865f\u865f\u8216",
      "geometry": {
        "bounds": {
          "northeast": {
            "lat": 22.3209883,
            "lng": 114.1874166
          },
          "southwest": {
            "lat": 22.3205259,
            "lng": 114.1868789
          }
        },
        "location": {
          "lat": 22.3208065,
          "lng": 114.18724
        },
        "location_type": "ROOFTOP",
        "viewport": {
          "northeast": {
            "lat": 22.3221060802915,
            "lng": 114.1884967302915
          },
          "southwest": {
            "lat": 22.3194081197085,
            "lng": 114.1857987697085
          }
        }
      },
      "partial_match": true,
      "place_id": "EjnomZ_oiJYsIDE4IEZhcm0gUm9hZCwgMTggRmFybSBSZCwgS2F1IFB1aSBMdW5nLCBIb25nIEtvbmciIhogChYKFAoSCcFgLubWAAQ0EVjO5yQJbo-KEgbomZ_oiJY",
      "types": [
        "subpremise"
      ]
    }
  ],
  "licno": "2252805592",
  "timestamp": 1564968756,
  "version": "1564966095"
}
