{
  "adr_en": "\u9bc9\u9b5a\u9580\u516c\u5712, BLK 4, LEI YUE MUN PARK, HONG KONG",
  "adr_tc": "\u9999\u6e2f\u67f4\u7063 \u9bc9\u9b5a\u9580\u516c\u5712\u7b2c4\u5ea7 \u9bc9\u9b5a\u9580\u516c\u5712",
  "geocode_en": [
    {
      "address_components": [
        {
          "long_name": "Hong Kong",
          "short_name": "HK",
          "types": [
            "country",
            "political"
          ]
        }
      ],
      "formatted_address": "BLK 4, Lei Yue Mun Park, Hong Kong",
      "geometry": {
        "location": {
          "lat": 22.278406,
          "lng": 114.234652
        },
        "location_type": "GEOMETRIC_CENTER",
        "viewport": {
          "northeast": {
            "lat": 22.2797549802915,
            "lng": 114.2360009802915
          },
          "southwest": {
            "lat": 22.2770570197085,
            "lng": 114.2333030197085
          }
        }
      },
      "place_id": "ChIJ_3rCF38BBDQRQXT2u9D5yz0",
      "plus_code": {
        "compound_code": "76HM+9V Hong Kong",
        "global_code": "7PJP76HM+9V"
      },
      "types": [
        "establishment",
        "point_of_interest"
      ]
    },
    {
      "address_components": [
        {
          "long_name": "Lei Yue Mun Holiday Village And Lei Yue Mun Park",
          "short_name": "Lei Yue Mun Holiday Village And Lei Yue Mun Park",
          "types": [
            "establishment",
            "lodging",
            "park",
            "point_of_interest"
          ]
        },
        {
          "long_name": "75",
          "short_name": "75",
          "types": [
            "street_number"
          ]
        },
        {
          "long_name": "Chai Wan Road",
          "short_name": "Chai Wan Rd",
          "types": [
            "route"
          ]
        },
        {
          "long_name": "Sai Wan Shan",
          "short_name": "Sai Wan Shan",
          "types": [
            "neighborhood",
            "political"
          ]
        },
        {
          "long_name": "Hong Kong Island",
          "short_name": "Hong Kong Island",
          "types": [
            "administrative_area_level_1",
            "political"
          ]
        },
        {
          "long_name": "Hong Kong",
          "short_name": "HK",
          "types": [
            "country",
            "political"
          ]
        }
      ],
      "formatted_address": "Lei Yue Mun Holiday Village And Lei Yue Mun Park, 75 Chai Wan Rd, Sai Wan Shan, Hong Kong",
      "geometry": {
        "location": {
          "lat": 22.2786221,
          "lng": 114.2338487
        },
        "location_type": "ROOFTOP",
        "viewport": {
          "northeast": {
            "lat": 22.27997108029151,
            "lng": 114.2351976802915
          },
          "southwest": {
            "lat": 22.2772731197085,
            "lng": 114.2324997197085
          }
        }
      },
      "place_id": "ChIJESJOQX8BBDQRKD1bzmvq22A",
      "plus_code": {
        "compound_code": "76HM+CG Hong Kong",
        "global_code": "7PJP76HM+CG"
      },
      "types": [
        "establishment",
        "lodging",
        "park",
        "point_of_interest"
      ]
    }
  ],
  "geocode_tc": [
    {
      "address_components": [
        {
          "long_name": "\u9999\u6e2f",
          "short_name": "HK",
          "types": [
            "country",
            "political"
          ]
        }
      ],
      "formatted_address": "BLK 4, Lei Yue Mun Park, \u9999\u6e2f",
      "geometry": {
        "location": {
          "lat": 22.278406,
          "lng": 114.234652
        },
        "location_type": "GEOMETRIC_CENTER",
        "viewport": {
          "northeast": {
            "lat": 22.2797549802915,
            "lng": 114.2360009802915
          },
          "southwest": {
            "lat": 22.2770570197085,
            "lng": 114.2333030197085
          }
        }
      },
      "place_id": "ChIJ_3rCF38BBDQRQXT2u9D5yz0",
      "plus_code": {
        "compound_code": "76HM+9V \u9999\u6e2f",
        "global_code": "7PJP76HM+9V"
      },
      "types": [
        "establishment",
        "point_of_interest"
      ]
    }
  ],
  "licno": "2211127473",
  "timestamp": 1564966180,
  "version": "1564966095"
}
