{
  "adr_en": "\u6c38\u5eb7\u7f8e\u98df, SHOP NOS. 29-31, G/F., KO FU BUILDING, 58-72 FUK MAN ROAD, SAI KUNG, NEW TERRITORIES",
  "adr_tc": "\u65b0\u754c\u897f\u8ca2 \u798f\u6c11\u8def58-72\u865f \u9ad8\u5bcc\u6a13\u5730\u4e0b29-31\u865f\u92ea \u6c38\u5eb7\u7f8e\u98df",
  "geocode_en": [
    {
      "address_components": [
        {
          "long_name": "Hong Kong",
          "short_name": "HK",
          "types": [
            "country",
            "political"
          ]
        }
      ],
      "formatted_address": "Shop Nos. 29-31, G/F., Ko Fu Building, 58-72 Fuk Man Road, Sai Kung, New Territories, Hong Kong",
      "geometry": {
        "location": {
          "lat": 22.381902,
          "lng": 114.273355
        },
        "location_type": "GEOMETRIC_CENTER",
        "viewport": {
          "northeast": {
            "lat": 22.3832509802915,
            "lng": 114.2747039802915
          },
          "southwest": {
            "lat": 22.3805530197085,
            "lng": 114.2720060197085
          }
        }
      },
      "place_id": "ChIJqYM54JcFBDQRX-aNMNIwlI0",
      "plus_code": {
        "compound_code": "97JF+Q8 Hong Kong",
        "global_code": "7PJP97JF+Q8"
      },
      "types": [
        "establishment",
        "food",
        "point_of_interest",
        "restaurant"
      ]
    }
  ],
  "geocode_tc": [
    {
      "address_components": [
        {
          "long_name": "\u9999\u6e2f",
          "short_name": "HK",
          "types": [
            "country",
            "political"
          ]
        }
      ],
      "formatted_address": "Shop Nos. 29-31, G/F., Ko Fu Building, 58-72 Fuk Man Road, Sai Kung, New Territories, \u9999\u6e2f",
      "geometry": {
        "location": {
          "lat": 22.381902,
          "lng": 114.273355
        },
        "location_type": "GEOMETRIC_CENTER",
        "viewport": {
          "northeast": {
            "lat": 22.3832509802915,
            "lng": 114.2747039802915
          },
          "southwest": {
            "lat": 22.3805530197085,
            "lng": 114.2720060197085
          }
        }
      },
      "partial_match": true,
      "place_id": "ChIJqYM54JcFBDQRX-aNMNIwlI0",
      "plus_code": {
        "compound_code": "97JF+Q8 \u9999\u6e2f",
        "global_code": "7PJP97JF+Q8"
      },
      "types": [
        "establishment",
        "food",
        "point_of_interest",
        "restaurant"
      ]
    },
    {
      "address_components": [
        {
          "long_name": "29-31\u865f\u92ea",
          "short_name": "29-31\u865f\u92ea",
          "types": [
            "subpremise"
          ]
        },
        {
          "long_name": "\u9ad8\u5bcc\u6a13D\u5ea7",
          "short_name": "\u9ad8\u5bcc\u6a13D\u5ea7",
          "types": [
            "premise"
          ]
        },
        {
          "long_name": "58",
          "short_name": "58",
          "types": [
            "street_number"
          ]
        },
        {
          "long_name": "\u798f\u6c11\u8def",
          "short_name": "\u798f\u6c11\u8def",
          "types": [
            "route"
          ]
        },
        {
          "long_name": "\u897f\u8ca2",
          "short_name": "\u897f\u8ca2",
          "types": [
            "neighborhood",
            "political"
          ]
        },
        {
          "long_name": "\u65b0\u754c",
          "short_name": "\u65b0\u754c",
          "types": [
            "administrative_area_level_1",
            "political"
          ]
        },
        {
          "long_name": "\u9999\u6e2f",
          "short_name": "HK",
          "types": [
            "country",
            "political"
          ]
        }
      ],
      "formatted_address": "\u9999\u6e2f\u897f\u8ca2\u798f\u6c11\u8def58\u865f\u9ad8\u5bcc\u6a13D\u5ea729-31\u865f\u92ea",
      "geometry": {
        "bounds": {
          "northeast": {
            "lat": 22.381983,
            "lng": 114.2734371
          },
          "southwest": {
            "lat": 22.3818209,
            "lng": 114.273272
          }
        },
        "location": {
          "lat": 22.381902,
          "lng": 114.2733425
        },
        "location_type": "ROOFTOP",
        "viewport": {
          "northeast": {
            "lat": 22.3832509302915,
            "lng": 114.2747035302915
          },
          "southwest": {
            "lat": 22.3805529697085,
            "lng": 114.2720055697085
          }
        }
      },
      "partial_match": true,
      "place_id": "EkcyOS0zMeiZn-mLqiwgS28gRnUgQnVpbGRpbmcgQmxvY2sgRCwgNTggRnVrIE1hbiBSZCwgU2FpIEt1bmcsIEhvbmcgS29uZyInGiUKFgoUChIJXYI54JcFBDQRANACs3K2G6YSCzI5LTMx6Jmf6Yuq",
      "types": [
        "subpremise"
      ]
    }
  ],
  "licno": "3198000117",
  "timestamp": 1564975666,
  "version": "1564966095"
}
