{
  "adr_en": "HAVE A DATE, FLAT B, G/F., LOK KU HOUSE, 118 JAFFE ROAD, WAN CHAI, HONG KONG",
  "adr_tc": "\u9999\u6e2f\u7063\u4ed4\u8b1d\u6590\u9053118\u865f\u6a02\u5c45\u6a13\u5730\u4e0bB\u5ba4 \u4f0a\u4eba\u6709\u7d04",
  "geocode_en": [
    {
      "address_components": [
        {
          "long_name": "Lok Ku House",
          "short_name": "Lok Ku House",
          "types": [
            "premise"
          ]
        },
        {
          "long_name": "118",
          "short_name": "118",
          "types": [
            "street_number"
          ]
        },
        {
          "long_name": "Jaffe Road",
          "short_name": "Jaffe Rd",
          "types": [
            "route"
          ]
        },
        {
          "long_name": "Hong Kong",
          "short_name": "HK",
          "types": [
            "country",
            "political"
          ]
        }
      ],
      "formatted_address": "\u865f \u5730\u4e0b B \u8216, Lok Ku House, 118 Jaffe Rd, Hong Kong",
      "geometry": {
        "location": {
          "lat": 22.2785735,
          "lng": 114.17277
        },
        "location_type": "ROOFTOP",
        "viewport": {
          "northeast": {
            "lat": 22.2799224802915,
            "lng": 114.1741189802915
          },
          "southwest": {
            "lat": 22.2772245197085,
            "lng": 114.1714210197085
          }
        }
      },
      "partial_match": true,
      "place_id": "ChIJIXCYb1wABDQRm5H3TVgu1mc",
      "plus_code": {
        "compound_code": "75HF+C4 Hong Kong",
        "global_code": "7PJP75HF+C4"
      },
      "types": [
        "establishment",
        "food",
        "point_of_interest",
        "restaurant"
      ]
    }
  ],
  "geocode_tc": [
    {
      "address_components": [
        {
          "long_name": "\u6a02\u5c45\u6a13",
          "short_name": "\u6a02\u5c45\u6a13",
          "types": [
            "premise"
          ]
        },
        {
          "long_name": "118",
          "short_name": "118",
          "types": [
            "street_number"
          ]
        },
        {
          "long_name": "\u8b1d\u6590\u9053",
          "short_name": "\u8b1d\u6590\u9053",
          "types": [
            "route"
          ]
        },
        {
          "long_name": "\u7063\u4ed4",
          "short_name": "\u7063\u4ed4",
          "types": [
            "neighborhood",
            "political"
          ]
        },
        {
          "long_name": "\u9999\u6e2f\u5cf6",
          "short_name": "\u9999\u6e2f\u5cf6",
          "types": [
            "administrative_area_level_1",
            "political"
          ]
        },
        {
          "long_name": "\u9999\u6e2f",
          "short_name": "HK",
          "types": [
            "country",
            "political"
          ]
        }
      ],
      "formatted_address": "\u9999\u6e2f\u7063\u4ed4\u8b1d\u6590\u9053118\u865f\u6a02\u5c45\u6a13",
      "geometry": {
        "bounds": {
          "northeast": {
            "lat": 22.2785899,
            "lng": 114.1728821
          },
          "southwest": {
            "lat": 22.278431,
            "lng": 114.1726139
          }
        },
        "location": {
          "lat": 22.2785132,
          "lng": 114.1727552
        },
        "location_type": "ROOFTOP",
        "viewport": {
          "northeast": {
            "lat": 22.2798594302915,
            "lng": 114.1740969802915
          },
          "southwest": {
            "lat": 22.2771614697085,
            "lng": 114.1713990197085
          }
        }
      },
      "partial_match": true,
      "place_id": "ChIJSWmBb1wABDQRePGNIHOB0oc",
      "types": [
        "premise"
      ]
    }
  ],
  "licno": "2212813887",
  "timestamp": 1564966180,
  "version": "1564966095"
}
