{
  "adr_en": "\u5927\u548c\u7c89\u9eb5, SHOP NO. 119, G/F, CHOI CHU HOUSE, CHOI YUEN ESTATE, SHEUNG SHUI, NEW TERRITORIES",
  "adr_tc": "\u65b0\u754c\u4e0a\u6c34\u5f69\u5712\u90a8\u5f69\u73e0\u6a13\u5730\u4e0b119\u865f\u92ea \u5927\u548c\u7c89\u9eb5",
  "geocode_en": [
    {
      "address_components": [
        {
          "long_name": "Choi Yuen Road",
          "short_name": "Choi Yuen Rd",
          "types": [
            "route"
          ]
        },
        {
          "long_name": "Sheung Shui",
          "short_name": "Sheung Shui",
          "types": [
            "neighborhood",
            "political"
          ]
        },
        {
          "long_name": "Hong Kong",
          "short_name": "HK",
          "types": [
            "country",
            "political"
          ]
        }
      ],
      "formatted_address": "Hong Kong, Sheung Shui, Choi Yuen Rd, \u5f69 \u5712 \u5df4\u58eb \u7ad9 \u65c1\u908a",
      "geometry": {
        "location": {
          "lat": 22.5011343,
          "lng": 114.1257707
        },
        "location_type": "GEOMETRIC_CENTER",
        "viewport": {
          "northeast": {
            "lat": 22.50248328029151,
            "lng": 114.1271196802915
          },
          "southwest": {
            "lat": 22.4997853197085,
            "lng": 114.1244217197085
          }
        }
      },
      "partial_match": true,
      "place_id": "ChIJcQxR-RP2AzQRRgWv_Dz_vu4",
      "plus_code": {
        "compound_code": "G42G+F8 Hong Kong",
        "global_code": "7PJPG42G+F8"
      },
      "types": [
        "establishment",
        "food",
        "point_of_interest",
        "restaurant"
      ]
    },
    {
      "address_components": [
        {
          "long_name": "Choi Yuen Road",
          "short_name": "Choi Yuen Rd",
          "types": [
            "route"
          ]
        },
        {
          "long_name": "Sheung Shui",
          "short_name": "Sheung Shui",
          "types": [
            "neighborhood",
            "political"
          ]
        },
        {
          "long_name": "New Territories",
          "short_name": "New Territories",
          "types": [
            "administrative_area_level_1",
            "political"
          ]
        },
        {
          "long_name": "Hong Kong",
          "short_name": "HK",
          "types": [
            "country",
            "political"
          ]
        }
      ],
      "formatted_address": "Choi Yuen Rd, Sheung Shui, Hong Kong",
      "geometry": {
        "location": {
          "lat": 22.5019707,
          "lng": 114.126513
        },
        "location_type": "GEOMETRIC_CENTER",
        "viewport": {
          "northeast": {
            "lat": 22.5033196802915,
            "lng": 114.1278619802915
          },
          "southwest": {
            "lat": 22.50062171970849,
            "lng": 114.1251640197085
          }
        }
      },
      "partial_match": true,
      "place_id": "ChIJ2xqq4hP2AzQR_Ftsa-OXj78",
      "plus_code": {
        "compound_code": "G42G+QJ Hong Kong",
        "global_code": "7PJPG42G+QJ"
      },
      "types": [
        "establishment",
        "point_of_interest"
      ]
    }
  ],
  "geocode_tc": [
    {
      "address_components": [
        {
          "long_name": "\u9999\u6e2f",
          "short_name": "HK",
          "types": [
            "country",
            "political"
          ]
        }
      ],
      "formatted_address": "\u9999\u6e2f\u5f69\u5712\u8def",
      "geometry": {
        "location": {
          "lat": 22.500729,
          "lng": 114.125896
        },
        "location_type": "GEOMETRIC_CENTER",
        "viewport": {
          "northeast": {
            "lat": 22.5020779802915,
            "lng": 114.1272449802915
          },
          "southwest": {
            "lat": 22.4993800197085,
            "lng": 114.1245470197085
          }
        }
      },
      "partial_match": true,
      "place_id": "ChIJVxXX_BP2AzQRJvXkpSV4lGs",
      "plus_code": {
        "compound_code": "G42G+79 \u9999\u6e2f",
        "global_code": "7PJPG42G+79"
      },
      "types": [
        "establishment",
        "point_of_interest"
      ]
    }
  ],
  "licno": "3196800294",
  "timestamp": 1564975666,
  "version": "1564966095"
}
