{
  "adr_en": "\u674e\u597d\u5473, SHOP NO. 1 ON G/F. AND 1/F., 8 LYNDHURST TERRACE, NO. 2-10 LYNDHURST TERRACE, , CENTRAL, HONG KONG",
  "adr_tc": "\u9999\u6e2f\u4e2d\u74b0\u64fa\u82b1\u88572-10\u865f\u64fa\u82b1\u88578\u865f\u5730\u4e0b1\u865f\u8216\u53ca\u4e00\u6a13 \u674e\u597d\u5473",
  "geocode_en": [
    {
      "address_components": [
        {
          "long_name": "8",
          "short_name": "8",
          "types": [
            "street_number"
          ]
        },
        {
          "long_name": "Lyndhurst Terrace",
          "short_name": "Lyndhurst Terrace",
          "types": [
            "route"
          ]
        },
        {
          "long_name": "Central",
          "short_name": "Central",
          "types": [
            "neighborhood",
            "political"
          ]
        },
        {
          "long_name": "Hong Kong Island",
          "short_name": "Hong Kong Island",
          "types": [
            "administrative_area_level_1",
            "political"
          ]
        },
        {
          "long_name": "Hong Kong",
          "short_name": "HK",
          "types": [
            "country",
            "political"
          ]
        }
      ],
      "formatted_address": "8 Lyndhurst Terrace, Central, Hong Kong",
      "geometry": {
        "location": {
          "lat": 22.2823931,
          "lng": 114.1548047
        },
        "location_type": "ROOFTOP",
        "viewport": {
          "northeast": {
            "lat": 22.2837420802915,
            "lng": 114.1561536802915
          },
          "southwest": {
            "lat": 22.2810441197085,
            "lng": 114.1534557197085
          }
        }
      },
      "partial_match": true,
      "place_id": "ChIJeXciRHsABDQRvpBwI_t7AYo",
      "plus_code": {
        "compound_code": "75J3+XW Hong Kong",
        "global_code": "7PJP75J3+XW"
      },
      "types": [
        "establishment",
        "food",
        "point_of_interest",
        "restaurant"
      ]
    },
    {
      "address_components": [
        {
          "long_name": "1",
          "short_name": "1",
          "types": [
            "subpremise"
          ]
        },
        {
          "long_name": "Lyndhurst Terrace",
          "short_name": "Lyndhurst Terrace",
          "types": [
            "premise"
          ]
        },
        {
          "long_name": "2-10",
          "short_name": "2-10",
          "types": [
            "street_number"
          ]
        },
        {
          "long_name": "Lyndhurst Terrace",
          "short_name": "Lyndhurst Terrace",
          "types": [
            "route"
          ]
        },
        {
          "long_name": "Central",
          "short_name": "Central",
          "types": [
            "neighborhood",
            "political"
          ]
        },
        {
          "long_name": "Hong Kong Island",
          "short_name": "Hong Kong Island",
          "types": [
            "administrative_area_level_1",
            "political"
          ]
        },
        {
          "long_name": "Hong Kong",
          "short_name": "HK",
          "types": [
            "country",
            "political"
          ]
        }
      ],
      "formatted_address": "1, Lyndhurst Terrace, 2-10 Lyndhurst Terrace, Central, Hong Kong",
      "geometry": {
        "bounds": {
          "northeast": {
            "lat": 22.2824108,
            "lng": 114.1549075
          },
          "southwest": {
            "lat": 22.2823267,
            "lng": 114.1546615
          }
        },
        "location": {
          "lat": 22.2823795,
          "lng": 114.1547941
        },
        "location_type": "ROOFTOP",
        "viewport": {
          "northeast": {
            "lat": 22.2837177302915,
            "lng": 114.1561334802915
          },
          "southwest": {
            "lat": 22.2810197697085,
            "lng": 114.1534355197085
          }
        }
      },
      "partial_match": true,
      "place_id": "EkAxLCBMeW5kaHVyc3QgVGVycmFjZSwgMi0xMCBMeW5kaHVyc3QgVGVycmFjZSwgQ2VudHJhbCwgSG9uZyBLb25nIh0aGwoWChQKEgmfrh1EewAENBGYBDjTep5CBxIBMQ",
      "types": [
        "subpremise"
      ]
    },
    {
      "address_components": [
        {
          "long_name": "F",
          "short_name": "F",
          "types": [
            "subpremise"
          ]
        },
        {
          "long_name": "Lyndhurst Terrace",
          "short_name": "Lyndhurst Terrace",
          "types": [
            "premise"
          ]
        },
        {
          "long_name": "2-10",
          "short_name": "2-10",
          "types": [
            "street_number"
          ]
        },
        {
          "long_name": "Lyndhurst Terrace",
          "short_name": "Lyndhurst Terrace",
          "types": [
            "route"
          ]
        },
        {
          "long_name": "Central",
          "short_name": "Central",
          "types": [
            "neighborhood",
            "political"
          ]
        },
        {
          "long_name": "Hong Kong Island",
          "short_name": "Hong Kong Island",
          "types": [
            "administrative_area_level_1",
            "political"
          ]
        },
        {
          "long_name": "Hong Kong",
          "short_name": "HK",
          "types": [
            "country",
            "political"
          ]
        }
      ],
      "formatted_address": "F, Lyndhurst Terrace, 2-10 Lyndhurst Terrace, Central, Hong Kong",
      "geometry": {
        "bounds": {
          "northeast": {
            "lat": 22.2824108,
            "lng": 114.1549075
          },
          "southwest": {
            "lat": 22.2823267,
            "lng": 114.1546615
          }
        },
        "location": {
          "lat": 22.2823795,
          "lng": 114.1547941
        },
        "location_type": "ROOFTOP",
        "viewport": {
          "northeast": {
            "lat": 22.2837177302915,
            "lng": 114.1561334802915
          },
          "southwest": {
            "lat": 22.2810197697085,
            "lng": 114.1534355197085
          }
        }
      },
      "partial_match": true,
      "place_id": "EkBGLCBMeW5kaHVyc3QgVGVycmFjZSwgMi0xMCBMeW5kaHVyc3QgVGVycmFjZSwgQ2VudHJhbCwgSG9uZyBLb25nIh0aGwoWChQKEgmfrh1EewAENBGYBDjTep5CBxIBRg",
      "types": [
        "subpremise"
      ]
    },
    {
      "address_components": [
        {
          "long_name": "Lyndhurst Terrace",
          "short_name": "Lyndhurst Terrace",
          "types": [
            "premise"
          ]
        },
        {
          "long_name": "2-10",
          "short_name": "2-10",
          "types": [
            "street_number"
          ]
        },
        {
          "long_name": "Lyndhurst Terrace",
          "short_name": "Lyndhurst Terrace",
          "types": [
            "route"
          ]
        },
        {
          "long_name": "Central",
          "short_name": "Central",
          "types": [
            "neighborhood",
            "political"
          ]
        },
        {
          "long_name": "Hong Kong Island",
          "short_name": "Hong Kong Island",
          "types": [
            "administrative_area_level_1",
            "political"
          ]
        },
        {
          "long_name": "Hong Kong",
          "short_name": "HK",
          "types": [
            "country",
            "political"
          ]
        }
      ],
      "formatted_address": "Lyndhurst Terrace, 2-10 Lyndhurst Terrace, Central, Hong Kong",
      "geometry": {
        "bounds": {
          "northeast": {
            "lat": 22.2824108,
            "lng": 114.1549075
          },
          "southwest": {
            "lat": 22.2823267,
            "lng": 114.1546615
          }
        },
        "location": {
          "lat": 22.2823795,
          "lng": 114.1547941
        },
        "location_type": "ROOFTOP",
        "viewport": {
          "northeast": {
            "lat": 22.2837177302915,
            "lng": 114.1561334802915
          },
          "southwest": {
            "lat": 22.2810197697085,
            "lng": 114.1534355197085
          }
        }
      },
      "partial_match": true,
      "place_id": "ChIJn64dRHsABDQRmAQ403qeQgc",
      "types": [
        "premise"
      ]
    }
  ],
  "geocode_tc": [
    {
      "address_components": [
        {
          "long_name": "8",
          "short_name": "8",
          "types": [
            "street_number"
          ]
        },
        {
          "long_name": "\u64fa\u82b1\u8857",
          "short_name": "\u64fa\u82b1\u8857",
          "types": [
            "route"
          ]
        },
        {
          "long_name": "\u4e2d\u74b0",
          "short_name": "\u4e2d\u74b0",
          "types": [
            "neighborhood",
            "political"
          ]
        },
        {
          "long_name": "\u9999\u6e2f\u5cf6",
          "short_name": "\u9999\u6e2f\u5cf6",
          "types": [
            "administrative_area_level_1",
            "political"
          ]
        },
        {
          "long_name": "\u9999\u6e2f",
          "short_name": "HK",
          "types": [
            "country",
            "political"
          ]
        }
      ],
      "formatted_address": "\u9999\u6e2f\u4e2d\u74b0\u64fa\u82b1\u88578\u865f",
      "geometry": {
        "location": {
          "lat": 22.2823931,
          "lng": 114.1548047
        },
        "location_type": "ROOFTOP",
        "viewport": {
          "northeast": {
            "lat": 22.2837420802915,
            "lng": 114.1561536802915
          },
          "southwest": {
            "lat": 22.2810441197085,
            "lng": 114.1534557197085
          }
        }
      },
      "place_id": "ChIJeXciRHsABDQRvpBwI_t7AYo",
      "plus_code": {
        "compound_code": "75J3+XW \u9999\u6e2f",
        "global_code": "7PJP75J3+XW"
      },
      "types": [
        "establishment",
        "food",
        "point_of_interest",
        "restaurant"
      ]
    }
  ],
  "licno": "2218811166",
  "timestamp": 1564968756,
  "version": "1564966095"
}
