{
  "adr_en": "\u6f6e\u6ed9\u9928, SHOP NOS. 4 & 5, G/F, FEDERAL MANSION, 544-554 FUK WING STREET, SHAM SHUI PO, KOWLOON",
  "adr_tc": "\u4e5d\u9f8d\u6df1\u6c34\u57d7\u798f\u69ae\u8857544-554\u865f\u806f\u90a6\u5ee3\u5834\u5730\u4e0b4 & 5\u865f\u92ea \u6f6e\u6ed9\u9928",
  "geocode_en": [
    {
      "address_components": [
        {
          "long_name": "Hong Kong",
          "short_name": "HK",
          "types": [
            "country",
            "political"
          ]
        }
      ],
      "formatted_address": "Hong Kong, \u9577\u6c99\u7063\u798f\u69ae\u8857544-554\u865f\u806f\u90a6\u5ee3\u5834\u5730\u4e0b",
      "geometry": {
        "location": {
          "lat": 22.3395702,
          "lng": 114.1531654
        },
        "location_type": "GEOMETRIC_CENTER",
        "viewport": {
          "northeast": {
            "lat": 22.3409191802915,
            "lng": 114.1545143802915
          },
          "southwest": {
            "lat": 22.3382212197085,
            "lng": 114.1518164197085
          }
        }
      },
      "partial_match": true,
      "place_id": "ChIJRfnGgVEHBDQRrtJJ38MoVNA",
      "plus_code": {
        "compound_code": "85Q3+R7 Hong Kong",
        "global_code": "7PJP85Q3+R7"
      },
      "types": [
        "establishment",
        "food",
        "point_of_interest",
        "restaurant"
      ]
    },
    {
      "address_components": [
        {
          "long_name": "544",
          "short_name": "544",
          "types": [
            "street_number"
          ]
        },
        {
          "long_name": "Fuk Wing Street",
          "short_name": "Fuk Wing St",
          "types": [
            "route"
          ]
        },
        {
          "long_name": "Cheung Sha Wan",
          "short_name": "Cheung Sha Wan",
          "types": [
            "neighborhood",
            "political"
          ]
        },
        {
          "long_name": "Kowloon",
          "short_name": "Kowloon",
          "types": [
            "administrative_area_level_1",
            "political"
          ]
        },
        {
          "long_name": "Hong Kong",
          "short_name": "HK",
          "types": [
            "country",
            "political"
          ]
        }
      ],
      "formatted_address": "544 Fuk Wing St, Cheung Sha Wan, Hong Kong",
      "geometry": {
        "location": {
          "lat": 22.339717,
          "lng": 114.152885
        },
        "location_type": "ROOFTOP",
        "viewport": {
          "northeast": {
            "lat": 22.3410659802915,
            "lng": 114.1542339802915
          },
          "southwest": {
            "lat": 22.3383680197085,
            "lng": 114.1515360197085
          }
        }
      },
      "partial_match": true,
      "place_id": "ChIJo9rTgVEHBDQR_OL6MhBkHmk",
      "plus_code": {
        "compound_code": "85Q3+V5 Hong Kong",
        "global_code": "7PJP85Q3+V5"
      },
      "types": [
        "street_address"
      ]
    }
  ],
  "geocode_tc": [
    {
      "address_components": [
        {
          "long_name": "\u9999\u6e2f",
          "short_name": "HK",
          "types": [
            "country",
            "political"
          ]
        }
      ],
      "formatted_address": "\u9999\u6e2f\u9577\u6c99\u7063\u798f\u69ae\u8857544-554\u865f\u806f\u90a6\u5ee3\u5834\u5730\u4e0b",
      "geometry": {
        "location": {
          "lat": 22.3395702,
          "lng": 114.1531654
        },
        "location_type": "GEOMETRIC_CENTER",
        "viewport": {
          "northeast": {
            "lat": 22.3409191802915,
            "lng": 114.1545143802915
          },
          "southwest": {
            "lat": 22.3382212197085,
            "lng": 114.1518164197085
          }
        }
      },
      "place_id": "ChIJRfnGgVEHBDQRrtJJ38MoVNA",
      "plus_code": {
        "compound_code": "85Q3+R7 \u9999\u6e2f",
        "global_code": "7PJP85Q3+R7"
      },
      "types": [
        "establishment",
        "food",
        "point_of_interest",
        "restaurant"
      ]
    }
  ],
  "licno": "2263802690",
  "timestamp": 1564968756,
  "version": "1564966095"
}
