{
  "adr_en": "\u6c38\u88d5\u6cf0, G/F., 11 LO WAI TSUEN, PUI O, LANTAU ISLAND, NEW TERRITORIES",
  "adr_tc": "\u5927\u5dbc\u5c71\u8c9d\u6fb3\u8001\u570d\u675111\u865f\u5730\u4e0b \u6c38\u88d5\u6cf0",
  "geocode_en": [
    {
      "address_components": [
        {
          "long_name": "Hong Kong",
          "short_name": "HK",
          "types": [
            "country",
            "political"
          ]
        }
      ],
      "formatted_address": "Hong Kong, \u5927\u5dbc\u5c71\u8c9d\u6fb3\u8001\u570d\u675111\u865f\u5730\u4e0b",
      "geometry": {
        "location": {
          "lat": 22.244298,
          "lng": 113.978818
        },
        "location_type": "GEOMETRIC_CENTER",
        "viewport": {
          "northeast": {
            "lat": 22.2456469802915,
            "lng": 113.9801669802915
          },
          "southwest": {
            "lat": 22.2429490197085,
            "lng": 113.9774690197085
          }
        }
      },
      "partial_match": true,
      "place_id": "ChIJjxxhC75XATQRXpanl_Knpbw",
      "plus_code": {
        "compound_code": "6XVH+PG Hong Kong",
        "global_code": "7PJM6XVH+PG"
      },
      "types": [
        "establishment",
        "food",
        "point_of_interest",
        "restaurant"
      ]
    },
    {
      "address_components": [
        {
          "long_name": "Hong Kong",
          "short_name": "HK",
          "types": [
            "country",
            "political"
          ]
        }
      ],
      "formatted_address": "Lantau Island, New Territories, Hong Kong",
      "geometry": {
        "location": {
          "lat": 22.2445038,
          "lng": 113.9791876
        },
        "location_type": "GEOMETRIC_CENTER",
        "viewport": {
          "northeast": {
            "lat": 22.24585278029151,
            "lng": 113.9805365802915
          },
          "southwest": {
            "lat": 22.2431548197085,
            "lng": 113.9778386197085
          }
        }
      },
      "partial_match": true,
      "place_id": "ChIJKR4mCr9XATQRl7dcwfZ0gys",
      "plus_code": {
        "compound_code": "6XVH+RM Hong Kong",
        "global_code": "7PJM6XVH+RM"
      },
      "types": [
        "establishment",
        "point_of_interest"
      ]
    }
  ],
  "geocode_tc": [
    {
      "address_components": [
        {
          "long_name": "\u9999\u6e2f",
          "short_name": "HK",
          "types": [
            "country",
            "political"
          ]
        }
      ],
      "formatted_address": "\u9999\u6e2f\u5927\u5dbc\u5c71\u8c9d\u6fb3\u8001\u570d\u675111\u865f\u5730\u4e0b",
      "geometry": {
        "location": {
          "lat": 22.244298,
          "lng": 113.978818
        },
        "location_type": "GEOMETRIC_CENTER",
        "viewport": {
          "northeast": {
            "lat": 22.2456469802915,
            "lng": 113.9801669802915
          },
          "southwest": {
            "lat": 22.2429490197085,
            "lng": 113.9774690197085
          }
        }
      },
      "place_id": "ChIJjxxhC75XATQRXpanl_Knpbw",
      "plus_code": {
        "compound_code": "6XVH+PG \u9999\u6e2f",
        "global_code": "7PJM6XVH+PG"
      },
      "types": [
        "establishment",
        "food",
        "point_of_interest",
        "restaurant"
      ]
    }
  ],
  "licno": "2217000677",
  "timestamp": 1564968756,
  "version": "1564966095"
}
