{
  "adr_en": "Chiu Chong, SHOP UNIT G83, G/F, PLAZA ASCOT, 1 TSUN KING ROAD, FO TAN, SHA TIN, NEW TERRITORIES",
  "adr_tc": "\u65b0\u754c\u6c99\u7530\u706b\u70ad\u99ff\u666f\u8def1\u865f\u99ff\u666f\u5ee3\u5834\u5730\u4e0bG83\u865f\u92ea \u6f6e\u838a",
  "geocode_en": [
    {
      "address_components": [
        {
          "long_name": "Hong Kong",
          "short_name": "HK",
          "types": [
            "country",
            "political"
          ]
        }
      ],
      "formatted_address": "Shop G83, G/F, Plaza Ascot, 1 Tsun King Road, Fo Tan, Hong Kong",
      "geometry": {
        "location": {
          "lat": 22.3986627,
          "lng": 114.2013757
        },
        "location_type": "GEOMETRIC_CENTER",
        "viewport": {
          "northeast": {
            "lat": 22.4000116802915,
            "lng": 114.2027246802915
          },
          "southwest": {
            "lat": 22.3973137197085,
            "lng": 114.2000267197085
          }
        }
      },
      "partial_match": true,
      "place_id": "ChIJqSurcDAGBDQRMSnhKnxCH0Y",
      "plus_code": {
        "compound_code": "96X2+FH Hong Kong",
        "global_code": "7PJP96X2+FH"
      },
      "types": [
        "establishment",
        "food",
        "point_of_interest",
        "restaurant"
      ]
    },
    {
      "address_components": [
        {
          "long_name": "1",
          "short_name": "1",
          "types": [
            "street_number"
          ]
        },
        {
          "long_name": "Tsun King Road",
          "short_name": "Tsun King Rd",
          "types": [
            "route"
          ]
        },
        {
          "long_name": "Fo Tan",
          "short_name": "Fo Tan",
          "types": [
            "neighborhood",
            "political"
          ]
        },
        {
          "long_name": "New Territories",
          "short_name": "New Territories",
          "types": [
            "administrative_area_level_1",
            "political"
          ]
        },
        {
          "long_name": "Hong Kong",
          "short_name": "HK",
          "types": [
            "country",
            "political"
          ]
        }
      ],
      "formatted_address": "1 Tsun King Rd, Fo Tan, Hong Kong",
      "geometry": {
        "location": {
          "lat": 22.398948,
          "lng": 114.201326
        },
        "location_type": "ROOFTOP",
        "viewport": {
          "northeast": {
            "lat": 22.4002969802915,
            "lng": 114.2026749802915
          },
          "southwest": {
            "lat": 22.3975990197085,
            "lng": 114.1999770197085
          }
        }
      },
      "partial_match": true,
      "place_id": "ChIJOTgczTAGBDQRUIjkvFSBnLo",
      "plus_code": {
        "compound_code": "96X2+HG Hong Kong",
        "global_code": "7PJP96X2+HG"
      },
      "types": [
        "establishment",
        "point_of_interest",
        "shopping_mall"
      ]
    }
  ],
  "geocode_tc": [
    {
      "address_components": [
        {
          "long_name": "\u9999\u6e2f",
          "short_name": "HK",
          "types": [
            "country",
            "political"
          ]
        }
      ],
      "formatted_address": "Shop G83, G/F, Plaza Ascot, 1 Tsun King Road, Fo Tan, \u9999\u6e2f",
      "geometry": {
        "location": {
          "lat": 22.3986627,
          "lng": 114.2013757
        },
        "location_type": "GEOMETRIC_CENTER",
        "viewport": {
          "northeast": {
            "lat": 22.4000116802915,
            "lng": 114.2027246802915
          },
          "southwest": {
            "lat": 22.3973137197085,
            "lng": 114.2000267197085
          }
        }
      },
      "partial_match": true,
      "place_id": "ChIJqSurcDAGBDQRMSnhKnxCH0Y",
      "plus_code": {
        "compound_code": "96X2+FH \u9999\u6e2f",
        "global_code": "7PJP96X2+FH"
      },
      "types": [
        "establishment",
        "food",
        "point_of_interest",
        "restaurant"
      ]
    },
    {
      "address_components": [
        {
          "long_name": "1",
          "short_name": "1",
          "types": [
            "street_number"
          ]
        },
        {
          "long_name": "\u99ff\u666f\u8def",
          "short_name": "\u99ff\u666f\u8def",
          "types": [
            "route"
          ]
        },
        {
          "long_name": "\u706b\u70ad",
          "short_name": "\u706b\u70ad",
          "types": [
            "neighborhood",
            "political"
          ]
        },
        {
          "long_name": "\u65b0\u754c",
          "short_name": "\u65b0\u754c",
          "types": [
            "administrative_area_level_1",
            "political"
          ]
        },
        {
          "long_name": "\u9999\u6e2f",
          "short_name": "HK",
          "types": [
            "country",
            "political"
          ]
        }
      ],
      "formatted_address": "\u9999\u6e2f\u706b\u70ad\u99ff\u666f\u8def1\u865f",
      "geometry": {
        "location": {
          "lat": 22.398948,
          "lng": 114.201326
        },
        "location_type": "ROOFTOP",
        "viewport": {
          "northeast": {
            "lat": 22.4002969802915,
            "lng": 114.2026749802915
          },
          "southwest": {
            "lat": 22.3975990197085,
            "lng": 114.1999770197085
          }
        }
      },
      "partial_match": true,
      "place_id": "ChIJOTgczTAGBDQRUIjkvFSBnLo",
      "plus_code": {
        "compound_code": "96X2+HG \u9999\u6e2f",
        "global_code": "7PJP96X2+HG"
      },
      "types": [
        "establishment",
        "point_of_interest",
        "shopping_mall"
      ]
    }
  ],
  "licno": "2297802590",
  "timestamp": 1564975666,
  "version": "1564966095"
}
