{
  "adr_en": "\u751f\u9f8d\u6e05\u6e6f\u8169\u9910\u5ef3, SHOP 2, G/F & MEZZ. FLOOR, FUK CHEONG BUILDING, 12 KWONG FUK LANE, TAI PO, NEW TERRITORIES",
  "adr_tc": "\u65b0\u754c\u5927\u57d4\u5ee3\u798f\u91cc12\u865f\u798f\u660c\u6a13\u5730\u4e0b\u53ca\u95a3\u6a132\u865f\u92ea San Lung restaurant",
  "geocode_en": [
    {
      "address_components": [
        {
          "long_name": "Hong Kong",
          "short_name": "HK",
          "types": [
            "country",
            "political"
          ]
        }
      ],
      "formatted_address": "Hong Kong, \u5927\u57d4 \u5ee3\u798f\u9053106-112\u865f\u57f9\u9326\u6a13\u5730\u4e0b4\u865f\u92ea",
      "geometry": {
        "location": {
          "lat": 22.4481393,
          "lng": 114.1679725
        },
        "location_type": "GEOMETRIC_CENTER",
        "viewport": {
          "northeast": {
            "lat": 22.4494882802915,
            "lng": 114.1693214802915
          },
          "southwest": {
            "lat": 22.44679031970849,
            "lng": 114.1666235197085
          }
        }
      },
      "partial_match": true,
      "place_id": "ChIJoZ6UqEAIBDQRQEc1aGMU9nc",
      "plus_code": {
        "compound_code": "C5X9+75 Hong Kong",
        "global_code": "7PJPC5X9+75"
      },
      "types": [
        "establishment",
        "food",
        "point_of_interest",
        "restaurant"
      ]
    },
    {
      "address_components": [
        {
          "long_name": "Fuk Cheong Building",
          "short_name": "Fuk Cheong Building",
          "types": [
            "premise"
          ]
        },
        {
          "long_name": "12-14",
          "short_name": "12-14",
          "types": [
            "street_number"
          ]
        },
        {
          "long_name": "Kwong Fuk Lane",
          "short_name": "Kwong Fuk Ln",
          "types": [
            "route"
          ]
        },
        {
          "long_name": "Tai Po",
          "short_name": "Tai Po",
          "types": [
            "neighborhood",
            "political"
          ]
        },
        {
          "long_name": "New Territories",
          "short_name": "New Territories",
          "types": [
            "administrative_area_level_1",
            "political"
          ]
        },
        {
          "long_name": "Hong Kong",
          "short_name": "HK",
          "types": [
            "country",
            "political"
          ]
        }
      ],
      "formatted_address": "Fuk Cheong Building, 12-14 Kwong Fuk Ln, Tai Po, Hong Kong",
      "geometry": {
        "bounds": {
          "northeast": {
            "lat": 22.4481971,
            "lng": 114.1676229
          },
          "southwest": {
            "lat": 22.447844,
            "lng": 114.1672911
          }
        },
        "location": {
          "lat": 22.4480055,
          "lng": 114.1674837
        },
        "location_type": "ROOFTOP",
        "viewport": {
          "northeast": {
            "lat": 22.4493695302915,
            "lng": 114.1688059802915
          },
          "southwest": {
            "lat": 22.4466715697085,
            "lng": 114.1661080197085
          }
        }
      },
      "partial_match": true,
      "place_id": "ChIJL4i8WT8IBDQRIrRNaDRuiAk",
      "types": [
        "premise"
      ]
    }
  ],
  "geocode_tc": [
    {
      "address_components": [
        {
          "long_name": "\u865f\u92ea",
          "short_name": "\u865f\u92ea",
          "types": [
            "subpremise"
          ]
        },
        {
          "long_name": "\u798f\u660c\u6a13",
          "short_name": "\u798f\u660c\u6a13",
          "types": [
            "premise"
          ]
        },
        {
          "long_name": "12-14",
          "short_name": "12-14",
          "types": [
            "street_number"
          ]
        },
        {
          "long_name": "\u5ee3\u798f\u91cc",
          "short_name": "\u5ee3\u798f\u91cc",
          "types": [
            "route"
          ]
        },
        {
          "long_name": "\u5927\u57d4",
          "short_name": "\u5927\u57d4",
          "types": [
            "neighborhood",
            "political"
          ]
        },
        {
          "long_name": "\u65b0\u754c",
          "short_name": "\u65b0\u754c",
          "types": [
            "administrative_area_level_1",
            "political"
          ]
        },
        {
          "long_name": "\u9999\u6e2f",
          "short_name": "HK",
          "types": [
            "country",
            "political"
          ]
        }
      ],
      "formatted_address": "\u9999\u6e2f\u5927\u57d4\u5ee3\u798f\u91cc12-14\u865f\u798f\u660c\u6a13\u865f\u92ea",
      "geometry": {
        "bounds": {
          "northeast": {
            "lat": 22.4481971,
            "lng": 114.1676229
          },
          "southwest": {
            "lat": 22.447844,
            "lng": 114.1672911
          }
        },
        "location": {
          "lat": 22.4480055,
          "lng": 114.1674837
        },
        "location_type": "ROOFTOP",
        "viewport": {
          "northeast": {
            "lat": 22.4493695302915,
            "lng": 114.1688059802915
          },
          "southwest": {
            "lat": 22.4466715697085,
            "lng": 114.1661080197085
          }
        }
      },
      "partial_match": true,
      "place_id": "EkLomZ_pi6osIEZ1ayBDaGVvbmcgQnVpbGRpbmcsIDEyLTE0IEt3b25nIEZ1ayBMbiwgVGFpIFBvLCBIb25nIEtvbmciIhogChYKFAoSCS-IvFk_CAQ0ESK0TWg0bogJEgbomZ_pi6o",
      "types": [
        "subpremise"
      ]
    }
  ],
  "licno": "2295802648",
  "timestamp": 1564975666,
  "version": "1564966095"
}
