{
  "adr_en": "TOUCH WOOD, 6/F, THE LAMMA TOWER, 12-12A HAU FOOK STREET, TSIM SHA TSUI, KOWLOON",
  "adr_tc": "\u4e5d\u9f8d\u5c16\u6c99\u5480\u539a\u798f\u885712-12A\u85cd\u99ac\u5546\u696d\u5927\u53a66\u6a13 TOUCH WOOD",
  "geocode_en": [
    {
      "address_components": [
        {
          "long_name": "The Lamma Tower",
          "short_name": "The Lamma Tower",
          "types": [
            "premise"
          ]
        },
        {
          "long_name": "12-12A",
          "short_name": "12-12A",
          "types": [
            "street_number"
          ]
        },
        {
          "long_name": "Hau Fook Street",
          "short_name": "Hau Fook St",
          "types": [
            "route"
          ]
        },
        {
          "long_name": "Tsim Sha Tsui",
          "short_name": "Tsim Sha Tsui",
          "types": [
            "neighborhood",
            "political"
          ]
        },
        {
          "long_name": "Kowloon",
          "short_name": "Kowloon",
          "types": [
            "administrative_area_level_1",
            "political"
          ]
        },
        {
          "long_name": "Hong Kong",
          "short_name": "HK",
          "types": [
            "country",
            "political"
          ]
        }
      ],
      "formatted_address": "The Lamma Tower, 12-12A Hau Fook St, Tsim Sha Tsui, Hong Kong",
      "geometry": {
        "bounds": {
          "northeast": {
            "lat": 22.2996769,
            "lng": 114.1739559
          },
          "southwest": {
            "lat": 22.2995231,
            "lng": 114.1738269
          }
        },
        "location": {
          "lat": 22.2996133,
          "lng": 114.1738698
        },
        "location_type": "ROOFTOP",
        "viewport": {
          "northeast": {
            "lat": 22.3009489802915,
            "lng": 114.1752403802915
          },
          "southwest": {
            "lat": 22.29825101970849,
            "lng": 114.1725424197085
          }
        }
      },
      "partial_match": true,
      "place_id": "ChIJGXzSfu4ABDQRXr1_Qfm_Ffc",
      "types": [
        "premise"
      ]
    }
  ],
  "geocode_tc": [
    {
      "address_components": [
        {
          "long_name": "\u85cd\u99ac\u5546\u696d\u5927\u5ec8",
          "short_name": "\u85cd\u99ac\u5546\u696d\u5927\u5ec8",
          "types": [
            "premise"
          ]
        },
        {
          "long_name": "12-12A",
          "short_name": "12-12A",
          "types": [
            "street_number"
          ]
        },
        {
          "long_name": "\u539a\u798f\u8857",
          "short_name": "\u539a\u798f\u8857",
          "types": [
            "route"
          ]
        },
        {
          "long_name": "\u5c16\u6c99\u5480",
          "short_name": "\u5c16\u6c99\u5480",
          "types": [
            "neighborhood",
            "political"
          ]
        },
        {
          "long_name": "\u4e5d\u9f8d",
          "short_name": "\u4e5d\u9f8d",
          "types": [
            "administrative_area_level_1",
            "political"
          ]
        },
        {
          "long_name": "\u9999\u6e2f",
          "short_name": "HK",
          "types": [
            "country",
            "political"
          ]
        }
      ],
      "formatted_address": "\u9999\u6e2f\u5c16\u6c99\u5480\u539a\u798f\u885712-12A\u865f\u85cd\u99ac\u5546\u696d\u5927\u5ec8",
      "geometry": {
        "bounds": {
          "northeast": {
            "lat": 22.2996769,
            "lng": 114.1739559
          },
          "southwest": {
            "lat": 22.2995231,
            "lng": 114.1738269
          }
        },
        "location": {
          "lat": 22.2996133,
          "lng": 114.1738698
        },
        "location_type": "ROOFTOP",
        "viewport": {
          "northeast": {
            "lat": 22.3009489802915,
            "lng": 114.1752403802915
          },
          "southwest": {
            "lat": 22.29825101970849,
            "lng": 114.1725424197085
          }
        }
      },
      "partial_match": true,
      "place_id": "ChIJGXzSfu4ABDQRXr1_Qfm_Ffc",
      "types": [
        "premise"
      ]
    }
  ],
  "licno": "3161802223",
  "timestamp": 1564975666,
  "version": "1564966095"
}
