{
  "adr_en": "\u5929\u8aa0\u6f6e\u83dc, SHOP NO G3 & G4, G/F, KA KWAI ARCADE, YAU TONG CENTRE, 9-11 KA WING STREET, YAU TONG, KOWLOON",
  "adr_tc": "\u4e5d\u9f8d\u6cb9\u5858\u5609\u69ae\u88579-11\u865f\u6cb9\u5858\u4e2d\u5fc3 \u5609\u8cb4\u5546\u57f8\u5730\u4e0bG3\u53caG4\u92ea \u5929\u8aa0\u6f6e\u83dc",
  "geocode_en": [
    {
      "address_components": [
        {
          "long_name": "Hong Kong",
          "short_name": "HK",
          "types": [
            "country",
            "political"
          ]
        }
      ],
      "formatted_address": "Shop 9-11, G/F, Ka Kwai Arcade, Yau Tong Centre, Yau Tong, Hong Kong",
      "geometry": {
        "location": {
          "lat": 22.2944421,
          "lng": 114.2388176
        },
        "location_type": "GEOMETRIC_CENTER",
        "viewport": {
          "northeast": {
            "lat": 22.2957910802915,
            "lng": 114.2401665802915
          },
          "southwest": {
            "lat": 22.2930931197085,
            "lng": 114.2374686197085
          }
        }
      },
      "place_id": "ChIJcxc22GEBBDQRKiczDiezeWk",
      "plus_code": {
        "compound_code": "76VQ+QG Hong Kong",
        "global_code": "7PJP76VQ+QG"
      },
      "types": [
        "establishment",
        "food",
        "point_of_interest",
        "restaurant"
      ]
    }
  ],
  "geocode_tc": [
    {
      "address_components": [
        {
          "long_name": "1",
          "short_name": "1",
          "types": [
            "street_number"
          ]
        },
        {
          "long_name": "Ka Wing Street",
          "short_name": "Ka Wing St",
          "types": [
            "route"
          ]
        },
        {
          "long_name": "Yau Tong",
          "short_name": "Yau Tong",
          "types": [
            "neighborhood",
            "political"
          ]
        },
        {
          "long_name": "\u9999\u6e2f",
          "short_name": "HK",
          "types": [
            "country",
            "political"
          ]
        }
      ],
      "formatted_address": "\u865f, 1 Ka Wing St, Yau Tong, \u9999\u6e2f",
      "geometry": {
        "location": {
          "lat": 22.2944725,
          "lng": 114.2389596
        },
        "location_type": "ROOFTOP",
        "viewport": {
          "northeast": {
            "lat": 22.2958214802915,
            "lng": 114.2403085802915
          },
          "southwest": {
            "lat": 22.29312351970849,
            "lng": 114.2376106197085
          }
        }
      },
      "partial_match": true,
      "place_id": "ChIJEXoV2GEBBDQR_ta8X1yQ7xM",
      "plus_code": {
        "compound_code": "76VQ+QH \u9999\u6e2f",
        "global_code": "7PJP76VQ+QH"
      },
      "types": [
        "establishment",
        "point_of_interest",
        "shopping_mall"
      ]
    },
    {
      "address_components": [
        {
          "long_name": "\u9999\u6e2f",
          "short_name": "HK",
          "types": [
            "country",
            "political"
          ]
        }
      ],
      "formatted_address": "Shop 9-11, G/F, Ka Kwai Arcade, Yau Tong Centre, Yau Tong, \u9999\u6e2f",
      "geometry": {
        "location": {
          "lat": 22.2944421,
          "lng": 114.2388176
        },
        "location_type": "GEOMETRIC_CENTER",
        "viewport": {
          "northeast": {
            "lat": 22.2957910802915,
            "lng": 114.2401665802915
          },
          "southwest": {
            "lat": 22.2930931197085,
            "lng": 114.2374686197085
          }
        }
      },
      "partial_match": true,
      "place_id": "ChIJcxc22GEBBDQRKiczDiezeWk",
      "plus_code": {
        "compound_code": "76VQ+QG \u9999\u6e2f",
        "global_code": "7PJP76VQ+QG"
      },
      "types": [
        "establishment",
        "food",
        "point_of_interest",
        "restaurant"
      ]
    }
  ],
  "licno": "2251802295",
  "timestamp": 1564968756,
  "version": "1564966095"
}
