{
  "adr_en": "Shanghai Min, SHOP NOS. UG 2-13, 45-51,UG/F, TSIM SHA TSUI CENTRE, NO. 66 MODY ROAD, TSIM SHA TSUI, KOWLOON",
  "adr_tc": "\u4e5d\u9f8d\u5c16\u6c99\u5480\u6771\u9ebc\u5730\u905366\u865f\u5c16\u6c99\u5480\u4e2d\u5fc3 \u9ad8\u5c64\u5730\u4e0b2-13,45-51\u865f\u8216 \u4e0a\u6d77\u5c0f\u5357\u570b",
  "geocode_en": [
    {
      "address_components": [
        {
          "long_name": "Tsim Sha Tsui Centre",
          "short_name": "Tsim Sha Tsui Centre",
          "types": [
            "premise"
          ]
        },
        {
          "long_name": "66",
          "short_name": "66",
          "types": [
            "street_number"
          ]
        },
        {
          "long_name": "Mody Road",
          "short_name": "Mody Rd",
          "types": [
            "route"
          ]
        },
        {
          "long_name": "Tsim Sha Tsui East",
          "short_name": "Tsim Sha Tsui East",
          "types": [
            "neighborhood",
            "political"
          ]
        },
        {
          "long_name": "Kowloon",
          "short_name": "Kowloon",
          "types": [
            "administrative_area_level_1",
            "political"
          ]
        },
        {
          "long_name": "Hong Kong",
          "short_name": "HK",
          "types": [
            "country",
            "political"
          ]
        }
      ],
      "formatted_address": "Tsim Sha Tsui Centre, 66 Mody Rd, Tsim Sha Tsui East, Hong Kong",
      "geometry": {
        "bounds": {
          "northeast": {
            "lat": 22.2981738,
            "lng": 114.1782613
          },
          "southwest": {
            "lat": 22.297338,
            "lng": 114.1774126
          }
        },
        "location": {
          "lat": 22.2976578,
          "lng": 114.1778408
        },
        "location_type": "ROOFTOP",
        "viewport": {
          "northeast": {
            "lat": 22.29910488029151,
            "lng": 114.1791859302915
          },
          "southwest": {
            "lat": 22.2964069197085,
            "lng": 114.1764879697085
          }
        }
      },
      "partial_match": true,
      "place_id": "ChIJ33E2we8ABDQRMDQHOf6cBcE",
      "types": [
        "premise"
      ]
    }
  ],
  "geocode_tc": [
    {
      "address_components": [
        {
          "long_name": "\u9999\u6e2f",
          "short_name": "HK",
          "types": [
            "country",
            "political"
          ]
        }
      ],
      "formatted_address": "\u9999\u6e2f\u5c16\u6c99\u5480\u9ebc\u5730\u905366\u865f\u5c16\u6c99\u5480\u4e2d\u5fc3UG2\u5c64",
      "geometry": {
        "location": {
          "lat": 22.297566,
          "lng": 114.177703
        },
        "location_type": "GEOMETRIC_CENTER",
        "viewport": {
          "northeast": {
            "lat": 22.2989149802915,
            "lng": 114.1790519802915
          },
          "southwest": {
            "lat": 22.2962170197085,
            "lng": 114.1763540197085
          }
        }
      },
      "place_id": "ChIJxZE2we8ABDQRInVz0aTm6uk",
      "plus_code": {
        "compound_code": "75XH+23 \u9999\u6e2f",
        "global_code": "7PJP75XH+23"
      },
      "types": [
        "establishment",
        "food",
        "point_of_interest",
        "restaurant"
      ]
    }
  ],
  "licno": "2261801435",
  "timestamp": 1564968756,
  "version": "1564966095"
}
