{
  "adr_en": "Eastern Plus, SHOP 28A, 28B, 29A & 33, G/F, LAGUNA PLAZA, NO. 88 CHA KWO LING ROAD, KWUN TONG, KOWLOON",
  "adr_tc": "\u4e5d\u9f8d\u89c0\u5858\u8336\u679c\u5dba\u905388\u865f\u9e97\u6e2f\u57ce\u5546\u5834 \u5730\u4e0b28A, 28B, 29A & 33\u865f\u8216 \u6771\u5357\u52a0",
  "geocode_en": [
    {
      "address_components": [
        {
          "long_name": "Laguna Plaza",
          "short_name": "Laguna Plaza",
          "types": [
            "premise"
          ]
        },
        {
          "long_name": "88",
          "short_name": "88",
          "types": [
            "street_number"
          ]
        },
        {
          "long_name": "Cha Kwo Ling Road",
          "short_name": "Cha Kwo Ling Rd",
          "types": [
            "route"
          ]
        },
        {
          "long_name": "Laguna City",
          "short_name": "Laguna City",
          "types": [
            "neighborhood",
            "political"
          ]
        },
        {
          "long_name": "Kowloon",
          "short_name": "Kowloon",
          "types": [
            "administrative_area_level_1",
            "political"
          ]
        },
        {
          "long_name": "Hong Kong",
          "short_name": "HK",
          "types": [
            "country",
            "political"
          ]
        }
      ],
      "formatted_address": "Laguna Plaza, 88 Cha Kwo Ling Rd, Laguna City, Hong Kong",
      "geometry": {
        "bounds": {
          "northeast": {
            "lat": 22.307327,
            "lng": 114.2283709
          },
          "southwest": {
            "lat": 22.3064319,
            "lng": 114.227605
          }
        },
        "location": {
          "lat": 22.3068298,
          "lng": 114.2279975
        },
        "location_type": "ROOFTOP",
        "viewport": {
          "northeast": {
            "lat": 22.3082284302915,
            "lng": 114.2293369302915
          },
          "southwest": {
            "lat": 22.3055304697085,
            "lng": 114.2266389697085
          }
        }
      },
      "partial_match": true,
      "place_id": "ChIJB5k3OFsBBDQRtC4zlgFV-1k",
      "types": [
        "premise"
      ]
    }
  ],
  "geocode_tc": [
    {
      "address_components": [
        {
          "long_name": "\u9e97\u6e2f\u57ce\u5546\u5834",
          "short_name": "\u9e97\u6e2f\u57ce\u5546\u5834",
          "types": [
            "premise"
          ]
        },
        {
          "long_name": "88",
          "short_name": "88",
          "types": [
            "street_number"
          ]
        },
        {
          "long_name": "\u8336\u679c\u5dba\u9053",
          "short_name": "\u8336\u679c\u5dba\u9053",
          "types": [
            "route"
          ]
        },
        {
          "long_name": "\u9e97\u6e2f\u57ce",
          "short_name": "\u9e97\u6e2f\u57ce",
          "types": [
            "neighborhood",
            "political"
          ]
        },
        {
          "long_name": "\u4e5d\u9f8d",
          "short_name": "\u4e5d\u9f8d",
          "types": [
            "administrative_area_level_1",
            "political"
          ]
        },
        {
          "long_name": "\u9999\u6e2f",
          "short_name": "HK",
          "types": [
            "country",
            "political"
          ]
        }
      ],
      "formatted_address": "\u9999\u6e2f\u9e97\u6e2f\u57ce\u8336\u679c\u5dba\u905388\u865f\u9e97\u6e2f\u57ce\u5546\u5834",
      "geometry": {
        "bounds": {
          "northeast": {
            "lat": 22.307327,
            "lng": 114.2283709
          },
          "southwest": {
            "lat": 22.3064319,
            "lng": 114.227605
          }
        },
        "location": {
          "lat": 22.3068298,
          "lng": 114.2279975
        },
        "location_type": "ROOFTOP",
        "viewport": {
          "northeast": {
            "lat": 22.3082284302915,
            "lng": 114.2293369302915
          },
          "southwest": {
            "lat": 22.3055304697085,
            "lng": 114.2266389697085
          }
        }
      },
      "partial_match": true,
      "place_id": "ChIJB5k3OFsBBDQRtC4zlgFV-1k",
      "types": [
        "premise"
      ]
    },
    {
      "address_components": [
        {
          "long_name": "88",
          "short_name": "88",
          "types": [
            "street_number"
          ]
        },
        {
          "long_name": "\u8336\u679c\u5dba\u9053",
          "short_name": "\u8336\u679c\u5dba\u9053",
          "types": [
            "route"
          ]
        },
        {
          "long_name": "\u9e97\u6e2f\u57ce",
          "short_name": "\u9e97\u6e2f\u57ce",
          "types": [
            "neighborhood",
            "political"
          ]
        },
        {
          "long_name": "\u4e5d\u9f8d",
          "short_name": "\u4e5d\u9f8d",
          "types": [
            "administrative_area_level_1",
            "political"
          ]
        },
        {
          "long_name": "\u9999\u6e2f",
          "short_name": "HK",
          "types": [
            "country",
            "political"
          ]
        }
      ],
      "formatted_address": "\u9999\u6e2f\u9e97\u6e2f\u57ce\u8336\u679c\u5dba\u905388\u865f",
      "geometry": {
        "location": {
          "lat": 22.3068005,
          "lng": 114.2281831
        },
        "location_type": "ROOFTOP",
        "viewport": {
          "northeast": {
            "lat": 22.3081494802915,
            "lng": 114.2295320802915
          },
          "southwest": {
            "lat": 22.30545151970849,
            "lng": 114.2268341197085
          }
        }
      },
      "partial_match": true,
      "place_id": "ChIJrarqOFsBBDQRBk7x951-63E",
      "plus_code": {
        "compound_code": "864H+P7 \u9999\u6e2f",
        "global_code": "7PJP864H+P7"
      },
      "types": [
        "establishment",
        "food",
        "point_of_interest",
        "restaurant"
      ]
    }
  ],
  "licno": "2251804644",
  "timestamp": 1564968756,
  "version": "1564966095"
}
