{
  "adr_en": "HOLLYBROWN, G/F. & 1/F., DOUBLE BUILDING, NO. 22 STANLEY STREET, CENTRAL, HONG KONG",
  "adr_tc": "\u9999\u6e2f\u4e2d\u74b0\u58eb\u4e39\u5229\u885722\u865f\u767b\u5bf6\u5927\u5ec8\u5730\u4e0b\u53ca\u4e00\u6a13 HOLLYBROWN",
  "geocode_en": [
    {
      "address_components": [
        {
          "long_name": "Hong Kong",
          "short_name": "HK",
          "types": [
            "country",
            "political"
          ]
        }
      ],
      "formatted_address": "Hong Kong, 22 Stanley Street, Central, Hong Kong",
      "geometry": {
        "location": {
          "lat": 22.2821105,
          "lng": 114.1555615
        },
        "location_type": "GEOMETRIC_CENTER",
        "viewport": {
          "northeast": {
            "lat": 22.2834594802915,
            "lng": 114.1569104802915
          },
          "southwest": {
            "lat": 22.2807615197085,
            "lng": 114.1542125197085
          }
        }
      },
      "partial_match": true,
      "place_id": "ChIJFbbJS3sABDQRZGKaWzhehxM",
      "plus_code": {
        "compound_code": "75J4+R6 Hong Kong",
        "global_code": "7PJP75J4+R6"
      },
      "types": [
        "cafe",
        "establishment",
        "food",
        "point_of_interest"
      ]
    }
  ],
  "geocode_tc": [
    {
      "address_components": [
        {
          "long_name": "\u9999\u6e2f",
          "short_name": "HK",
          "types": [
            "country",
            "political"
          ]
        }
      ],
      "formatted_address": "\u9999\u6e2f22 Stanley Street, Central, Hong Kong",
      "geometry": {
        "location": {
          "lat": 22.2821105,
          "lng": 114.1555615
        },
        "location_type": "GEOMETRIC_CENTER",
        "viewport": {
          "northeast": {
            "lat": 22.2834594802915,
            "lng": 114.1569104802915
          },
          "southwest": {
            "lat": 22.2807615197085,
            "lng": 114.1542125197085
          }
        }
      },
      "partial_match": true,
      "place_id": "ChIJFbbJS3sABDQRZGKaWzhehxM",
      "plus_code": {
        "compound_code": "75J4+R6 \u9999\u6e2f",
        "global_code": "7PJP75J4+R6"
      },
      "types": [
        "cafe",
        "establishment",
        "food",
        "point_of_interest"
      ]
    },
    {
      "address_components": [
        {
          "long_name": "\u767b\u5bf6\u5546\u696d\u5927\u5ec8",
          "short_name": "\u767b\u5bf6\u5546\u696d\u5927\u5ec8",
          "types": [
            "premise"
          ]
        },
        {
          "long_name": "22",
          "short_name": "22",
          "types": [
            "street_number"
          ]
        },
        {
          "long_name": "\u58eb\u4e39\u5229\u8857",
          "short_name": "\u58eb\u4e39\u5229\u8857",
          "types": [
            "route"
          ]
        },
        {
          "long_name": "\u4e2d\u74b0",
          "short_name": "\u4e2d\u74b0",
          "types": [
            "neighborhood",
            "political"
          ]
        },
        {
          "long_name": "\u9999\u6e2f\u5cf6",
          "short_name": "\u9999\u6e2f\u5cf6",
          "types": [
            "administrative_area_level_1",
            "political"
          ]
        },
        {
          "long_name": "\u9999\u6e2f",
          "short_name": "HK",
          "types": [
            "country",
            "political"
          ]
        }
      ],
      "formatted_address": "\u9999\u6e2f\u4e2d\u74b0\u58eb\u4e39\u5229\u885722\u865f\u767b\u5bf6\u5546\u696d\u5927\u5ec8",
      "geometry": {
        "bounds": {
          "northeast": {
            "lat": 22.282198,
            "lng": 114.15567
          },
          "southwest": {
            "lat": 22.282023,
            "lng": 114.155453
          }
        },
        "location": {
          "lat": 22.2820975,
          "lng": 114.1555239
        },
        "location_type": "ROOFTOP",
        "viewport": {
          "northeast": {
            "lat": 22.2834594802915,
            "lng": 114.1569104802915
          },
          "southwest": {
            "lat": 22.2807615197085,
            "lng": 114.1542125197085
          }
        }
      },
      "partial_match": true,
      "place_id": "ChIJBXC3S3sABDQRqv6chguKaqo",
      "types": [
        "premise"
      ]
    }
  ],
  "licno": "2218804401",
  "timestamp": 1564968756,
  "version": "1564966095"
}
