{
  "adr_en": "\u6cf0\u570b\u5a46\u5a46, SHOP NO. 3, G/F., WAH YAN COURT, NO. 2-3 TRIANGLE STREET, WANCHAI, HONG KONG",
  "adr_tc": "\u9999\u6e2f\u7063\u4ed4\u4e09\u89d2\u88572-3\u865f\u83ef\u6b23\u95a3\u5730\u4e0b3\u865f\u92ea \u6cf0\u570b\u5a46\u5a46",
  "geocode_en": [
    {
      "address_components": [
        {
          "long_name": "3",
          "short_name": "3",
          "types": [
            "street_number"
          ]
        },
        {
          "long_name": "Triangle Street",
          "short_name": "Triangle St",
          "types": [
            "route"
          ]
        },
        {
          "long_name": "Wan Chai",
          "short_name": "Wan Chai",
          "types": [
            "neighborhood",
            "political"
          ]
        },
        {
          "long_name": "Hong Kong Island",
          "short_name": "Hong Kong Island",
          "types": [
            "administrative_area_level_1",
            "political"
          ]
        },
        {
          "long_name": "Hong Kong",
          "short_name": "HK",
          "types": [
            "country",
            "political"
          ]
        }
      ],
      "formatted_address": "3 Triangle St, Wan Chai, Hong Kong",
      "geometry": {
        "location": {
          "lat": 22.2761635,
          "lng": 114.1743981
        },
        "location_type": "ROOFTOP",
        "viewport": {
          "northeast": {
            "lat": 22.2775124802915,
            "lng": 114.1757470802915
          },
          "southwest": {
            "lat": 22.2748145197085,
            "lng": 114.1730491197085
          }
        }
      },
      "partial_match": true,
      "place_id": "ChIJO4Y1Ff0BBDQRlZ48QzWMNkA",
      "plus_code": {
        "compound_code": "75GF+FQ Hong Kong",
        "global_code": "7PJP75GF+FQ"
      },
      "types": [
        "establishment",
        "food",
        "point_of_interest",
        "restaurant"
      ]
    },
    {
      "address_components": [
        {
          "long_name": "Wah Yan Court",
          "short_name": "Wah Yan Court",
          "types": [
            "premise"
          ]
        },
        {
          "long_name": "2-3",
          "short_name": "2-3",
          "types": [
            "street_number"
          ]
        },
        {
          "long_name": "Triangle Street",
          "short_name": "Triangle St",
          "types": [
            "route"
          ]
        },
        {
          "long_name": "Wan Chai",
          "short_name": "Wan Chai",
          "types": [
            "neighborhood",
            "political"
          ]
        },
        {
          "long_name": "Hong Kong Island",
          "short_name": "Hong Kong Island",
          "types": [
            "administrative_area_level_1",
            "political"
          ]
        },
        {
          "long_name": "Hong Kong",
          "short_name": "HK",
          "types": [
            "country",
            "political"
          ]
        }
      ],
      "formatted_address": "Wah Yan Court, 2-3 Triangle St, Wan Chai, Hong Kong",
      "geometry": {
        "bounds": {
          "northeast": {
            "lat": 22.276268,
            "lng": 114.174424
          },
          "southwest": {
            "lat": 22.2761859,
            "lng": 114.1742981
          }
        },
        "location": {
          "lat": 22.2762154,
          "lng": 114.1743343
        },
        "location_type": "ROOFTOP",
        "viewport": {
          "northeast": {
            "lat": 22.2775759302915,
            "lng": 114.1757100302915
          },
          "southwest": {
            "lat": 22.2748779697085,
            "lng": 114.1730120697085
          }
        }
      },
      "partial_match": true,
      "place_id": "ChIJ-8LnZ1sABDQRXrAXqNZrfZU",
      "types": [
        "premise"
      ]
    }
  ],
  "geocode_tc": [
    {
      "address_components": [
        {
          "long_name": "3",
          "short_name": "3",
          "types": [
            "street_number"
          ]
        },
        {
          "long_name": "\u4e09\u89d2\u8857",
          "short_name": "\u4e09\u89d2\u8857",
          "types": [
            "route"
          ]
        },
        {
          "long_name": "\u7063\u4ed4",
          "short_name": "\u7063\u4ed4",
          "types": [
            "neighborhood",
            "political"
          ]
        },
        {
          "long_name": "\u9999\u6e2f\u5cf6",
          "short_name": "\u9999\u6e2f\u5cf6",
          "types": [
            "administrative_area_level_1",
            "political"
          ]
        },
        {
          "long_name": "\u9999\u6e2f",
          "short_name": "HK",
          "types": [
            "country",
            "political"
          ]
        }
      ],
      "formatted_address": "\u9999\u6e2f\u7063\u4ed4\u4e09\u89d2\u88573\u865f",
      "geometry": {
        "location": {
          "lat": 22.2761635,
          "lng": 114.1743981
        },
        "location_type": "ROOFTOP",
        "viewport": {
          "northeast": {
            "lat": 22.2775124802915,
            "lng": 114.1757470802915
          },
          "southwest": {
            "lat": 22.2748145197085,
            "lng": 114.1730491197085
          }
        }
      },
      "partial_match": true,
      "place_id": "ChIJO4Y1Ff0BBDQRlZ48QzWMNkA",
      "plus_code": {
        "compound_code": "75GF+FQ \u9999\u6e2f",
        "global_code": "7PJP75GF+FQ"
      },
      "types": [
        "establishment",
        "food",
        "point_of_interest",
        "restaurant"
      ]
    },
    {
      "address_components": [
        {
          "long_name": "\u5730\u4e0b3\u865f\u92ea",
          "short_name": "\u5730\u4e0b3\u865f\u92ea",
          "types": [
            "subpremise"
          ]
        },
        {
          "long_name": "\u83ef\u6b23\u95a3",
          "short_name": "\u83ef\u6b23\u95a3",
          "types": [
            "premise"
          ]
        },
        {
          "long_name": "2-3",
          "short_name": "2-3",
          "types": [
            "street_number"
          ]
        },
        {
          "long_name": "\u4e09\u89d2\u8857",
          "short_name": "\u4e09\u89d2\u8857",
          "types": [
            "route"
          ]
        },
        {
          "long_name": "\u7063\u4ed4",
          "short_name": "\u7063\u4ed4",
          "types": [
            "neighborhood",
            "political"
          ]
        },
        {
          "long_name": "\u9999\u6e2f\u5cf6",
          "short_name": "\u9999\u6e2f\u5cf6",
          "types": [
            "administrative_area_level_1",
            "political"
          ]
        },
        {
          "long_name": "\u9999\u6e2f",
          "short_name": "HK",
          "types": [
            "country",
            "political"
          ]
        }
      ],
      "formatted_address": "\u9999\u6e2f\u7063\u4ed4\u4e09\u89d2\u88572-3\u865f\u83ef\u6b23\u95a3\u5730\u4e0b3\u865f\u92ea",
      "geometry": {
        "bounds": {
          "northeast": {
            "lat": 22.276268,
            "lng": 114.174424
          },
          "southwest": {
            "lat": 22.2761859,
            "lng": 114.1742981
          }
        },
        "location": {
          "lat": 22.2762154,
          "lng": 114.1743343
        },
        "location_type": "ROOFTOP",
        "viewport": {
          "northeast": {
            "lat": 22.2775759302915,
            "lng": 114.1757100302915
          },
          "southwest": {
            "lat": 22.2748779697085,
            "lng": 114.1730120697085
          }
        }
      },
      "partial_match": true,
      "place_id": "EkLlnLDkuIsz6Jmf6YuqLCBXYWggWWFuIENvdXJ0LCAyLTMgVHJpYW5nbGUgU3QsIFdhbiBDaGFpLCBIb25nIEtvbmciKRonChYKFAoSCfvC52dbAAQ0EV6wF6jWa32VEg3lnLDkuIsz6Jmf6Yuq",
      "types": [
        "subpremise"
      ]
    }
  ],
  "licno": "2212803141",
  "timestamp": 1564966180,
  "version": "1564966095"
}
