{
  "adr_en": "GARY KITCHEN, FRONT, G/F., NO. 2-A, PAK SHE 7TH LANE, CHEUNG CHAU, HONG KONG",
  "adr_tc": "\u9577\u6d32\u5317\u820d\u4e03\u91cc\u5730\u4e0b2\u865fA\u524d\u8216 \u8cb3\u6d69\u5eda\u623f",
  "geocode_en": [
    {
      "address_components": [
        {
          "long_name": "Pak She Seventh Lane",
          "short_name": "Pak She Seventh Ln",
          "types": [
            "route"
          ]
        },
        {
          "long_name": "Cheung Chau",
          "short_name": "Cheung Chau",
          "types": [
            "neighborhood",
            "political"
          ]
        },
        {
          "long_name": "New Territories",
          "short_name": "New Territories",
          "types": [
            "administrative_area_level_1",
            "political"
          ]
        },
        {
          "long_name": "Hong Kong",
          "short_name": "HK",
          "types": [
            "country",
            "political"
          ]
        }
      ],
      "formatted_address": "Pak She Seventh Ln, Cheung Chau, Hong Kong",
      "geometry": {
        "bounds": {
          "northeast": {
            "lat": 22.2112689,
            "lng": 114.0279177
          },
          "southwest": {
            "lat": 22.2109561,
            "lng": 114.0275925
          }
        },
        "location": {
          "lat": 22.2112556,
          "lng": 114.0279009
        },
        "location_type": "GEOMETRIC_CENTER",
        "viewport": {
          "northeast": {
            "lat": 22.21246148029151,
            "lng": 114.0291040802915
          },
          "southwest": {
            "lat": 22.2097635197085,
            "lng": 114.0264061197085
          }
        }
      },
      "partial_match": true,
      "place_id": "ChIJc4u5AY1WATQRk0W8T_SrTAQ",
      "types": [
        "route"
      ]
    }
  ],
  "geocode_tc": [
    {
      "address_components": [
        {
          "long_name": "\u9999\u6e2f",
          "short_name": "HK",
          "types": [
            "country",
            "political"
          ]
        }
      ],
      "formatted_address": "\u9999\u6e2f\u9577\u6d32\u5317\u793e\u4e03\u91cc2A\u5730\u4e0b",
      "geometry": {
        "location": {
          "lat": 22.2124191,
          "lng": 114.0265588
        },
        "location_type": "GEOMETRIC_CENTER",
        "viewport": {
          "northeast": {
            "lat": 22.2137680802915,
            "lng": 114.0279077802915
          },
          "southwest": {
            "lat": 22.21107011970849,
            "lng": 114.0252098197085
          }
        }
      },
      "partial_match": true,
      "place_id": "ChIJ2eH36YxWATQRie0yDvZQpAQ",
      "plus_code": {
        "compound_code": "626G+XJ \u9999\u6e2f",
        "global_code": "7PJP626G+XJ"
      },
      "types": [
        "establishment",
        "point_of_interest"
      ]
    }
  ],
  "licno": "3117800695",
  "timestamp": 1564975666,
  "version": "1564966095"
}
