{
  "adr_en": "Starbucks Coffee, SHOP NO. 226-7 & SEATING AREA OPPOSITE SHOP NO. 226-7, 2/F., SHUN TAK CENTRE(PODIUM), 168-200 CONNAUGHT ROAD CENTRAL, CENTRAL, HONG KONG",
  "adr_tc": "\u9999\u6e2f\u4e2d\u74b0\u5e72\u8afe\u9053\u4e2d168-200\u865f\u4fe1\u5fb7\u4e2d\u5fc3\u5e73\u53f0 226-7\u865f\u8216\u53ca226-7\u865f\u8216\u5c0d\u9762\u5ea7\u4f4d\u95932\u6a13 Starbucks Coffee",
  "geocode_en": [
    {
      "address_components": [
        {
          "long_name": "Shun Tak Centre",
          "short_name": "Shun Tak Centre",
          "types": [
            "premise"
          ]
        },
        {
          "long_name": "168-200",
          "short_name": "168-200",
          "types": [
            "street_number"
          ]
        },
        {
          "long_name": "Connaught Road Central",
          "short_name": "Connaught Rd Central",
          "types": [
            "route"
          ]
        },
        {
          "long_name": "Sheung Wan",
          "short_name": "Sheung Wan",
          "types": [
            "neighborhood",
            "political"
          ]
        },
        {
          "long_name": "Hong Kong Island",
          "short_name": "Hong Kong Island",
          "types": [
            "administrative_area_level_1",
            "political"
          ]
        },
        {
          "long_name": "Hong Kong",
          "short_name": "HK",
          "types": [
            "country",
            "political"
          ]
        }
      ],
      "formatted_address": "Shun Tak Centre, 168-200 Connaught Rd Central, Sheung Wan, Hong Kong",
      "geometry": {
        "bounds": {
          "northeast": {
            "lat": 22.2883143,
            "lng": 114.1528687
          },
          "southwest": {
            "lat": 22.2873915,
            "lng": 114.1508055
          }
        },
        "location": {
          "lat": 22.2879098,
          "lng": 114.1517914
        },
        "location_type": "ROOFTOP",
        "viewport": {
          "northeast": {
            "lat": 22.2892018802915,
            "lng": 114.1531860802915
          },
          "southwest": {
            "lat": 22.2865039197085,
            "lng": 114.1504881197085
          }
        }
      },
      "partial_match": true,
      "place_id": "ChIJKUGRwX0ABDQRrvlfieLMpN0",
      "types": [
        "premise"
      ]
    }
  ],
  "geocode_tc": [
    {
      "address_components": [
        {
          "long_name": "226-7\u865f\u8216",
          "short_name": "226-7\u865f\u8216",
          "types": [
            "subpremise"
          ]
        },
        {
          "long_name": "\u4fe1\u5fb7\u4e2d\u5fc3",
          "short_name": "\u4fe1\u5fb7\u4e2d\u5fc3",
          "types": [
            "premise"
          ]
        },
        {
          "long_name": "168-200",
          "short_name": "168-200",
          "types": [
            "street_number"
          ]
        },
        {
          "long_name": "\u5e72\u8afe\u9053\u4e2d",
          "short_name": "\u5e72\u8afe\u9053\u4e2d",
          "types": [
            "route"
          ]
        },
        {
          "long_name": "\u4e0a\u74b0",
          "short_name": "\u4e0a\u74b0",
          "types": [
            "neighborhood",
            "political"
          ]
        },
        {
          "long_name": "\u9999\u6e2f\u5cf6",
          "short_name": "\u9999\u6e2f\u5cf6",
          "types": [
            "administrative_area_level_1",
            "political"
          ]
        },
        {
          "long_name": "\u9999\u6e2f",
          "short_name": "HK",
          "types": [
            "country",
            "political"
          ]
        }
      ],
      "formatted_address": "\u9999\u6e2f\u4e0a\u74b0\u5e72\u8afe\u9053\u4e2d168-200\u865f\u4fe1\u5fb7\u4e2d\u5fc3226-7\u865f\u8216",
      "geometry": {
        "bounds": {
          "northeast": {
            "lat": 22.2883143,
            "lng": 114.1528687
          },
          "southwest": {
            "lat": 22.2873915,
            "lng": 114.1508055
          }
        },
        "location": {
          "lat": 22.2879098,
          "lng": 114.1517914
        },
        "location_type": "ROOFTOP",
        "viewport": {
          "northeast": {
            "lat": 22.2892018802915,
            "lng": 114.1531860802915
          },
          "southwest": {
            "lat": 22.2865039197085,
            "lng": 114.1504881197085
          }
        }
      },
      "partial_match": true,
      "place_id": "ElEyMjYtN-iZn-iIliwgU2h1biBUYWsgQ2VudHJlLCAxNjgtMjAwIENvbm5hdWdodCBSZCBDZW50cmFsLCBTaGV1bmcgV2FuLCBIb25nIEtvbmciJxolChYKFAoSCSlBkcF9AAQ0Ea75X4nizKTdEgsyMjYtN-iZn-iIlg",
      "types": [
        "subpremise"
      ]
    }
  ],
  "licno": "3118808119",
  "timestamp": 1564975666,
  "version": "1564966095"
}
