{
  "adr_en": "\u516b\u65b9\u96f2\u96c6, SHOP UNIT G39A, G/F., PARADISE MALL, HENG FA CHUEN, CHAI WAN, HONG KONG",
  "adr_tc": "\u9999\u6e2f\u67f4\u7063\u674f\u82b1\u90a8\u674f\u82b1\u65b0\u57ce\u5730\u4e0bG39A\u865f\u92ea \u516b\u65b9\u96f2\u96c6",
  "geocode_en": [
    {
      "address_components": [
        {
          "long_name": "100",
          "short_name": "100",
          "types": [
            "street_number"
          ]
        },
        {
          "long_name": "Shing Tai Road",
          "short_name": "Shing Tai Rd",
          "types": [
            "route"
          ]
        },
        {
          "long_name": "Pak Sha Wan",
          "short_name": "Pak Sha Wan",
          "types": [
            "neighborhood",
            "political"
          ]
        },
        {
          "long_name": "Hong Kong Island",
          "short_name": "Hong Kong Island",
          "types": [
            "administrative_area_level_1",
            "political"
          ]
        },
        {
          "long_name": "Hong Kong",
          "short_name": "HK",
          "types": [
            "country",
            "political"
          ]
        }
      ],
      "formatted_address": "100 Shing Tai Rd, Pak Sha Wan, Hong Kong",
      "geometry": {
        "location": {
          "lat": 22.2767315,
          "lng": 114.2399396
        },
        "location_type": "ROOFTOP",
        "viewport": {
          "northeast": {
            "lat": 22.2780804802915,
            "lng": 114.2412885802915
          },
          "southwest": {
            "lat": 22.2753825197085,
            "lng": 114.2385906197085
          }
        }
      },
      "partial_match": true,
      "place_id": "ChIJDzj02H8BBDQRM_vHVUBGZVU",
      "plus_code": {
        "compound_code": "76GQ+MX Hong Kong",
        "global_code": "7PJP76GQ+MX"
      },
      "types": [
        "establishment",
        "point_of_interest",
        "shopping_mall"
      ]
    },
    {
      "address_components": [
        {
          "long_name": "Chai Wan",
          "short_name": "Chai Wan",
          "types": [
            "neighborhood",
            "political"
          ]
        },
        {
          "long_name": "Hong Kong Island",
          "short_name": "Hong Kong Island",
          "types": [
            "administrative_area_level_1",
            "political"
          ]
        },
        {
          "long_name": "Hong Kong",
          "short_name": "HK",
          "types": [
            "country",
            "political"
          ]
        }
      ],
      "formatted_address": "Chai Wan, Hong Kong",
      "geometry": {
        "bounds": {
          "northeast": {
            "lat": 22.274602,
            "lng": 114.2478776
          },
          "southwest": {
            "lat": 22.2594508,
            "lng": 114.2319559
          }
        },
        "location": {
          "lat": 22.2678103,
          "lng": 114.2360778
        },
        "location_type": "APPROXIMATE",
        "viewport": {
          "northeast": {
            "lat": 22.274602,
            "lng": 114.2478776
          },
          "southwest": {
            "lat": 22.2594508,
            "lng": 114.2319559
          }
        }
      },
      "partial_match": true,
      "place_id": "ChIJe_dwIocBBDQRZCkd73hQ0_8",
      "types": [
        "neighborhood",
        "political"
      ]
    }
  ],
  "geocode_tc": [
    {
      "address_components": [
        {
          "long_name": "\u67f4\u7063",
          "short_name": "\u67f4\u7063",
          "types": [
            "neighborhood",
            "political"
          ]
        },
        {
          "long_name": "\u9999\u6e2f\u5cf6",
          "short_name": "\u9999\u6e2f\u5cf6",
          "types": [
            "administrative_area_level_1",
            "political"
          ]
        },
        {
          "long_name": "\u9999\u6e2f",
          "short_name": "HK",
          "types": [
            "country",
            "political"
          ]
        }
      ],
      "formatted_address": "\u9999\u6e2f\u67f4\u7063\u674f \u82b1 \u90a8 \u674f \u82b1 \u65b0 \u57ce\u897f \u7ffc \u5730\u4e0b G39A \u865f \u8216",
      "geometry": {
        "location": {
          "lat": 22.2770111,
          "lng": 114.239828
        },
        "location_type": "GEOMETRIC_CENTER",
        "viewport": {
          "northeast": {
            "lat": 22.2783600802915,
            "lng": 114.2411769802915
          },
          "southwest": {
            "lat": 22.2756621197085,
            "lng": 114.2384790197085
          }
        }
      },
      "place_id": "ChIJt1akQ9UDBDQRNhjoh8m7n0w",
      "plus_code": {
        "compound_code": "76GQ+RW \u9999\u6e2f",
        "global_code": "7PJP76GQ+RW"
      },
      "types": [
        "establishment",
        "food",
        "point_of_interest",
        "restaurant"
      ]
    },
    {
      "address_components": [
        {
          "long_name": "100",
          "short_name": "100",
          "types": [
            "street_number"
          ]
        },
        {
          "long_name": "\u76db\u6cf0\u9053",
          "short_name": "\u76db\u6cf0\u9053",
          "types": [
            "route"
          ]
        },
        {
          "long_name": "\u767d\u6c99\u7063",
          "short_name": "\u767d\u6c99\u7063",
          "types": [
            "neighborhood",
            "political"
          ]
        },
        {
          "long_name": "\u9999\u6e2f\u5cf6",
          "short_name": "\u9999\u6e2f\u5cf6",
          "types": [
            "administrative_area_level_1",
            "political"
          ]
        },
        {
          "long_name": "\u9999\u6e2f",
          "short_name": "HK",
          "types": [
            "country",
            "political"
          ]
        }
      ],
      "formatted_address": "\u9999\u6e2f\u767d\u6c99\u7063\u76db\u6cf0\u9053100\u865f",
      "geometry": {
        "location": {
          "lat": 22.2767315,
          "lng": 114.2399396
        },
        "location_type": "ROOFTOP",
        "viewport": {
          "northeast": {
            "lat": 22.2780804802915,
            "lng": 114.2412885802915
          },
          "southwest": {
            "lat": 22.2753825197085,
            "lng": 114.2385906197085
          }
        }
      },
      "place_id": "ChIJDzj02H8BBDQRM_vHVUBGZVU",
      "plus_code": {
        "compound_code": "76GQ+MX \u9999\u6e2f",
        "global_code": "7PJP76GQ+MX"
      },
      "types": [
        "establishment",
        "point_of_interest",
        "shopping_mall"
      ]
    }
  ],
  "licno": "3111802422",
  "timestamp": 1564975666,
  "version": "1564966095"
}
