{
  "adr_en": "HAY MARKET/WINS CAFE, PORTION OF 2/F & 2 M/F, GRANDSTAND II, SHATIN RACECOURSE, SHA TIN, NEW TERRITORIES",
  "adr_tc": "\u65b0\u754c\u6c99\u7530\u6c99\u7530\u99ac\u58342\u865f\u770b\u53f02\u6a13\u90e8\u4efd\u53ca2\u6a13\u95a3\u6a13 HAY MARKET/WINS CAFE",
  "geocode_en": [
    {
      "address_components": [
        {
          "long_name": "Hong Kong",
          "short_name": "HK",
          "types": [
            "country",
            "political"
          ]
        }
      ],
      "formatted_address": "Portion of 2/F & 2 M/F, Grandstand II, Shatin Racecourse, Sha Tin, New Territories, Hong Kong",
      "geometry": {
        "location": {
          "lat": 22.400992,
          "lng": 114.205178
        },
        "location_type": "GEOMETRIC_CENTER",
        "viewport": {
          "northeast": {
            "lat": 22.40234098029151,
            "lng": 114.2065269802915
          },
          "southwest": {
            "lat": 22.3996430197085,
            "lng": 114.2038290197085
          }
        }
      },
      "partial_match": true,
      "place_id": "ChIJ_19ZXzoGBDQRsuAbSHqvX8o",
      "plus_code": {
        "compound_code": "C624+93 Hong Kong",
        "global_code": "7PJPC624+93"
      },
      "types": [
        "establishment",
        "food",
        "point_of_interest",
        "restaurant"
      ]
    }
  ],
  "geocode_tc": [
    {
      "address_components": [
        {
          "long_name": "New Territories",
          "short_name": "New Territories",
          "types": [
            "administrative_area_level_1",
            "political"
          ]
        },
        {
          "long_name": "\u9999\u6e2f",
          "short_name": "HK",
          "types": [
            "country",
            "political"
          ]
        }
      ],
      "formatted_address": "The Hong Kong Jockey Club Sha Tin Racecourse Stand, Sha Tin, Hong Kong, \u9999\u6e2f",
      "geometry": {
        "location": {
          "lat": 22.401109,
          "lng": 114.205262
        },
        "location_type": "GEOMETRIC_CENTER",
        "viewport": {
          "northeast": {
            "lat": 22.4024579802915,
            "lng": 114.2066109802915
          },
          "southwest": {
            "lat": 22.39976001970849,
            "lng": 114.2039130197085
          }
        }
      },
      "partial_match": true,
      "place_id": "ChIJw5O3UjoGBDQRHUM7KP-zLeU",
      "plus_code": {
        "compound_code": "C624+C4 \u9999\u6e2f",
        "global_code": "7PJPC624+C4"
      },
      "types": [
        "establishment",
        "point_of_interest"
      ]
    },
    {
      "address_components": [
        {
          "long_name": "\u6c99\u7530",
          "short_name": "\u6c99\u7530",
          "types": [
            "neighborhood",
            "political"
          ]
        },
        {
          "long_name": "\u65b0\u754c",
          "short_name": "\u65b0\u754c",
          "types": [
            "administrative_area_level_1",
            "political"
          ]
        },
        {
          "long_name": "\u9999\u6e2f",
          "short_name": "HK",
          "types": [
            "country",
            "political"
          ]
        }
      ],
      "formatted_address": "\u9999\u6e2f\u6c99\u7530",
      "geometry": {
        "location": {
          "lat": 22.4010839,
          "lng": 114.205031
        },
        "location_type": "GEOMETRIC_CENTER",
        "viewport": {
          "northeast": {
            "lat": 22.4024328802915,
            "lng": 114.2063799802915
          },
          "southwest": {
            "lat": 22.3997349197085,
            "lng": 114.2036820197085
          }
        }
      },
      "partial_match": true,
      "place_id": "ChIJpbFw9ToGBDQRdoqxJ2O1AAE",
      "plus_code": {
        "compound_code": "C624+C2 \u9999\u6e2f",
        "global_code": "7PJPC624+C2"
      },
      "types": [
        "establishment",
        "food",
        "point_of_interest",
        "restaurant"
      ]
    }
  ],
  "licno": "2297803584",
  "timestamp": 1564975666,
  "version": "1564966095"
}
