{
  "adr_en": "(no record found), 4/F. & 5/F., KWAN CHART TOWER, 6 TONNOCHY ROAD, WAN CHAI, HONG KONG",
  "adr_tc": "\u9999\u6e2f\u7063\u4ed4\u675c\u8001\u8a8c\u90536\u865f\u7fa4\u7b56\u5927\u5ec84\u6a13\u53ca5\u6a13 (\u6c92\u6709\u8a18\u9304)",
  "geocode_en": [
    {
      "address_components": [
        {
          "long_name": "4",
          "short_name": "4",
          "types": [
            "subpremise"
          ]
        },
        {
          "long_name": "Kwan Chart Tower",
          "short_name": "Kwan Chart Tower",
          "types": [
            "premise"
          ]
        },
        {
          "long_name": "6",
          "short_name": "6",
          "types": [
            "street_number"
          ]
        },
        {
          "long_name": "Tonnochy Road",
          "short_name": "Tonnochy Rd",
          "types": [
            "route"
          ]
        },
        {
          "long_name": "Wan Chai",
          "short_name": "Wan Chai",
          "types": [
            "neighborhood",
            "political"
          ]
        },
        {
          "long_name": "Hong Kong Island",
          "short_name": "Hong Kong Island",
          "types": [
            "administrative_area_level_1",
            "political"
          ]
        },
        {
          "long_name": "Hong Kong",
          "short_name": "HK",
          "types": [
            "country",
            "political"
          ]
        }
      ],
      "formatted_address": "4, Kwan Chart Tower, 6 Tonnochy Rd, Wan Chai, Hong Kong",
      "geometry": {
        "bounds": {
          "northeast": {
            "lat": 22.279396,
            "lng": 114.1782611
          },
          "southwest": {
            "lat": 22.2791841,
            "lng": 114.177859
          }
        },
        "location": {
          "lat": 22.2792924,
          "lng": 114.1780498
        },
        "location_type": "ROOFTOP",
        "viewport": {
          "northeast": {
            "lat": 22.2806390302915,
            "lng": 114.1794090302915
          },
          "southwest": {
            "lat": 22.2779410697085,
            "lng": 114.1767110697085
          }
        }
      },
      "partial_match": true,
      "place_id": "Ejc0LCBLd2FuIENoYXJ0IFRvd2VyLCA2IFRvbm5vY2h5IFJkLCBXYW4gQ2hhaSwgSG9uZyBLb25nIh0aGwoWChQKEgl9gW4iWgAENBHG_NXK22gL_BIBNA",
      "types": [
        "subpremise"
      ]
    },
    {
      "address_components": [
        {
          "long_name": "F",
          "short_name": "F",
          "types": [
            "subpremise"
          ]
        },
        {
          "long_name": "Kwan Chart Tower",
          "short_name": "Kwan Chart Tower",
          "types": [
            "premise"
          ]
        },
        {
          "long_name": "6",
          "short_name": "6",
          "types": [
            "street_number"
          ]
        },
        {
          "long_name": "Tonnochy Road",
          "short_name": "Tonnochy Rd",
          "types": [
            "route"
          ]
        },
        {
          "long_name": "Wan Chai",
          "short_name": "Wan Chai",
          "types": [
            "neighborhood",
            "political"
          ]
        },
        {
          "long_name": "Hong Kong Island",
          "short_name": "Hong Kong Island",
          "types": [
            "administrative_area_level_1",
            "political"
          ]
        },
        {
          "long_name": "Hong Kong",
          "short_name": "HK",
          "types": [
            "country",
            "political"
          ]
        }
      ],
      "formatted_address": "F, Kwan Chart Tower, 6 Tonnochy Rd, Wan Chai, Hong Kong",
      "geometry": {
        "bounds": {
          "northeast": {
            "lat": 22.279396,
            "lng": 114.1782611
          },
          "southwest": {
            "lat": 22.2791841,
            "lng": 114.177859
          }
        },
        "location": {
          "lat": 22.2792924,
          "lng": 114.1780498
        },
        "location_type": "ROOFTOP",
        "viewport": {
          "northeast": {
            "lat": 22.2806390302915,
            "lng": 114.1794090302915
          },
          "southwest": {
            "lat": 22.2779410697085,
            "lng": 114.1767110697085
          }
        }
      },
      "partial_match": true,
      "place_id": "EjdGLCBLd2FuIENoYXJ0IFRvd2VyLCA2IFRvbm5vY2h5IFJkLCBXYW4gQ2hhaSwgSG9uZyBLb25nIh0aGwoWChQKEgl9gW4iWgAENBHG_NXK22gL_BIBRg",
      "types": [
        "subpremise"
      ]
    }
  ],
  "geocode_tc": [
    {
      "address_components": [
        {
          "long_name": "\u7fa4\u7b56\u5927\u5ec8",
          "short_name": "\u7fa4\u7b56\u5927\u5ec8",
          "types": [
            "premise"
          ]
        },
        {
          "long_name": "6\u865f",
          "short_name": "6\u865f",
          "types": [
            "street_number"
          ]
        },
        {
          "long_name": "\u675c\u8001\u8a8c\u9053",
          "short_name": "\u675c\u8001\u8a8c\u9053",
          "types": [
            "route"
          ]
        },
        {
          "long_name": "\u7063\u4ed4",
          "short_name": "\u7063\u4ed4",
          "types": [
            "neighborhood",
            "political"
          ]
        },
        {
          "long_name": "\u9999\u6e2f",
          "short_name": "HK",
          "types": [
            "country",
            "political"
          ]
        }
      ],
      "formatted_address": "\u9999\u6e2f\u7063\u4ed4\u675c\u8001\u8a8c\u90536\u865f\u7fa4\u7b56\u5927\u5ec84-5 \u6a13",
      "geometry": {
        "location": {
          "lat": 22.2792924,
          "lng": 114.1780498
        },
        "location_type": "ROOFTOP",
        "viewport": {
          "northeast": {
            "lat": 22.2806413802915,
            "lng": 114.1793987802915
          },
          "southwest": {
            "lat": 22.2779434197085,
            "lng": 114.1767008197085
          }
        }
      },
      "place_id": "ChIJVVVpIloABDQRiOvyLPfD73M",
      "plus_code": {
        "compound_code": "75HH+P6 \u9999\u6e2f",
        "global_code": "7PJP75HH+P6"
      },
      "types": [
        "establishment",
        "food",
        "point_of_interest",
        "restaurant"
      ]
    }
  ],
  "licno": "3812817945",
  "timestamp": 1564975666,
  "version": "1564966095"
}
