{
  "adr_en": "Ron's Kitchen, SHOP S081-S082, G/F, HARBOUR VIEW 1, 12 SCIENCE PARK EAST AVENUE, HONG KONG SCIENCE PARK, PAK SHEK KOK, SHA TIN, NEW TERRITORIES",
  "adr_tc": "\u65b0\u754c\u6c99\u7530\u767d\u77f3\u89d2\u9999\u6e2f\u79d1\u5b78\u5712\u79d1\u6280\u5927\u9053\u677112\u865f\u6d77\u6ff1\u5927\u6a131\u5ea7 S081\u81f3S082\u865f\u92ea \u6717\u5eda\u574a",
  "geocode_en": [
    {
      "address_components": [
        {
          "long_name": "Hong Kong",
          "short_name": "HK",
          "types": [
            "country",
            "political"
          ]
        }
      ],
      "formatted_address": "Hong Kong, \u6c99\u7530\u767d\u77f3\u89d2\u9999\u6e2f\u79d1\u5b78\u5712\u79d1\u6280\u5927\u9053\u677112\u865f\u6d77\u6ff1\u5927\u6a13\u4e00\u5ea7\u5730\u4e0bS081-S082\u865f\u8216",
      "geometry": {
        "location": {
          "lat": 22.4271114,
          "lng": 114.212453
        },
        "location_type": "GEOMETRIC_CENTER",
        "viewport": {
          "northeast": {
            "lat": 22.4284603802915,
            "lng": 114.2138019802915
          },
          "southwest": {
            "lat": 22.42576241970849,
            "lng": 114.2111040197085
          }
        }
      },
      "partial_match": true,
      "place_id": "ChIJmxnhB5cIBDQRK1QrJc_xmPw",
      "plus_code": {
        "compound_code": "C6G6+RX Hong Kong",
        "global_code": "7PJPC6G6+RX"
      },
      "types": [
        "establishment",
        "food",
        "point_of_interest",
        "restaurant"
      ]
    },
    {
      "address_components": [
        {
          "long_name": "Harbour View 1",
          "short_name": "Harbour View 1",
          "types": [
            "premise"
          ]
        },
        {
          "long_name": "12",
          "short_name": "12",
          "types": [
            "street_number"
          ]
        },
        {
          "long_name": "Science Park East Avenue",
          "short_name": "Science Park E Ave",
          "types": [
            "route"
          ]
        },
        {
          "long_name": "Science Park",
          "short_name": "Science Park",
          "types": [
            "neighborhood",
            "political"
          ]
        },
        {
          "long_name": "New Territories",
          "short_name": "New Territories",
          "types": [
            "administrative_area_level_1",
            "political"
          ]
        },
        {
          "long_name": "Hong Kong",
          "short_name": "HK",
          "types": [
            "country",
            "political"
          ]
        }
      ],
      "formatted_address": "Harbour View 1, 12 Science Park E Ave, Science Park, Hong Kong",
      "geometry": {
        "bounds": {
          "northeast": {
            "lat": 22.427315,
            "lng": 114.212575
          },
          "southwest": {
            "lat": 22.426736,
            "lng": 114.2119121
          }
        },
        "location": {
          "lat": 22.427048,
          "lng": 114.2122545
        },
        "location_type": "ROOFTOP",
        "viewport": {
          "northeast": {
            "lat": 22.4283744802915,
            "lng": 114.2135925302915
          },
          "southwest": {
            "lat": 22.4256765197085,
            "lng": 114.2108945697085
          }
        }
      },
      "partial_match": true,
      "place_id": "ChIJZSgXCJcIBDQRoOPLSk_Io6s",
      "types": [
        "premise"
      ]
    }
  ],
  "geocode_tc": [
    {
      "address_components": [
        {
          "long_name": "\u9999\u6e2f",
          "short_name": "HK",
          "types": [
            "country",
            "political"
          ]
        }
      ],
      "formatted_address": "\u9999\u6e2f\u6c99\u7530\u767d\u77f3\u89d2\u9999\u6e2f\u79d1\u5b78\u5712\u79d1\u6280\u5927\u9053\u677112\u865f\u6d77\u6ff1\u5927\u6a13\u4e00\u5ea7\u5730\u4e0bS081-S082\u865f\u8216",
      "geometry": {
        "location": {
          "lat": 22.4271114,
          "lng": 114.212453
        },
        "location_type": "GEOMETRIC_CENTER",
        "viewport": {
          "northeast": {
            "lat": 22.4284603802915,
            "lng": 114.2138019802915
          },
          "southwest": {
            "lat": 22.42576241970849,
            "lng": 114.2111040197085
          }
        }
      },
      "place_id": "ChIJmxnhB5cIBDQRK1QrJc_xmPw",
      "plus_code": {
        "compound_code": "C6G6+RX \u9999\u6e2f",
        "global_code": "7PJPC6G6+RX"
      },
      "types": [
        "establishment",
        "food",
        "point_of_interest",
        "restaurant"
      ]
    }
  ],
  "licno": "2297802402",
  "timestamp": 1564975666,
  "version": "1564966095"
}
