{
  "adr_en": "BYEOL CHE KOREAN RESTAURANT, G/F., 56 PAN HOI STREET, QUARRY BAY, HONG KONG",
  "adr_tc": "\u9999\u6e2f\u9c02\u9b5a\u6d8c\u6ff1\u6d77\u885756\u865f\u5730\u4e0b BYEOL CHE KOREAN RESTAURANT",
  "geocode_en": [
    {
      "address_components": [
        {
          "long_name": "Korea",
          "short_name": "Korea",
          "types": [
            "colloquial_area",
            "political"
          ]
        }
      ],
      "formatted_address": "Korea",
      "geometry": {
        "bounds": {
          "northeast": {
            "lat": 43.01159,
            "lng": 131.1603
          },
          "southwest": {
            "lat": 33.0041,
            "lng": 124.1491605
          }
        },
        "location": {
          "lat": 37.66399759999999,
          "lng": 127.9784585
        },
        "location_type": "APPROXIMATE",
        "viewport": {
          "northeast": {
            "lat": 43.01159,
            "lng": 131.1603
          },
          "southwest": {
            "lat": 33.0041,
            "lng": 124.1491605
          }
        }
      },
      "partial_match": true,
      "place_id": "ChIJOxw9ixBjYjURlzlK_FFhQYY",
      "types": [
        "colloquial_area",
        "political"
      ]
    },
    {
      "address_components": [
        {
          "long_name": "G",
          "short_name": "G",
          "types": [
            "subpremise"
          ]
        },
        {
          "long_name": "56",
          "short_name": "56",
          "types": [
            "street_number"
          ]
        },
        {
          "long_name": "Pan Hoi Street",
          "short_name": "Pan Hoi St",
          "types": [
            "route"
          ]
        },
        {
          "long_name": "Quarry Bay",
          "short_name": "Quarry Bay",
          "types": [
            "neighborhood",
            "political"
          ]
        },
        {
          "long_name": "Hong Kong Island",
          "short_name": "Hong Kong Island",
          "types": [
            "administrative_area_level_1",
            "political"
          ]
        },
        {
          "long_name": "Hong Kong",
          "short_name": "HK",
          "types": [
            "country",
            "political"
          ]
        }
      ],
      "formatted_address": "G, 56 Pan Hoi St, Quarry Bay, Hong Kong",
      "geometry": {
        "location": {
          "lat": 22.2861602,
          "lng": 114.211726
        },
        "location_type": "ROOFTOP",
        "viewport": {
          "northeast": {
            "lat": 22.2875091802915,
            "lng": 114.2130749802915
          },
          "southwest": {
            "lat": 22.28481121970849,
            "lng": 114.2103770197085
          }
        }
      },
      "partial_match": true,
      "place_id": "EidHLCA1NiBQYW4gSG9pIFN0LCBRdWFycnkgQmF5LCBIb25nIEtvbmciHRobChYKFAoSCeU9_3oMAQQ0ETbAE0T_3njPEgFH",
      "types": [
        "subpremise"
      ]
    },
    {
      "address_components": [
        {
          "long_name": "F",
          "short_name": "F",
          "types": [
            "subpremise"
          ]
        },
        {
          "long_name": "56",
          "short_name": "56",
          "types": [
            "street_number"
          ]
        },
        {
          "long_name": "Pan Hoi Street",
          "short_name": "Pan Hoi St",
          "types": [
            "route"
          ]
        },
        {
          "long_name": "Quarry Bay",
          "short_name": "Quarry Bay",
          "types": [
            "neighborhood",
            "political"
          ]
        },
        {
          "long_name": "Hong Kong Island",
          "short_name": "Hong Kong Island",
          "types": [
            "administrative_area_level_1",
            "political"
          ]
        },
        {
          "long_name": "Hong Kong",
          "short_name": "HK",
          "types": [
            "country",
            "political"
          ]
        }
      ],
      "formatted_address": "F, 56 Pan Hoi St, Quarry Bay, Hong Kong",
      "geometry": {
        "location": {
          "lat": 22.2861602,
          "lng": 114.211726
        },
        "location_type": "ROOFTOP",
        "viewport": {
          "northeast": {
            "lat": 22.2875091802915,
            "lng": 114.2130749802915
          },
          "southwest": {
            "lat": 22.28481121970849,
            "lng": 114.2103770197085
          }
        }
      },
      "partial_match": true,
      "place_id": "EidGLCA1NiBQYW4gSG9pIFN0LCBRdWFycnkgQmF5LCBIb25nIEtvbmciHRobChYKFAoSCeU9_3oMAQQ0ETbAE0T_3njPEgFG",
      "types": [
        "subpremise"
      ]
    }
  ],
  "geocode_tc": [
    {
      "address_components": [
        {
          "long_name": "56",
          "short_name": "56",
          "types": [
            "street_number"
          ]
        },
        {
          "long_name": "\u6ff1\u6d77\u8857",
          "short_name": "\u6ff1\u6d77\u8857",
          "types": [
            "route"
          ]
        },
        {
          "long_name": "\u9c02\u9b5a\u6d8c",
          "short_name": "\u9c02\u9b5a\u6d8c",
          "types": [
            "neighborhood",
            "political"
          ]
        },
        {
          "long_name": "\u9999\u6e2f\u5cf6",
          "short_name": "\u9999\u6e2f\u5cf6",
          "types": [
            "administrative_area_level_1",
            "political"
          ]
        },
        {
          "long_name": "\u9999\u6e2f",
          "short_name": "HK",
          "types": [
            "country",
            "political"
          ]
        }
      ],
      "formatted_address": "\u9999\u6e2f\u9c02\u9b5a\u6d8c\u6ff1\u6d77\u885756\u865f",
      "geometry": {
        "location": {
          "lat": 22.2861913,
          "lng": 114.21173
        },
        "location_type": "ROOFTOP",
        "viewport": {
          "northeast": {
            "lat": 22.2875402802915,
            "lng": 114.2130789802915
          },
          "southwest": {
            "lat": 22.2848423197085,
            "lng": 114.2103810197085
          }
        }
      },
      "place_id": "ChIJs-soZQwBBDQRMO6Y8GHjJKk",
      "plus_code": {
        "compound_code": "76P6+FM \u9999\u6e2f",
        "global_code": "7PJP76P6+FM"
      },
      "types": [
        "establishment",
        "food",
        "point_of_interest",
        "restaurant"
      ]
    }
  ],
  "licno": "2211804606",
  "timestamp": 1564966180,
  "version": "1564966095"
}
