{
  "adr_en": "\u65b0\u5ddd\u7f8e\u98df, G/F, PORTLAND HOUSE, 414 PORTLAND STREET, KOWLOON",
  "adr_tc": "\u4e5d\u9f8d\u7835\u862d\u8857414\u865f\u7835\u862d\u5927\u5ec8\u5730\u4e0b \u65b0\u5ddd\u7f8e\u98df",
  "geocode_en": [
    {
      "address_components": [
        {
          "long_name": "414",
          "short_name": "414",
          "types": [
            "street_number"
          ]
        },
        {
          "long_name": "Portland Street",
          "short_name": "Portland St",
          "types": [
            "route"
          ]
        },
        {
          "long_name": "Prince Edward",
          "short_name": "Prince Edward",
          "types": [
            "neighborhood",
            "political"
          ]
        },
        {
          "long_name": "Kowloon",
          "short_name": "Kowloon",
          "types": [
            "administrative_area_level_1",
            "political"
          ]
        },
        {
          "long_name": "Hong Kong",
          "short_name": "HK",
          "types": [
            "country",
            "political"
          ]
        }
      ],
      "formatted_address": "414 Portland St, Prince Edward, Hong Kong",
      "geometry": {
        "location": {
          "lat": 22.325416,
          "lng": 114.167589
        },
        "location_type": "ROOFTOP",
        "viewport": {
          "northeast": {
            "lat": 22.3267649802915,
            "lng": 114.1689379802915
          },
          "southwest": {
            "lat": 22.3240670197085,
            "lng": 114.1662400197085
          }
        }
      },
      "partial_match": true,
      "place_id": "ChIJc5_DArYABDQRThVpsKyc5A4",
      "plus_code": {
        "compound_code": "85G9+52 Hong Kong",
        "global_code": "7PJP85G9+52"
      },
      "types": [
        "establishment",
        "food",
        "point_of_interest",
        "restaurant"
      ]
    },
    {
      "address_components": [
        {
          "long_name": "Portland",
          "short_name": "Portland",
          "types": [
            "locality",
            "political"
          ]
        },
        {
          "long_name": "Multnomah County",
          "short_name": "Multnomah County",
          "types": [
            "administrative_area_level_2",
            "political"
          ]
        },
        {
          "long_name": "Oregon",
          "short_name": "OR",
          "types": [
            "administrative_area_level_1",
            "political"
          ]
        },
        {
          "long_name": "United States",
          "short_name": "US",
          "types": [
            "country",
            "political"
          ]
        }
      ],
      "formatted_address": "Portland, OR, USA",
      "geometry": {
        "bounds": {
          "northeast": {
            "lat": 45.6528856,
            "lng": -122.4719641
          },
          "southwest": {
            "lat": 45.43254049999999,
            "lng": -122.8366901
          }
        },
        "location": {
          "lat": 45.5051064,
          "lng": -122.6750261
        },
        "location_type": "APPROXIMATE",
        "viewport": {
          "northeast": {
            "lat": 45.6528856,
            "lng": -122.4719641
          },
          "southwest": {
            "lat": 45.43254049999999,
            "lng": -122.8366901
          }
        }
      },
      "partial_match": true,
      "place_id": "ChIJJ3SpfQsLlVQRkYXR9ua5Nhw",
      "types": [
        "locality",
        "political"
      ]
    }
  ],
  "geocode_tc": [
    {
      "address_components": [
        {
          "long_name": "414",
          "short_name": "414",
          "types": [
            "street_number"
          ]
        },
        {
          "long_name": "\u7835\u862d\u8857",
          "short_name": "\u7835\u862d\u8857",
          "types": [
            "route"
          ]
        },
        {
          "long_name": "\u592a\u5b50",
          "short_name": "\u592a\u5b50",
          "types": [
            "neighborhood",
            "political"
          ]
        },
        {
          "long_name": "\u4e5d\u9f8d",
          "short_name": "\u4e5d\u9f8d",
          "types": [
            "administrative_area_level_1",
            "political"
          ]
        },
        {
          "long_name": "\u9999\u6e2f",
          "short_name": "HK",
          "types": [
            "country",
            "political"
          ]
        }
      ],
      "formatted_address": "\u9999\u6e2f\u592a\u5b50\u7835\u862d\u8857414\u865f",
      "geometry": {
        "location": {
          "lat": 22.325416,
          "lng": 114.167589
        },
        "location_type": "ROOFTOP",
        "viewport": {
          "northeast": {
            "lat": 22.3267649802915,
            "lng": 114.1689379802915
          },
          "southwest": {
            "lat": 22.3240670197085,
            "lng": 114.1662400197085
          }
        }
      },
      "place_id": "ChIJc5_DArYABDQRThVpsKyc5A4",
      "plus_code": {
        "compound_code": "85G9+52 \u9999\u6e2f",
        "global_code": "7PJP85G9+52"
      },
      "types": [
        "establishment",
        "food",
        "point_of_interest",
        "restaurant"
      ]
    }
  ],
  "licno": "3162803409",
  "timestamp": 1564975666,
  "version": "1564966095"
}
