{
  "adr_en": "All Night Long, G/F AND OUTSIDE SEATING ACCOMODATION IN FRONT OF G/F, 9 KNUTSFORD TERRACE, KOWLOON",
  "adr_tc": "\u4e5d\u9f8d\u8afe\u58eb\u4f5b\u81fa9\u865f\u5730\u4e0b\u53ca\u8216\u524d\u9732\u5929\u5ea7\u4f4d All Night Long",
  "geocode_en": [
    {
      "address_components": [
        {
          "long_name": "F",
          "short_name": "F",
          "types": [
            "subpremise"
          ]
        },
        {
          "long_name": "Koon Fook Centre",
          "short_name": "Koon Fook Centre",
          "types": [
            "premise"
          ]
        },
        {
          "long_name": "9",
          "short_name": "9",
          "types": [
            "street_number"
          ]
        },
        {
          "long_name": "Knutsford Terrace",
          "short_name": "Knutsford Terrace",
          "types": [
            "route"
          ]
        },
        {
          "long_name": "Tsim Sha Tsui",
          "short_name": "Tsim Sha Tsui",
          "types": [
            "neighborhood",
            "political"
          ]
        },
        {
          "long_name": "Kowloon",
          "short_name": "Kowloon",
          "types": [
            "administrative_area_level_1",
            "political"
          ]
        },
        {
          "long_name": "Hong Kong",
          "short_name": "HK",
          "types": [
            "country",
            "political"
          ]
        }
      ],
      "formatted_address": "F, Koon Fook Centre, 9 Knutsford Terrace, Tsim Sha Tsui, Hong Kong",
      "geometry": {
        "bounds": {
          "northeast": {
            "lat": 22.30142,
            "lng": 114.173936
          },
          "southwest": {
            "lat": 22.301216,
            "lng": 114.1737961
          }
        },
        "location": {
          "lat": 22.3013136,
          "lng": 114.1738698
        },
        "location_type": "ROOFTOP",
        "viewport": {
          "northeast": {
            "lat": 22.30266698029151,
            "lng": 114.1752150302915
          },
          "southwest": {
            "lat": 22.2999690197085,
            "lng": 114.1725170697085
          }
        }
      },
      "partial_match": true,
      "place_id": "EkJGLCBLb29uIEZvb2sgQ2VudHJlLCA5IEtudXRzZm9yZCBUZXJyYWNlLCBUc2ltIFNoYSBUc3VpLCBIb25nIEtvbmciHRobChYKFAoSCZe7fp_uAAQ0ESZiBw-3kDCwEgFG",
      "types": [
        "subpremise"
      ]
    }
  ],
  "geocode_tc": [
    {
      "address_components": [
        {
          "long_name": "\u4e5d\u9f8d",
          "short_name": "\u4e5d\u9f8d",
          "types": [
            "administrative_area_level_1",
            "political"
          ]
        },
        {
          "long_name": "\u9999\u6e2f",
          "short_name": "HK",
          "types": [
            "country",
            "political"
          ]
        }
      ],
      "formatted_address": "\u9999\u6e2f\u5c16\u6c99\u5480\u8afe\u58eb\u4f5b\u81fa9\u865f\u5730\u4e0b9 Knutsford Terrace",
      "geometry": {
        "location": {
          "lat": 22.301239,
          "lng": 114.1738801
        },
        "location_type": "GEOMETRIC_CENTER",
        "viewport": {
          "northeast": {
            "lat": 22.3025879802915,
            "lng": 114.1752290802915
          },
          "southwest": {
            "lat": 22.2998900197085,
            "lng": 114.1725311197085
          }
        }
      },
      "place_id": "ChIJV9tjmO4ABDQRBWpX8yxJQc8",
      "plus_code": {
        "compound_code": "852F+FH \u9999\u6e2f",
        "global_code": "7PJP852F+FH"
      },
      "types": [
        "establishment",
        "point_of_interest"
      ]
    }
  ],
  "licno": "3161230192",
  "timestamp": 1564975666,
  "version": "1564966095"
}
