{
  "adr_en": "FANTASY COFFEE, SHOP 1A9, G/F, RICHLAND GARDEN, 138 WU CHUI ROAD, TUEN MUN, NEW TERRITORIES",
  "adr_tc": "\u65b0\u754c\u5c6f\u9580\u6e56\u7fe0\u8def138\u865f\u555f\u8c50\u5712\u5730\u4e0b1A9\u865f\u8216 \u8303\u7279\u897f",
  "geocode_en": [
    {
      "address_components": [
        {
          "long_name": "138",
          "short_name": "138",
          "types": [
            "street_number"
          ]
        },
        {
          "long_name": "Wu Chui Road",
          "short_name": "Wu Chui Rd",
          "types": [
            "route"
          ]
        },
        {
          "long_name": "Tuen Mun",
          "short_name": "Tuen Mun",
          "types": [
            "neighborhood",
            "political"
          ]
        },
        {
          "long_name": "Hong Kong",
          "short_name": "HK",
          "types": [
            "country",
            "political"
          ]
        }
      ],
      "formatted_address": "Hong Kong, Tuen Mun, Wu Chui Rd, 138\u865fShop 1A9 G/F Richland Garden, N.T",
      "geometry": {
        "location": {
          "lat": 22.3729523,
          "lng": 113.9639356
        },
        "location_type": "ROOFTOP",
        "viewport": {
          "northeast": {
            "lat": 22.3743012802915,
            "lng": 113.9652845802915
          },
          "southwest": {
            "lat": 22.37160331970849,
            "lng": 113.9625866197085
          }
        }
      },
      "place_id": "ChIJwyWZSwb7AzQR8uOiPUtWbTc",
      "plus_code": {
        "compound_code": "9XF7+5H Hong Kong",
        "global_code": "7PJM9XF7+5H"
      },
      "types": [
        "cafe",
        "establishment",
        "food",
        "point_of_interest"
      ]
    }
  ],
  "geocode_tc": [
    {
      "address_components": [
        {
          "long_name": "\u9999\u6e2f",
          "short_name": "HK",
          "types": [
            "country",
            "political"
          ]
        }
      ],
      "formatted_address": "\u9999\u6e2f\u65b0\u754c\u5c6f\u9580\u6e56\u7fe0\u8def138\u865f\u555f\u8c50\u5712\u5546\u58341\u6a1381\u865f\u8216",
      "geometry": {
        "location": {
          "lat": 22.373136,
          "lng": 113.963808
        },
        "location_type": "GEOMETRIC_CENTER",
        "viewport": {
          "northeast": {
            "lat": 22.3744849802915,
            "lng": 113.9651569802915
          },
          "southwest": {
            "lat": 22.3717870197085,
            "lng": 113.9624590197085
          }
        }
      },
      "place_id": "ChIJ--9sQVD7AzQRglvL_1QfpXI",
      "plus_code": {
        "compound_code": "9XF7+7G \u9999\u6e2f",
        "global_code": "7PJM9XF7+7G"
      },
      "types": [
        "doctor",
        "establishment",
        "health",
        "point_of_interest"
      ]
    }
  ],
  "licno": "3193801694",
  "timestamp": 1564975666,
  "version": "1564966095"
}
