{
  "adr_en": "Amazonia, G/F., HENAN BUILDING, 90 & 92 JAFFE ROAD, 15-19 LUARD ROAD, WAN CHAI, HONG KONG",
  "adr_tc": "\u9999\u6e2f\u7063\u4ed4\u8b1d\u6590\u905390\u53ca92\u865f\u53ca\u76e7\u62bc\u905315-19\u865f\u8c6b\u6e2f\u5927\u5ec8\u5730\u4e0b Amazonia",
  "geocode_en": [
    {
      "address_components": [
        {
          "long_name": "15",
          "short_name": "15",
          "types": [
            "street_number"
          ]
        },
        {
          "long_name": "Luard Road",
          "short_name": "Luard Rd",
          "types": [
            "route"
          ]
        },
        {
          "long_name": "Wan Chai",
          "short_name": "Wan Chai",
          "types": [
            "neighborhood",
            "political"
          ]
        },
        {
          "long_name": "Hong Kong Island",
          "short_name": "Hong Kong Island",
          "types": [
            "administrative_area_level_1",
            "political"
          ]
        },
        {
          "long_name": "Hong Kong",
          "short_name": "HK",
          "types": [
            "country",
            "political"
          ]
        }
      ],
      "formatted_address": "15 Luard Rd, Wan Chai, Hong Kong",
      "geometry": {
        "location": {
          "lat": 22.278432,
          "lng": 114.171671
        },
        "location_type": "ROOFTOP",
        "viewport": {
          "northeast": {
            "lat": 22.2797809802915,
            "lng": 114.1730199802915
          },
          "southwest": {
            "lat": 22.2770830197085,
            "lng": 114.1703220197085
          }
        }
      },
      "partial_match": true,
      "place_id": "ChIJ-eEbWlwABDQRdKqJf3XOpXM",
      "plus_code": {
        "compound_code": "75HC+9M Wan Chai, Hong Kong",
        "global_code": "7PJP75HC+9M"
      },
      "types": [
        "bar",
        "establishment",
        "point_of_interest"
      ]
    },
    {
      "address_components": [
        {
          "long_name": "Henan Building",
          "short_name": "Henan Building",
          "types": [
            "premise"
          ]
        },
        {
          "long_name": "90",
          "short_name": "90",
          "types": [
            "street_number"
          ]
        },
        {
          "long_name": "Jaffe Road",
          "short_name": "Jaffe Rd",
          "types": [
            "route"
          ]
        },
        {
          "long_name": "Wan Chai",
          "short_name": "Wan Chai",
          "types": [
            "neighborhood",
            "political"
          ]
        },
        {
          "long_name": "Hong Kong Island",
          "short_name": "Hong Kong Island",
          "types": [
            "administrative_area_level_1",
            "political"
          ]
        },
        {
          "long_name": "Hong Kong",
          "short_name": "HK",
          "types": [
            "country",
            "political"
          ]
        }
      ],
      "formatted_address": "Henan Building, 90 Jaffe Rd, Wan Chai, Hong Kong",
      "geometry": {
        "bounds": {
          "northeast": {
            "lat": 22.278571,
            "lng": 114.1715911
          },
          "southwest": {
            "lat": 22.2784301,
            "lng": 114.171387
          }
        },
        "location": {
          "lat": 22.2784926,
          "lng": 114.1715012
        },
        "location_type": "ROOFTOP",
        "viewport": {
          "northeast": {
            "lat": 22.2798495302915,
            "lng": 114.1728380302915
          },
          "southwest": {
            "lat": 22.2771515697085,
            "lng": 114.1701400697085
          }
        }
      },
      "partial_match": true,
      "place_id": "ChIJ-wpjWlwABDQR7F7ghQ4DkQE",
      "types": [
        "premise"
      ]
    }
  ],
  "geocode_tc": [
    {
      "address_components": [
        {
          "long_name": "\u8c6b\u6e2f\u5927\u5ec8",
          "short_name": "\u8c6b\u6e2f\u5927\u5ec8",
          "types": [
            "premise"
          ]
        },
        {
          "long_name": "90",
          "short_name": "90",
          "types": [
            "street_number"
          ]
        },
        {
          "long_name": "\u8b1d\u6590\u9053",
          "short_name": "\u8b1d\u6590\u9053",
          "types": [
            "route"
          ]
        },
        {
          "long_name": "\u7063\u4ed4",
          "short_name": "\u7063\u4ed4",
          "types": [
            "neighborhood",
            "political"
          ]
        },
        {
          "long_name": "\u9999\u6e2f\u5cf6",
          "short_name": "\u9999\u6e2f\u5cf6",
          "types": [
            "administrative_area_level_1",
            "political"
          ]
        },
        {
          "long_name": "\u9999\u6e2f",
          "short_name": "HK",
          "types": [
            "country",
            "political"
          ]
        }
      ],
      "formatted_address": "\u9999\u6e2f\u7063\u4ed4\u8b1d\u6590\u905390\u865f\u8c6b\u6e2f\u5927\u5ec8",
      "geometry": {
        "bounds": {
          "northeast": {
            "lat": 22.278571,
            "lng": 114.1715911
          },
          "southwest": {
            "lat": 22.2784301,
            "lng": 114.171387
          }
        },
        "location": {
          "lat": 22.2784926,
          "lng": 114.1715012
        },
        "location_type": "ROOFTOP",
        "viewport": {
          "northeast": {
            "lat": 22.2798495302915,
            "lng": 114.1728380302915
          },
          "southwest": {
            "lat": 22.2771515697085,
            "lng": 114.1701400697085
          }
        }
      },
      "partial_match": true,
      "place_id": "ChIJ-wpjWlwABDQR7F7ghQ4DkQE",
      "types": [
        "premise"
      ]
    },
    {
      "address_components": [
        {
          "long_name": "15",
          "short_name": "15",
          "types": [
            "street_number"
          ]
        },
        {
          "long_name": "\u76e7\u62bc\u9053",
          "short_name": "\u76e7\u62bc\u9053",
          "types": [
            "route"
          ]
        },
        {
          "long_name": "\u7063\u4ed4",
          "short_name": "\u7063\u4ed4",
          "types": [
            "neighborhood",
            "political"
          ]
        },
        {
          "long_name": "\u9999\u6e2f\u5cf6",
          "short_name": "\u9999\u6e2f\u5cf6",
          "types": [
            "administrative_area_level_1",
            "political"
          ]
        },
        {
          "long_name": "\u9999\u6e2f",
          "short_name": "HK",
          "types": [
            "country",
            "political"
          ]
        }
      ],
      "formatted_address": "\u9999\u6e2f\u7063\u4ed4\u76e7\u62bc\u905315\u865f",
      "geometry": {
        "location": {
          "lat": 22.278432,
          "lng": 114.171671
        },
        "location_type": "ROOFTOP",
        "viewport": {
          "northeast": {
            "lat": 22.2797809802915,
            "lng": 114.1730199802915
          },
          "southwest": {
            "lat": 22.2770830197085,
            "lng": 114.1703220197085
          }
        }
      },
      "partial_match": true,
      "place_id": "ChIJ-eEbWlwABDQRdKqJf3XOpXM",
      "plus_code": {
        "compound_code": "75HC+9M \u9999\u6e2f\u7063\u4ed4",
        "global_code": "7PJP75HC+9M"
      },
      "types": [
        "bar",
        "establishment",
        "point_of_interest"
      ]
    }
  ],
  "licno": "3112803440",
  "timestamp": 1564975666,
  "version": "1564966095"
}
