{
  "adr_en": "\u6ed4\u6ed4\u751c\u54c1, G/F AND THE OUTSIDE SEATING ACCOMMODATION AT SHOP FRONT OF SHOP 9, HONG LOK SQUARE, 8 YUEN LONG HONG LOK ROAD, YUEN LONG, NEW TERRITORIES",
  "adr_tc": "\u65b0\u754c\u5143\u6717\u5143\u6717\u5eb7\u6a02\u8def8\u865f\u5eb7\u6a02\u5ee3\u5834\u5730\u4e0b9\u865f\u92ea \u53ca\u92ea\u524d\u9732\u5929\u5ea7\u4f4d \u6ed4\u6ed4\u751c\u54c1",
  "geocode_en": [
    {
      "address_components": [
        {
          "long_name": "Yuen Long Hong Lok Road",
          "short_name": "Yuen Long Hong Lok Rd",
          "types": [
            "route"
          ]
        },
        {
          "long_name": "Yuen Long",
          "short_name": "Yuen Long",
          "types": [
            "neighborhood",
            "political"
          ]
        },
        {
          "long_name": "New Territories",
          "short_name": "New Territories",
          "types": [
            "administrative_area_level_1",
            "political"
          ]
        },
        {
          "long_name": "Hong Kong",
          "short_name": "HK",
          "types": [
            "country",
            "political"
          ]
        }
      ],
      "formatted_address": "Yuen Long Hong Lok Rd, Yuen Long, Hong Kong",
      "geometry": {
        "location": {
          "lat": 22.4433876,
          "lng": 114.027075
        },
        "location_type": "GEOMETRIC_CENTER",
        "viewport": {
          "northeast": {
            "lat": 22.4447365802915,
            "lng": 114.0284239802915
          },
          "southwest": {
            "lat": 22.4420386197085,
            "lng": 114.0257260197085
          }
        }
      },
      "partial_match": true,
      "place_id": "ChIJk9y4dqDwAzQRZgOALkH_cIk",
      "plus_code": {
        "compound_code": "C2VG+9R Hong Kong",
        "global_code": "7PJPC2VG+9R"
      },
      "types": [
        "establishment",
        "food",
        "point_of_interest",
        "store"
      ]
    },
    {
      "address_components": [
        {
          "long_name": "SHOP 9",
          "short_name": "SHOP 9",
          "types": [
            "subpremise"
          ]
        },
        {
          "long_name": "Hong Lok Square",
          "short_name": "Hong Lok Square",
          "types": [
            "premise"
          ]
        },
        {
          "long_name": "8",
          "short_name": "8",
          "types": [
            "street_number"
          ]
        },
        {
          "long_name": "Yuen Long Hong Lok Road",
          "short_name": "Yuen Long Hong Lok Rd",
          "types": [
            "route"
          ]
        },
        {
          "long_name": "Yuen Long",
          "short_name": "Yuen Long",
          "types": [
            "neighborhood",
            "political"
          ]
        },
        {
          "long_name": "New Territories",
          "short_name": "New Territories",
          "types": [
            "administrative_area_level_1",
            "political"
          ]
        },
        {
          "long_name": "Hong Kong",
          "short_name": "HK",
          "types": [
            "country",
            "political"
          ]
        }
      ],
      "formatted_address": "SHOP 9, Hong Lok Square, 8 Yuen Long Hong Lok Rd, Yuen Long, Hong Kong",
      "geometry": {
        "bounds": {
          "northeast": {
            "lat": 22.443423,
            "lng": 114.027106
          },
          "southwest": {
            "lat": 22.443278,
            "lng": 114.026897
          }
        },
        "location": {
          "lat": 22.4433347,
          "lng": 114.0269885
        },
        "location_type": "ROOFTOP",
        "viewport": {
          "northeast": {
            "lat": 22.4446994802915,
            "lng": 114.0283504802915
          },
          "southwest": {
            "lat": 22.4420015197085,
            "lng": 114.0256525197085
          }
        }
      },
      "partial_match": true,
      "place_id": "EkZTSE9QIDksIEhvbmcgTG9rIFNxdWFyZSwgOCBZdWVuIExvbmcgSG9uZyBMb2sgUmQsIFl1ZW4gTG9uZywgSG9uZyBLb25nIiIaIAoWChQKEgn_M-h2oPADNBGg23qrSasA9xIGU0hPUCA5",
      "types": [
        "subpremise"
      ]
    },
    {
      "address_components": [
        {
          "long_name": "Hong Lok Square",
          "short_name": "Hong Lok Square",
          "types": [
            "premise"
          ]
        },
        {
          "long_name": "8",
          "short_name": "8",
          "types": [
            "street_number"
          ]
        },
        {
          "long_name": "Yuen Long Hong Lok Road",
          "short_name": "Yuen Long Hong Lok Rd",
          "types": [
            "route"
          ]
        },
        {
          "long_name": "Yuen Long",
          "short_name": "Yuen Long",
          "types": [
            "neighborhood",
            "political"
          ]
        },
        {
          "long_name": "New Territories",
          "short_name": "New Territories",
          "types": [
            "administrative_area_level_1",
            "political"
          ]
        },
        {
          "long_name": "Hong Kong",
          "short_name": "HK",
          "types": [
            "country",
            "political"
          ]
        }
      ],
      "formatted_address": "Hong Lok Square, 8 Yuen Long Hong Lok Rd, Yuen Long, Hong Kong",
      "geometry": {
        "bounds": {
          "northeast": {
            "lat": 22.443423,
            "lng": 114.027106
          },
          "southwest": {
            "lat": 22.443278,
            "lng": 114.026897
          }
        },
        "location": {
          "lat": 22.4433347,
          "lng": 114.0269885
        },
        "location_type": "ROOFTOP",
        "viewport": {
          "northeast": {
            "lat": 22.4446994802915,
            "lng": 114.0283504802915
          },
          "southwest": {
            "lat": 22.4420015197085,
            "lng": 114.0256525197085
          }
        }
      },
      "partial_match": true,
      "place_id": "ChIJ_zPodqDwAzQRoNt6q0mrAPc",
      "types": [
        "premise"
      ]
    }
  ],
  "geocode_tc": [
    {
      "address_components": [
        {
          "long_name": "\u5143\u6717\u5eb7\u6a02\u8def",
          "short_name": "\u5143\u6717\u5eb7\u6a02\u8def",
          "types": [
            "route"
          ]
        },
        {
          "long_name": "\u5143\u6717",
          "short_name": "\u5143\u6717",
          "types": [
            "neighborhood",
            "political"
          ]
        },
        {
          "long_name": "\u65b0\u754c",
          "short_name": "\u65b0\u754c",
          "types": [
            "administrative_area_level_1",
            "political"
          ]
        },
        {
          "long_name": "\u9999\u6e2f",
          "short_name": "HK",
          "types": [
            "country",
            "political"
          ]
        }
      ],
      "formatted_address": "\u9999\u6e2f\u5143\u6717\u5143\u6717\u5eb7\u6a02\u8def",
      "geometry": {
        "location": {
          "lat": 22.4433876,
          "lng": 114.027075
        },
        "location_type": "GEOMETRIC_CENTER",
        "viewport": {
          "northeast": {
            "lat": 22.4447365802915,
            "lng": 114.0284239802915
          },
          "southwest": {
            "lat": 22.4420386197085,
            "lng": 114.0257260197085
          }
        }
      },
      "partial_match": true,
      "place_id": "ChIJk9y4dqDwAzQRZgOALkH_cIk",
      "plus_code": {
        "compound_code": "C2VG+9R \u9999\u6e2f",
        "global_code": "7PJPC2VG+9R"
      },
      "types": [
        "establishment",
        "food",
        "point_of_interest",
        "store"
      ]
    },
    {
      "address_components": [
        {
          "long_name": "\u5730\u4e0b9\u865f\u92ea",
          "short_name": "\u5730\u4e0b9\u865f\u92ea",
          "types": [
            "subpremise"
          ]
        },
        {
          "long_name": "\u5eb7\u6a02\u5ee3\u5834",
          "short_name": "\u5eb7\u6a02\u5ee3\u5834",
          "types": [
            "premise"
          ]
        },
        {
          "long_name": "8",
          "short_name": "8",
          "types": [
            "street_number"
          ]
        },
        {
          "long_name": "\u5143\u6717\u5eb7\u6a02\u8def",
          "short_name": "\u5143\u6717\u5eb7\u6a02\u8def",
          "types": [
            "route"
          ]
        },
        {
          "long_name": "\u5143\u6717",
          "short_name": "\u5143\u6717",
          "types": [
            "neighborhood",
            "political"
          ]
        },
        {
          "long_name": "\u65b0\u754c",
          "short_name": "\u65b0\u754c",
          "types": [
            "administrative_area_level_1",
            "political"
          ]
        },
        {
          "long_name": "\u9999\u6e2f",
          "short_name": "HK",
          "types": [
            "country",
            "political"
          ]
        }
      ],
      "formatted_address": "\u9999\u6e2f\u5143\u6717\u5143\u6717\u5eb7\u6a02\u8def8\u865f\u5eb7\u6a02\u5ee3\u5834\u5730\u4e0b9\u865f\u92ea",
      "geometry": {
        "bounds": {
          "northeast": {
            "lat": 22.443423,
            "lng": 114.027106
          },
          "southwest": {
            "lat": 22.443278,
            "lng": 114.026897
          }
        },
        "location": {
          "lat": 22.4433347,
          "lng": 114.0269885
        },
        "location_type": "ROOFTOP",
        "viewport": {
          "northeast": {
            "lat": 22.4446994802915,
            "lng": 114.0283504802915
          },
          "southwest": {
            "lat": 22.4420015197085,
            "lng": 114.0256525197085
          }
        }
      },
      "partial_match": true,
      "place_id": "Ek3lnLDkuIs56Jmf6YuqLCBIb25nIExvayBTcXVhcmUsIDggWXVlbiBMb25nIEhvbmcgTG9rIFJkLCBZdWVuIExvbmcsIEhvbmcgS29uZyIpGicKFgoUChIJ_zPodqDwAzQRoNt6q0mrAPcSDeWcsOS4iznomZ_pi6o",
      "types": [
        "subpremise"
      ]
    }
  ],
  "licno": "3194800801",
  "timestamp": 1564975666,
  "version": "1564966095"
}
