{
  "adr_en": "(no record found), G/F., 574 FUK WA STREET, SHAM SHUI PO, KOWLOON",
  "adr_tc": "\u4e5d\u9f8d\u6df1\u6c34\u57d7574\u865f\u798f\u83ef\u8857\u5730\u4e0b (\u6c92\u6709\u8a18\u9304)",
  "geocode_en": [
    {
      "address_components": [
        {
          "long_name": "Fuk Wa Street",
          "short_name": "Fuk Wa St",
          "types": [
            "route"
          ]
        },
        {
          "long_name": "Sham Shui Po",
          "short_name": "Sham Shui Po",
          "types": [
            "neighborhood",
            "political"
          ]
        },
        {
          "long_name": "Kowloon",
          "short_name": "Kowloon",
          "types": [
            "administrative_area_level_1",
            "political"
          ]
        },
        {
          "long_name": "Hong Kong",
          "short_name": "HK",
          "types": [
            "country",
            "political"
          ]
        }
      ],
      "formatted_address": "Fuk Wa St, Sham Shui Po, Hong Kong",
      "geometry": {
        "bounds": {
          "northeast": {
            "lat": 22.3337722,
            "lng": 114.1649862
          },
          "southwest": {
            "lat": 22.3294413,
            "lng": 114.1595886
          }
        },
        "location": {
          "lat": 22.3315475,
          "lng": 114.1623198
        },
        "location_type": "GEOMETRIC_CENTER",
        "viewport": {
          "northeast": {
            "lat": 22.3337722,
            "lng": 114.1649862
          },
          "southwest": {
            "lat": 22.3294413,
            "lng": 114.1595886
          }
        }
      },
      "partial_match": true,
      "place_id": "EiJGdWsgV2EgU3QsIFNoYW0gU2h1aSBQbywgSG9uZyBLb25nIi4qLAoUChIJ0U7h6rQABDQRK2_-oSVVa4MSFAoSCQuqX6G0AAQ0EU5_6bnhEYbj",
      "types": [
        "route"
      ]
    }
  ],
  "geocode_tc": [
    {
      "address_components": [
        {
          "long_name": "574",
          "short_name": "574",
          "types": [
            "street_number"
          ]
        },
        {
          "long_name": "\u798f\u83ef\u8857",
          "short_name": "\u798f\u83ef\u8857",
          "types": [
            "route"
          ]
        },
        {
          "long_name": "\u6df1\u6c34\u57d7",
          "short_name": "\u6df1\u6c34\u57d7",
          "types": [
            "neighborhood",
            "political"
          ]
        },
        {
          "long_name": "\u4e5d\u9f8d",
          "short_name": "\u4e5d\u9f8d",
          "types": [
            "administrative_area_level_1",
            "political"
          ]
        },
        {
          "long_name": "\u9999\u6e2f",
          "short_name": "HK",
          "types": [
            "country",
            "political"
          ]
        }
      ],
      "formatted_address": "\u9999\u6e2f\u6df1\u6c34\u57d7\u798f\u83ef\u8857574\u865f",
      "geometry": {
        "location": {
          "lat": 22.339331,
          "lng": 114.152542
        },
        "location_type": "ROOFTOP",
        "viewport": {
          "northeast": {
            "lat": 22.3406799802915,
            "lng": 114.1538909802915
          },
          "southwest": {
            "lat": 22.33798201970849,
            "lng": 114.1511930197085
          }
        }
      },
      "partial_match": true,
      "place_id": "ChIJ81w81FMHBDQRNpNlEpr9gD0",
      "plus_code": {
        "compound_code": "85Q3+P2 \u9999\u6e2f",
        "global_code": "7PJP85Q3+P2"
      },
      "types": [
        "street_address"
      ]
    }
  ],
  "licno": "3863806642",
  "timestamp": 1564975666,
  "version": "1564966095"
}
