{
  "adr_en": "Shing Po Rose Garden Karaoke Night Club, 1/F, WAH MAY BUILDING, 518-522 SHANGHAI STREET, 36 SHANTUNG STREET, KOWLOON",
  "adr_tc": "\u4e5d\u9f8d\u5c71\u6771\u885736\u865f1\u6a13\u8207\u4e0a\u6d77\u8857518-522\u865f \u83ef\u7f8e\u5927\u5ec81\u6a13 \u8072\u5bf6\u73ab\u7470\u5712\u591c\u7e3d\u6703",
  "geocode_en": [
    {
      "address_components": [
        {
          "long_name": "Hong Kong",
          "short_name": "HK",
          "types": [
            "country",
            "political"
          ]
        }
      ],
      "formatted_address": "1/F, Wah May Building, 518-522 Shanghai Street, 36 Shantung Street, Kowloon, Hong Kong",
      "geometry": {
        "location": {
          "lat": 22.317186,
          "lng": 114.168684
        },
        "location_type": "GEOMETRIC_CENTER",
        "viewport": {
          "northeast": {
            "lat": 22.3185349802915,
            "lng": 114.1700329802915
          },
          "southwest": {
            "lat": 22.3158370197085,
            "lng": 114.1673350197085
          }
        }
      },
      "place_id": "ChIJAUbQdscABDQR7pNkpsZS6OU",
      "plus_code": {
        "compound_code": "8589+VF Hong Kong",
        "global_code": "7PJP8589+VF"
      },
      "types": [
        "establishment",
        "point_of_interest"
      ]
    }
  ],
  "geocode_tc": [
    {
      "address_components": [
        {
          "long_name": "\u83ef\u7f8e\u5927\u6a13A\u5ea7",
          "short_name": "\u83ef\u7f8e\u5927\u6a13A\u5ea7",
          "types": [
            "premise"
          ]
        },
        {
          "long_name": "518-522",
          "short_name": "518-522",
          "types": [
            "street_number"
          ]
        },
        {
          "long_name": "\u4e0a\u6d77\u8857",
          "short_name": "\u4e0a\u6d77\u8857",
          "types": [
            "route"
          ]
        },
        {
          "long_name": "\u65fa\u89d2",
          "short_name": "\u65fa\u89d2",
          "types": [
            "neighborhood",
            "political"
          ]
        },
        {
          "long_name": "\u4e5d\u9f8d",
          "short_name": "\u4e5d\u9f8d",
          "types": [
            "administrative_area_level_1",
            "political"
          ]
        },
        {
          "long_name": "\u9999\u6e2f",
          "short_name": "HK",
          "types": [
            "country",
            "political"
          ]
        }
      ],
      "formatted_address": "\u9999\u6e2f\u65fa\u89d2\u4e0a\u6d77\u8857518-522\u865f\u83ef\u7f8e\u5927\u6a13A\u5ea7",
      "geometry": {
        "bounds": {
          "northeast": {
            "lat": 22.3172771,
            "lng": 114.1688231
          },
          "southwest": {
            "lat": 22.317103,
            "lng": 114.1686061
          }
        },
        "location": {
          "lat": 22.317193,
          "lng": 114.1686912
        },
        "location_type": "ROOFTOP",
        "viewport": {
          "northeast": {
            "lat": 22.3185390302915,
            "lng": 114.1700635802915
          },
          "southwest": {
            "lat": 22.3158410697085,
            "lng": 114.1673656197085
          }
        }
      },
      "partial_match": true,
      "place_id": "ChIJfwDGdscABDQR9G3gYPHwrCg",
      "types": [
        "premise"
      ]
    },
    {
      "address_components": [
        {
          "long_name": "36\u865f",
          "short_name": "36\u865f",
          "types": [
            "street_number"
          ]
        },
        {
          "long_name": "\u5c71\u6771\u8857",
          "short_name": "\u5c71\u6771\u8857",
          "types": [
            "route"
          ]
        },
        {
          "long_name": "\u65fa\u89d2",
          "short_name": "\u65fa\u89d2",
          "types": [
            "neighborhood",
            "political"
          ]
        },
        {
          "long_name": "\u4e5d\u9f8d",
          "short_name": "\u4e5d\u9f8d",
          "types": [
            "administrative_area_level_1",
            "political"
          ]
        },
        {
          "long_name": "\u9999\u6e2f",
          "short_name": "HK",
          "types": [
            "country",
            "political"
          ]
        }
      ],
      "formatted_address": "\u9999\u6e2f\u65fa\u89d2\u5c71\u6771\u885736\u865f",
      "geometry": {
        "location": {
          "lat": 22.3171884,
          "lng": 114.1686904
        },
        "location_type": "ROOFTOP",
        "viewport": {
          "northeast": {
            "lat": 22.3185373802915,
            "lng": 114.1700393802915
          },
          "southwest": {
            "lat": 22.3158394197085,
            "lng": 114.1673414197085
          }
        }
      },
      "partial_match": true,
      "place_id": "ChIJCX7ddscABDQRThjK1E-8O9Q",
      "plus_code": {
        "compound_code": "8589+VF \u9999\u6e2f",
        "global_code": "7PJP8589+VF"
      },
      "types": [
        "establishment",
        "point_of_interest"
      ]
    },
    {
      "address_components": [
        {
          "long_name": "1",
          "short_name": "1",
          "types": [
            "subpremise"
          ]
        },
        {
          "long_name": "\u83ef\u7f8e\u5927\u6a13A\u5ea7",
          "short_name": "\u83ef\u7f8e\u5927\u6a13A\u5ea7",
          "types": [
            "premise"
          ]
        },
        {
          "long_name": "518-522",
          "short_name": "518-522",
          "types": [
            "street_number"
          ]
        },
        {
          "long_name": "\u4e0a\u6d77\u8857",
          "short_name": "\u4e0a\u6d77\u8857",
          "types": [
            "route"
          ]
        },
        {
          "long_name": "\u65fa\u89d2",
          "short_name": "\u65fa\u89d2",
          "types": [
            "neighborhood",
            "political"
          ]
        },
        {
          "long_name": "\u4e5d\u9f8d",
          "short_name": "\u4e5d\u9f8d",
          "types": [
            "administrative_area_level_1",
            "political"
          ]
        },
        {
          "long_name": "\u9999\u6e2f",
          "short_name": "HK",
          "types": [
            "country",
            "political"
          ]
        }
      ],
      "formatted_address": "\u9999\u6e2f\u65fa\u89d2\u4e0a\u6d77\u8857518-522\u865f\u83ef\u7f8e\u5927\u6a13A\u5ea71",
      "geometry": {
        "bounds": {
          "northeast": {
            "lat": 22.3172771,
            "lng": 114.1688231
          },
          "southwest": {
            "lat": 22.317103,
            "lng": 114.1686061
          }
        },
        "location": {
          "lat": 22.317193,
          "lng": 114.1686912
        },
        "location_type": "ROOFTOP",
        "viewport": {
          "northeast": {
            "lat": 22.3185390302915,
            "lng": 114.1700635802915
          },
          "southwest": {
            "lat": 22.3158410697085,
            "lng": 114.1673656197085
          }
        }
      },
      "partial_match": true,
      "place_id": "EkUxLCBXYWggTWF5IEJ1aWxkaW5nIEJsb2NrIEEsIDUxOC01MjIgU2hhbmdoYWkgU3QsIE1vbmcgS29rLCBIb25nIEtvbmciHRobChYKFAoSCX8AxnbHAAQ0EfRt4GDx8KwoEgEx",
      "types": [
        "subpremise"
      ]
    },
    {
      "address_components": [
        {
          "long_name": "\u6a13\u8207",
          "short_name": "\u6a13\u8207",
          "types": [
            "subpremise"
          ]
        },
        {
          "long_name": "36",
          "short_name": "36",
          "types": [
            "street_number"
          ]
        },
        {
          "long_name": "\u5c71\u6771\u8857",
          "short_name": "\u5c71\u6771\u8857",
          "types": [
            "route"
          ]
        },
        {
          "long_name": "\u65fa\u89d2",
          "short_name": "\u65fa\u89d2",
          "types": [
            "neighborhood",
            "political"
          ]
        },
        {
          "long_name": "\u4e5d\u9f8d",
          "short_name": "\u4e5d\u9f8d",
          "types": [
            "administrative_area_level_1",
            "political"
          ]
        },
        {
          "long_name": "\u9999\u6e2f",
          "short_name": "HK",
          "types": [
            "country",
            "political"
          ]
        }
      ],
      "formatted_address": "\u9999\u6e2f\u65fa\u89d2\u5c71\u6771\u885736\u865f\u6a13\u8207",
      "geometry": {
        "location": {
          "lat": 22.3172322,
          "lng": 114.1687378
        },
        "location_type": "ROOFTOP",
        "viewport": {
          "northeast": {
            "lat": 22.3185811802915,
            "lng": 114.1700867802915
          },
          "southwest": {
            "lat": 22.3158832197085,
            "lng": 114.1673888197085
          }
        }
      },
      "partial_match": true,
      "place_id": "Ei_mqJPoiIcsIDM2IFNoYW50dW5nIFN0cmVldCwgTW9uZyBLb2ssIEhvbmcgS29uZyIiGiAKFgoUChIJT02VdscABDQRLsrg3NTBwhISBuaok-iIhw",
      "types": [
        "subpremise"
      ]
    }
  ],
  "licno": "3162168027",
  "timestamp": 1564975666,
  "version": "1564966095"
}
