{
  "adr_en": "Riverview, AL-501 (PORTION), ADVENTURELAND, HONG KONG DISNEYLAND RESORT, LANTAU ISLAND, HONG KONG",
  "adr_tc": "\u9999\u6e2f\u5927\u5dbc\u5c71\u9999\u6e2f\u8fea\u58eb\u5c3c\u6a02\u5712\u5ea6\u5047\u5340 \u63a2\u96aa\u4e16\u754cAL-501\u865f\u8216(\u90e8\u5206) \u6cb3\u666f\u9910\u5ef3",
  "geocode_en": [
    {
      "address_components": [
        {
          "long_name": "Hong Kong",
          "short_name": "HK",
          "types": [
            "country",
            "political"
          ]
        }
      ],
      "formatted_address": "Hong Kong, \u5927\u5dbc\u5c71\u9999\u6e2f\u8fea\u58eb\u5c3c\u6a02\u5712\u63a2\u96aa\u4e16\u754c\u5340",
      "geometry": {
        "location": {
          "lat": 22.3114609,
          "lng": 114.0409975
        },
        "location_type": "GEOMETRIC_CENTER",
        "viewport": {
          "northeast": {
            "lat": 22.31280988029151,
            "lng": 114.0423464802915
          },
          "southwest": {
            "lat": 22.3101119197085,
            "lng": 114.0396485197085
          }
        }
      },
      "partial_match": true,
      "place_id": "ChIJe4YFLiz8AzQR_Fy3S5m8da0",
      "plus_code": {
        "compound_code": "826R+H9 Hong Kong",
        "global_code": "7PJP826R+H9"
      },
      "types": [
        "establishment",
        "food",
        "point_of_interest",
        "restaurant"
      ]
    },
    {
      "address_components": [
        {
          "long_name": "Hong Kong Disneyland Resort",
          "short_name": "Hong Kong Disneyland Resort",
          "types": [
            "neighborhood",
            "political"
          ]
        },
        {
          "long_name": "New Territories",
          "short_name": "New Territories",
          "types": [
            "administrative_area_level_1",
            "political"
          ]
        },
        {
          "long_name": "Hong Kong",
          "short_name": "HK",
          "types": [
            "country",
            "political"
          ]
        }
      ],
      "formatted_address": "Hong Kong Disneyland Resort, Hong Kong",
      "geometry": {
        "location": {
          "lat": 22.3117019,
          "lng": 114.0417428
        },
        "location_type": "GEOMETRIC_CENTER",
        "viewport": {
          "northeast": {
            "lat": 22.3130508802915,
            "lng": 114.0430917802915
          },
          "southwest": {
            "lat": 22.3103529197085,
            "lng": 114.0403938197085
          }
        }
      },
      "partial_match": true,
      "place_id": "ChIJg0PWFSz8AzQRIdmCI21FYyY",
      "plus_code": {
        "compound_code": "826R+MM Hong Kong",
        "global_code": "7PJP826R+MM"
      },
      "types": [
        "amusement_park",
        "establishment",
        "point_of_interest"
      ]
    }
  ],
  "geocode_tc": [
    {
      "address_components": [
        {
          "long_name": "\u9999\u6e2f",
          "short_name": "HK",
          "types": [
            "country",
            "political"
          ]
        }
      ],
      "formatted_address": "\u9999\u6e2f\u5927\u5dbc\u5c71\u9999\u6e2f\u8fea\u58eb\u5c3c\u6a02\u5712\u63a2\u96aa\u4e16\u754c\u5340",
      "geometry": {
        "location": {
          "lat": 22.3119209,
          "lng": 114.0420439
        },
        "location_type": "GEOMETRIC_CENTER",
        "viewport": {
          "northeast": {
            "lat": 22.3132698802915,
            "lng": 114.0433928802915
          },
          "southwest": {
            "lat": 22.3105719197085,
            "lng": 114.0406949197085
          }
        }
      },
      "place_id": "ChIJWSGODyz8AzQR5bHWD5RPQcI",
      "plus_code": {
        "compound_code": "826R+QR \u9999\u6e2f",
        "global_code": "7PJP826R+QR"
      },
      "types": [
        "establishment",
        "food",
        "point_of_interest",
        "restaurant"
      ]
    }
  ],
  "licno": "2217001999",
  "timestamp": 1564968756,
  "version": "1564966095"
}
