{
  "adr_en": "Caf\u00e9  de Coral, SHOP NO. 4, G/F, CHEUNG LUNG LANE, CHEUNG LUNG WAI ESTATE, SHEUNG SHUI, NEW TERRITORIES",
  "adr_tc": "\u65b0\u754c\u4e0a\u6c34\u7965\u9f8d\u570d\u90a8\u7965\u9f8d\u91cc\u5730\u4e0b4\u865f\u92ea \u5927\u5bb6\u6a02",
  "geocode_en": [
    {
      "address_components": [
        {
          "long_name": "Hong Kong",
          "short_name": "HK",
          "types": [
            "country",
            "political"
          ]
        }
      ],
      "formatted_address": "CHEUNG LUNG WAI ESTATE, 21 CHING HIU ROAD, SHEUNG SHUI, NT, Hong Kong",
      "geometry": {
        "location": {
          "lat": 22.494656,
          "lng": 114.124286
        },
        "location_type": "GEOMETRIC_CENTER",
        "viewport": {
          "northeast": {
            "lat": 22.4960049802915,
            "lng": 114.1256349802915
          },
          "southwest": {
            "lat": 22.4933070197085,
            "lng": 114.1229370197085
          }
        }
      },
      "partial_match": true,
      "place_id": "ChIJJfy3ID72AzQR5glOdr1u6lU",
      "plus_code": {
        "compound_code": "F4VF+VP Hong Kong",
        "global_code": "7PJPF4VF+VP"
      },
      "types": [
        "establishment",
        "point_of_interest"
      ]
    }
  ],
  "geocode_tc": [
    {
      "address_components": [
        {
          "long_name": "\u4e0a\u6c34",
          "short_name": "\u4e0a\u6c34",
          "types": [
            "neighborhood",
            "political"
          ]
        },
        {
          "long_name": "\u65b0\u754c",
          "short_name": "\u65b0\u754c",
          "types": [
            "administrative_area_level_1",
            "political"
          ]
        },
        {
          "long_name": "\u9999\u6e2f",
          "short_name": "HK",
          "types": [
            "country",
            "political"
          ]
        }
      ],
      "formatted_address": "\u9999\u6e2f\u4e0a\u6c34",
      "geometry": {
        "location": {
          "lat": 22.4950433,
          "lng": 114.1241969
        },
        "location_type": "GEOMETRIC_CENTER",
        "viewport": {
          "northeast": {
            "lat": 22.4963922802915,
            "lng": 114.1255458802915
          },
          "southwest": {
            "lat": 22.4936943197085,
            "lng": 114.1228479197085
          }
        }
      },
      "place_id": "ChIJq09biRX2AzQRvOZPeJ1D6wk",
      "plus_code": {
        "compound_code": "F4WF+2M \u9999\u6e2f",
        "global_code": "7PJPF4WF+2M"
      },
      "types": [
        "establishment",
        "food",
        "point_of_interest",
        "restaurant"
      ]
    }
  ],
  "licno": "2296801651",
  "timestamp": 1564975666,
  "version": "1564966095"
}
