{
  "adr_en": "\u81ea\u5728\u7d20\u98df, FLAT A1, G/F & FLAT B, 1/F, EVERICH BUILDING, 43 BOUNDARY STREET, SHAM SHUI PO, KOWLOON",
  "adr_tc": "\u4e5d\u9f8d\u754c\u9650\u885743\u865f\u6052\u5bcc\u5927\u5ec8\u5730\u4e0b A1 \u5ba4\u53ca1\u6a13B\u5ba4 \u81ea\u5728\u7d20\u98df",
  "geocode_en": [
    {
      "address_components": [
        {
          "long_name": "Everich Building",
          "short_name": "Everich Building",
          "types": [
            "premise"
          ]
        },
        {
          "long_name": "43",
          "short_name": "43",
          "types": [
            "street_number"
          ]
        },
        {
          "long_name": "Boundary Street",
          "short_name": "Boundary St",
          "types": [
            "route"
          ]
        },
        {
          "long_name": "Tong Mi",
          "short_name": "Tong Mi",
          "types": [
            "neighborhood",
            "political"
          ]
        },
        {
          "long_name": "Kowloon",
          "short_name": "Kowloon",
          "types": [
            "administrative_area_level_1",
            "political"
          ]
        },
        {
          "long_name": "Hong Kong",
          "short_name": "HK",
          "types": [
            "country",
            "political"
          ]
        }
      ],
      "formatted_address": "Everich Building, 43 Boundary St, Tong Mi, Hong Kong",
      "geometry": {
        "bounds": {
          "northeast": {
            "lat": 22.3267529,
            "lng": 114.168153
          },
          "southwest": {
            "lat": 22.326608,
            "lng": 114.1678951
          }
        },
        "location": {
          "lat": 22.3266512,
          "lng": 114.1680178
        },
        "location_type": "ROOFTOP",
        "viewport": {
          "northeast": {
            "lat": 22.3280294302915,
            "lng": 114.1693730302915
          },
          "southwest": {
            "lat": 22.3253314697085,
            "lng": 114.1666750697085
          }
        }
      },
      "partial_match": true,
      "place_id": "ChIJPxinCMoABDQRZNwppY-lE_c",
      "types": [
        "premise"
      ]
    },
    {
      "address_components": [
        {
          "long_name": "Everich Building",
          "short_name": "Everich Building",
          "types": [
            "premise"
          ]
        },
        {
          "long_name": "43",
          "short_name": "43",
          "types": [
            "street_number"
          ]
        },
        {
          "long_name": "Boundary Street",
          "short_name": "Boundary St",
          "types": [
            "route"
          ]
        },
        {
          "long_name": "Tong Mi",
          "short_name": "Tong Mi",
          "types": [
            "neighborhood",
            "political"
          ]
        },
        {
          "long_name": "Kowloon",
          "short_name": "Kowloon",
          "types": [
            "administrative_area_level_1",
            "political"
          ]
        },
        {
          "long_name": "Hong Kong",
          "short_name": "HK",
          "types": [
            "country",
            "political"
          ]
        }
      ],
      "formatted_address": "Everich Building, 43 Boundary St, Tong Mi, Hong Kong",
      "geometry": {
        "bounds": {
          "northeast": {
            "lat": 22.3267529,
            "lng": 114.168153
          },
          "southwest": {
            "lat": 22.326608,
            "lng": 114.1678951
          }
        },
        "location": {
          "lat": 22.3266512,
          "lng": 114.1680178
        },
        "location_type": "ROOFTOP",
        "viewport": {
          "northeast": {
            "lat": 22.3280294302915,
            "lng": 114.1693730302915
          },
          "southwest": {
            "lat": 22.3253314697085,
            "lng": 114.1666750697085
          }
        }
      },
      "partial_match": true,
      "place_id": "ChIJPxinCMoABDQRZNwppY-lE_c",
      "types": [
        "premise"
      ]
    }
  ],
  "geocode_tc": [
    {
      "address_components": [
        {
          "long_name": "43\u865f",
          "short_name": "43\u865f",
          "types": [
            "street_number"
          ]
        },
        {
          "long_name": "\u754c\u9650\u8857",
          "short_name": "\u754c\u9650\u8857",
          "types": [
            "route"
          ]
        },
        {
          "long_name": "\u5858\u5c3e",
          "short_name": "\u5858\u5c3e",
          "types": [
            "neighborhood",
            "political"
          ]
        },
        {
          "long_name": "\u9999\u6e2f",
          "short_name": "HK",
          "types": [
            "country",
            "political"
          ]
        }
      ],
      "formatted_address": "\u9999\u6e2f\u5858\u5c3e\u754c\u9650\u885743\u865f\u5730\u4e0bA1\u865f\u8216\u6046\u5bcc\u5927\u5ec8",
      "geometry": {
        "location": {
          "lat": 22.3266534,
          "lng": 114.1680524
        },
        "location_type": "ROOFTOP",
        "viewport": {
          "northeast": {
            "lat": 22.3280023802915,
            "lng": 114.1694013802915
          },
          "southwest": {
            "lat": 22.3253044197085,
            "lng": 114.1667034197085
          }
        }
      },
      "place_id": "ChIJOwgDBsoABDQRoQkoauCsXw4",
      "plus_code": {
        "compound_code": "85G9+M6 \u9999\u6e2f",
        "global_code": "7PJP85G9+M6"
      },
      "types": [
        "establishment",
        "food",
        "point_of_interest",
        "restaurant"
      ]
    }
  ],
  "licno": "2263277917",
  "timestamp": 1564968756,
  "version": "1564966095"
}
