{
  "adr_en": "Chung Lok Yuen, 14A NAM CHUNG, TAI O, LANTAU ISLAND, NEW TERRITORIES",
  "adr_tc": "\u5927\u5dbc\u5c71\u5927\u6fb3\u5357\u6d8c14A\u865f \u773e\u6a02\u5712",
  "geocode_en": [
    {
      "address_components": [
        {
          "long_name": "Hong Kong",
          "short_name": "HK",
          "types": [
            "country",
            "political"
          ]
        }
      ],
      "formatted_address": "14A Nam Chung, Tai O, Lantau Island, New Territories, Hong Kong",
      "geometry": {
        "location": {
          "lat": 22.246667,
          "lng": 113.861667
        },
        "location_type": "GEOMETRIC_CENTER",
        "viewport": {
          "northeast": {
            "lat": 22.2480159802915,
            "lng": 113.8630159802915
          },
          "southwest": {
            "lat": 22.2453180197085,
            "lng": 113.8603180197085
          }
        }
      },
      "place_id": "ChIJ6ZgFn9VYATQRREAExMIKZHE",
      "plus_code": {
        "compound_code": "6VW6+MM Hong Kong",
        "global_code": "7PJM6VW6+MM"
      },
      "types": [
        "establishment",
        "point_of_interest"
      ]
    }
  ],
  "geocode_tc": [
    {
      "address_components": [
        {
          "long_name": "\u9999\u6e2f",
          "short_name": "HK",
          "types": [
            "country",
            "political"
          ]
        }
      ],
      "formatted_address": "\u9999\u6e2f\u756a\u9b3c\u5858\u8def",
      "geometry": {
        "location": {
          "lat": 22.248257,
          "lng": 113.863537
        },
        "location_type": "GEOMETRIC_CENTER",
        "viewport": {
          "northeast": {
            "lat": 22.2496059802915,
            "lng": 113.8648859802915
          },
          "southwest": {
            "lat": 22.2469080197085,
            "lng": 113.8621880197085
          }
        }
      },
      "partial_match": true,
      "place_id": "ChIJlQ8oMtRYATQRBV1WxGDcl5M",
      "plus_code": {
        "compound_code": "6VX7+8C \u9999\u6e2f",
        "global_code": "7PJM6VX7+8C"
      },
      "types": [
        "establishment",
        "point_of_interest"
      ]
    },
    {
      "address_components": [
        {
          "long_name": "\u9999\u6e2f",
          "short_name": "HK",
          "types": [
            "country",
            "political"
          ]
        }
      ],
      "formatted_address": "14A Nam Chung, Tai O, Lantau Island, New Territories, \u9999\u6e2f",
      "geometry": {
        "location": {
          "lat": 22.246667,
          "lng": 113.861667
        },
        "location_type": "GEOMETRIC_CENTER",
        "viewport": {
          "northeast": {
            "lat": 22.2480159802915,
            "lng": 113.8630159802915
          },
          "southwest": {
            "lat": 22.2453180197085,
            "lng": 113.8603180197085
          }
        }
      },
      "partial_match": true,
      "place_id": "ChIJ6ZgFn9VYATQRREAExMIKZHE",
      "plus_code": {
        "compound_code": "6VW6+MM \u9999\u6e2f",
        "global_code": "7PJM6VW6+MM"
      },
      "types": [
        "establishment",
        "point_of_interest"
      ]
    }
  ],
  "licno": "2217000792",
  "timestamp": 1564968756,
  "version": "1564966095"
}
