{
  "adr_en": "LONDON HOUSE, SHOP G5 & UG15, G/F & UG/F, AND OUTSIDE SEATING ACCOMMODATION AT SHOP FRONT, TSIM SHA TSUI CENTRE, 66 MODY ROAD, TSIM SHA TSUI, KOWLOON",
  "adr_tc": "\u4e5d\u9f8d\u5c16\u6c99\u5480\u9ebc\u5730\u905366\u865f\u5c16\u6c99\u5480\u4e2d\u5fc3 \u5730\u4e0b\u53ca\u5730\u4e0b\u9ad8\u5c64G5\u53caUG15\u865f\u8216 \u53ca\u8216\u524d\u9732\u5929\u8336\u5ea7 LONDON HOUSE",
  "geocode_en": [
    {
      "address_components": [
        {
          "long_name": "G5",
          "short_name": "G5",
          "types": [
            "subpremise"
          ]
        },
        {
          "long_name": "Tsim Sha Tsui Centre",
          "short_name": "Tsim Sha Tsui Centre",
          "types": [
            "premise"
          ]
        },
        {
          "long_name": "66",
          "short_name": "66",
          "types": [
            "street_number"
          ]
        },
        {
          "long_name": "Mody Road, East",
          "short_name": "Mody Road, East",
          "types": [
            "route"
          ]
        },
        {
          "long_name": "Tsim Sha Tsui",
          "short_name": "Tsim Sha Tsui",
          "types": [
            "neighborhood",
            "political"
          ]
        },
        {
          "long_name": "Kowloon",
          "short_name": "Kowloon",
          "types": [
            "administrative_area_level_1",
            "political"
          ]
        },
        {
          "long_name": "Hong Kong",
          "short_name": "HK",
          "types": [
            "country",
            "political"
          ]
        }
      ],
      "formatted_address": "G5, Tsim Sha Tsui Centre, 66 Mody Road, East, Tsim Sha Tsui, Hong Kong",
      "geometry": {
        "location": {
          "lat": 22.29756,
          "lng": 114.1779062
        },
        "location_type": "ROOFTOP",
        "viewport": {
          "northeast": {
            "lat": 22.2989089802915,
            "lng": 114.1792551802915
          },
          "southwest": {
            "lat": 22.2962110197085,
            "lng": 114.1765572197085
          }
        }
      },
      "partial_match": true,
      "place_id": "ChIJ8czfwO8ABDQRK7F3IjSqiFk",
      "plus_code": {
        "compound_code": "75XH+25 Tsim Sha Tsui, Hong Kong",
        "global_code": "7PJP75XH+25"
      },
      "types": [
        "bar",
        "establishment",
        "food",
        "point_of_interest",
        "restaurant"
      ]
    },
    {
      "address_components": [
        {
          "long_name": "Tsim Sha Tsui Centre",
          "short_name": "Tsim Sha Tsui Centre",
          "types": [
            "premise"
          ]
        },
        {
          "long_name": "66",
          "short_name": "66",
          "types": [
            "street_number"
          ]
        },
        {
          "long_name": "Mody Road",
          "short_name": "Mody Rd",
          "types": [
            "route"
          ]
        },
        {
          "long_name": "Tsim Sha Tsui East",
          "short_name": "Tsim Sha Tsui East",
          "types": [
            "neighborhood",
            "political"
          ]
        },
        {
          "long_name": "Kowloon",
          "short_name": "Kowloon",
          "types": [
            "administrative_area_level_1",
            "political"
          ]
        },
        {
          "long_name": "Hong Kong",
          "short_name": "HK",
          "types": [
            "country",
            "political"
          ]
        }
      ],
      "formatted_address": "Tsim Sha Tsui Centre, 66 Mody Rd, Tsim Sha Tsui East, Hong Kong",
      "geometry": {
        "bounds": {
          "northeast": {
            "lat": 22.2981738,
            "lng": 114.1782613
          },
          "southwest": {
            "lat": 22.297338,
            "lng": 114.1774126
          }
        },
        "location": {
          "lat": 22.2976578,
          "lng": 114.1778408
        },
        "location_type": "ROOFTOP",
        "viewport": {
          "northeast": {
            "lat": 22.29910488029151,
            "lng": 114.1791859302915
          },
          "southwest": {
            "lat": 22.2964069197085,
            "lng": 114.1764879697085
          }
        }
      },
      "partial_match": true,
      "place_id": "ChIJ33E2we8ABDQRMDQHOf6cBcE",
      "types": [
        "premise"
      ]
    }
  ],
  "geocode_tc": [
    {
      "address_components": [
        {
          "long_name": "\u5c16\u6c99\u5480\u4e2d\u5fc3",
          "short_name": "\u5c16\u6c99\u5480\u4e2d\u5fc3",
          "types": [
            "premise"
          ]
        },
        {
          "long_name": "66",
          "short_name": "66",
          "types": [
            "street_number"
          ]
        },
        {
          "long_name": "\u9ebc\u5730\u9053",
          "short_name": "\u9ebc\u5730\u9053",
          "types": [
            "route"
          ]
        },
        {
          "long_name": "\u5c16\u6771",
          "short_name": "\u5c16\u6771",
          "types": [
            "neighborhood",
            "political"
          ]
        },
        {
          "long_name": "\u4e5d\u9f8d",
          "short_name": "\u4e5d\u9f8d",
          "types": [
            "administrative_area_level_1",
            "political"
          ]
        },
        {
          "long_name": "\u9999\u6e2f",
          "short_name": "HK",
          "types": [
            "country",
            "political"
          ]
        }
      ],
      "formatted_address": "\u9999\u6e2f\u5c16\u6771\u9ebc\u5730\u905366\u865f\u5c16\u6c99\u5480\u4e2d\u5fc3",
      "geometry": {
        "bounds": {
          "northeast": {
            "lat": 22.2981738,
            "lng": 114.1782613
          },
          "southwest": {
            "lat": 22.297338,
            "lng": 114.1774126
          }
        },
        "location": {
          "lat": 22.2976578,
          "lng": 114.1778408
        },
        "location_type": "ROOFTOP",
        "viewport": {
          "northeast": {
            "lat": 22.29910488029151,
            "lng": 114.1791859302915
          },
          "southwest": {
            "lat": 22.2964069197085,
            "lng": 114.1764879697085
          }
        }
      },
      "partial_match": true,
      "place_id": "ChIJ33E2we8ABDQRMDQHOf6cBcE",
      "types": [
        "premise"
      ]
    },
    {
      "address_components": [
        {
          "long_name": "G5",
          "short_name": "G5",
          "types": [
            "subpremise"
          ]
        },
        {
          "long_name": "Tsim Sha Tsui Centre",
          "short_name": "Tsim Sha Tsui Centre",
          "types": [
            "premise"
          ]
        },
        {
          "long_name": "66",
          "short_name": "66",
          "types": [
            "street_number"
          ]
        },
        {
          "long_name": "Mody Road, East",
          "short_name": "Mody Road, East",
          "types": [
            "route"
          ]
        },
        {
          "long_name": "Tsim Sha Tsui",
          "short_name": "Tsim Sha Tsui",
          "types": [
            "neighborhood",
            "political"
          ]
        },
        {
          "long_name": "Kowloon",
          "short_name": "Kowloon",
          "types": [
            "administrative_area_level_1",
            "political"
          ]
        },
        {
          "long_name": "\u9999\u6e2f",
          "short_name": "HK",
          "types": [
            "country",
            "political"
          ]
        }
      ],
      "formatted_address": "G5, Tsim Sha Tsui Centre, 66 Mody Road, East, Tsim Sha Tsui, \u9999\u6e2f",
      "geometry": {
        "location": {
          "lat": 22.29756,
          "lng": 114.1779062
        },
        "location_type": "ROOFTOP",
        "viewport": {
          "northeast": {
            "lat": 22.2989089802915,
            "lng": 114.1792551802915
          },
          "southwest": {
            "lat": 22.2962110197085,
            "lng": 114.1765572197085
          }
        }
      },
      "partial_match": true,
      "place_id": "ChIJ8czfwO8ABDQRK7F3IjSqiFk",
      "plus_code": {
        "compound_code": "75XH+25 \u9999\u6e2f\u5c16\u6c99\u5480",
        "global_code": "7PJP75XH+25"
      },
      "types": [
        "bar",
        "establishment",
        "food",
        "point_of_interest",
        "restaurant"
      ]
    },
    {
      "address_components": [
        {
          "long_name": "\u5c16\u6c99\u5480\u4e2d\u5fc3",
          "short_name": "\u5c16\u6c99\u5480\u4e2d\u5fc3",
          "types": [
            "premise"
          ]
        },
        {
          "long_name": "66",
          "short_name": "66",
          "types": [
            "street_number"
          ]
        },
        {
          "long_name": "\u9ebc\u5730\u9053",
          "short_name": "\u9ebc\u5730\u9053",
          "types": [
            "route"
          ]
        },
        {
          "long_name": "\u5c16\u6771",
          "short_name": "\u5c16\u6771",
          "types": [
            "neighborhood",
            "political"
          ]
        },
        {
          "long_name": "\u4e5d\u9f8d",
          "short_name": "\u4e5d\u9f8d",
          "types": [
            "administrative_area_level_1",
            "political"
          ]
        },
        {
          "long_name": "\u9999\u6e2f",
          "short_name": "HK",
          "types": [
            "country",
            "political"
          ]
        }
      ],
      "formatted_address": "\u9999\u6e2f\u5c16\u6771\u9ebc\u5730\u905366\u865f\u5c16\u6c99\u5480\u4e2d\u5fc3",
      "geometry": {
        "bounds": {
          "northeast": {
            "lat": 22.2981738,
            "lng": 114.1782613
          },
          "southwest": {
            "lat": 22.297338,
            "lng": 114.1774126
          }
        },
        "location": {
          "lat": 22.2976578,
          "lng": 114.1778408
        },
        "location_type": "ROOFTOP",
        "viewport": {
          "northeast": {
            "lat": 22.29910488029151,
            "lng": 114.1791859302915
          },
          "southwest": {
            "lat": 22.2964069197085,
            "lng": 114.1764879697085
          }
        }
      },
      "partial_match": true,
      "place_id": "ChIJ33E2we8ABDQRMDQHOf6cBcE",
      "types": [
        "premise"
      ]
    }
  ],
  "licno": "2261802137",
  "timestamp": 1564968756,
  "version": "1564966095"
}
