{
  "adr_en": "PISS, SHOP A, G/F, WAH LAI COURT, 19 CEDAR STREET, KOWLOON",
  "adr_tc": "\u4e5d\u9f8d\u67cf\u6a39\u885719\u865f\u83ef\u9e97\u95a3\u5730\u4e0bA\u8216 PISS",
  "geocode_en": [
    {
      "address_components": [
        {
          "long_name": "Wah Lai Court",
          "short_name": "Wah Lai Court",
          "types": [
            "premise"
          ]
        },
        {
          "long_name": "19-23",
          "short_name": "19-23",
          "types": [
            "street_number"
          ]
        },
        {
          "long_name": "Cedar Street",
          "short_name": "Cedar St",
          "types": [
            "route"
          ]
        },
        {
          "long_name": "Prince Edward",
          "short_name": "Prince Edward",
          "types": [
            "neighborhood",
            "political"
          ]
        },
        {
          "long_name": "Kowloon",
          "short_name": "Kowloon",
          "types": [
            "administrative_area_level_1",
            "political"
          ]
        },
        {
          "long_name": "Hong Kong",
          "short_name": "HK",
          "types": [
            "country",
            "political"
          ]
        }
      ],
      "formatted_address": "Wah Lai Court, 19-23 Cedar St, Prince Edward, Hong Kong",
      "geometry": {
        "bounds": {
          "northeast": {
            "lat": 22.3255971,
            "lng": 114.1668011
          },
          "southwest": {
            "lat": 22.325397,
            "lng": 114.166579
          }
        },
        "location": {
          "lat": 22.325512,
          "lng": 114.1666709
        },
        "location_type": "ROOFTOP",
        "viewport": {
          "northeast": {
            "lat": 22.3268460302915,
            "lng": 114.1680390302915
          },
          "southwest": {
            "lat": 22.3241480697085,
            "lng": 114.1653410697085
          }
        }
      },
      "partial_match": true,
      "place_id": "ChIJF5wfDrYABDQRgJf4CuT-6Oo",
      "types": [
        "premise"
      ]
    }
  ],
  "geocode_tc": [
    {
      "address_components": [
        {
          "long_name": "\u5730\u4e0bA\u8216",
          "short_name": "\u5730\u4e0bA\u8216",
          "types": [
            "subpremise"
          ]
        },
        {
          "long_name": "\u83ef\u9e97\u95a3",
          "short_name": "\u83ef\u9e97\u95a3",
          "types": [
            "premise"
          ]
        },
        {
          "long_name": "19-23",
          "short_name": "19-23",
          "types": [
            "street_number"
          ]
        },
        {
          "long_name": "\u67cf\u6a39\u8857",
          "short_name": "\u67cf\u6a39\u8857",
          "types": [
            "route"
          ]
        },
        {
          "long_name": "\u592a\u5b50",
          "short_name": "\u592a\u5b50",
          "types": [
            "neighborhood",
            "political"
          ]
        },
        {
          "long_name": "\u4e5d\u9f8d",
          "short_name": "\u4e5d\u9f8d",
          "types": [
            "administrative_area_level_1",
            "political"
          ]
        },
        {
          "long_name": "\u9999\u6e2f",
          "short_name": "HK",
          "types": [
            "country",
            "political"
          ]
        }
      ],
      "formatted_address": "\u9999\u6e2f\u592a\u5b50\u67cf\u6a39\u885719-23\u865f\u83ef\u9e97\u95a3\u5730\u4e0bA\u8216",
      "geometry": {
        "bounds": {
          "northeast": {
            "lat": 22.3255971,
            "lng": 114.1668011
          },
          "southwest": {
            "lat": 22.325397,
            "lng": 114.166579
          }
        },
        "location": {
          "lat": 22.325512,
          "lng": 114.1666709
        },
        "location_type": "ROOFTOP",
        "viewport": {
          "northeast": {
            "lat": 22.3268460302915,
            "lng": 114.1680390302915
          },
          "southwest": {
            "lat": 22.3241480697085,
            "lng": 114.1653410697085
          }
        }
      },
      "partial_match": true,
      "place_id": "EkPlnLDkuItB6IiWLCBXYWggTGFpIENvdXJ0LCAxOS0yMyBDZWRhciBTdCwgUHJpbmNlIEVkd2FyZCwgSG9uZyBLb25nIiYaJAoWChQKEgkXnB8OtgAENBGAl_gK5P7o6hIK5Zyw5LiLQeiIlg",
      "types": [
        "subpremise"
      ]
    }
  ],
  "licno": "2262811354",
  "timestamp": 1564968756,
  "version": "1564966095"
}
