{
  "adr_en": "FRANCIS, SHOP A, G/F., ST. FRANCIS MANSION, 4 & 6 ST. FRANCIS STREET, WAN CHAI, HONG KONG",
  "adr_tc": "\u9999\u6e2f\u7063\u4ed4\u8056\u4f5b\u862d\u58eb\u88574\u53ca6\u865f\u8056\u4f5b\u862d\u58eb\u5927\u5ec8\u5730\u4e0bA\u8216 FRANCIS",
  "geocode_en": [
    {
      "address_components": [
        {
          "long_name": "SHOP A, G/F",
          "short_name": "SHOP A, G/F",
          "types": [
            "subpremise"
          ]
        },
        {
          "long_name": "St. Francis Mansion",
          "short_name": "St. Francis Mansion",
          "types": [
            "premise"
          ]
        },
        {
          "long_name": "4-6",
          "short_name": "4-6",
          "types": [
            "street_number"
          ]
        },
        {
          "long_name": "Saint Francis Street",
          "short_name": "St Francis St",
          "types": [
            "route"
          ]
        },
        {
          "long_name": "Wan Chai",
          "short_name": "Wan Chai",
          "types": [
            "neighborhood",
            "political"
          ]
        },
        {
          "long_name": "Hong Kong Island",
          "short_name": "Hong Kong Island",
          "types": [
            "administrative_area_level_1",
            "political"
          ]
        },
        {
          "long_name": "Hong Kong",
          "short_name": "HK",
          "types": [
            "country",
            "political"
          ]
        }
      ],
      "formatted_address": "SHOP A, G/F, St. Francis Mansion, 4-6 St Francis St, Wan Chai, Hong Kong",
      "geometry": {
        "bounds": {
          "northeast": {
            "lat": 22.276222,
            "lng": 114.169625
          },
          "southwest": {
            "lat": 22.2761201,
            "lng": 114.169529
          }
        },
        "location": {
          "lat": 22.2761892,
          "lng": 114.1695853
        },
        "location_type": "ROOFTOP",
        "viewport": {
          "northeast": {
            "lat": 22.2775200302915,
            "lng": 114.1709259802915
          },
          "southwest": {
            "lat": 22.2748220697085,
            "lng": 114.1682280197085
          }
        }
      },
      "place_id": "EkhTSE9QIEEsIEcvRiwgU3QuIEZyYW5jaXMgTWFuc2lvbiwgNC02IFN0IEZyYW5jaXMgU3QsIFdhbiBDaGFpLCBIb25nIEtvbmciJxolChYKFAoSCe3arDBdAAQ0EVpH7Auw8Rl_EgtTSE9QIEEsIEcvRg",
      "types": [
        "subpremise"
      ]
    }
  ],
  "geocode_tc": [
    {
      "address_components": [
        {
          "long_name": "\u5730\u4e0bA\u8216",
          "short_name": "\u5730\u4e0bA\u8216",
          "types": [
            "subpremise"
          ]
        },
        {
          "long_name": "\u8056\u4f5b\u862d\u58eb\u5927\u5ec8",
          "short_name": "\u8056\u4f5b\u862d\u58eb\u5927\u5ec8",
          "types": [
            "premise"
          ]
        },
        {
          "long_name": "4-6",
          "short_name": "4-6",
          "types": [
            "street_number"
          ]
        },
        {
          "long_name": "\u8056\u4f5b\u862d\u58eb\u8857",
          "short_name": "\u8056\u4f5b\u862d\u58eb\u8857",
          "types": [
            "route"
          ]
        },
        {
          "long_name": "\u7063\u4ed4",
          "short_name": "\u7063\u4ed4",
          "types": [
            "neighborhood",
            "political"
          ]
        },
        {
          "long_name": "\u9999\u6e2f\u5cf6",
          "short_name": "\u9999\u6e2f\u5cf6",
          "types": [
            "administrative_area_level_1",
            "political"
          ]
        },
        {
          "long_name": "\u9999\u6e2f",
          "short_name": "HK",
          "types": [
            "country",
            "political"
          ]
        }
      ],
      "formatted_address": "\u9999\u6e2f\u7063\u4ed4\u8056\u4f5b\u862d\u58eb\u88574-6\u865f\u8056\u4f5b\u862d\u58eb\u5927\u5ec8\u5730\u4e0bA\u8216",
      "geometry": {
        "bounds": {
          "northeast": {
            "lat": 22.276222,
            "lng": 114.169625
          },
          "southwest": {
            "lat": 22.2761201,
            "lng": 114.169529
          }
        },
        "location": {
          "lat": 22.2761892,
          "lng": 114.1695853
        },
        "location_type": "ROOFTOP",
        "viewport": {
          "northeast": {
            "lat": 22.2775200302915,
            "lng": 114.1709259802915
          },
          "southwest": {
            "lat": 22.2748220697085,
            "lng": 114.1682280197085
          }
        }
      },
      "place_id": "EkflnLDkuItB6IiWLCBTdC4gRnJhbmNpcyBNYW5zaW9uLCA0LTYgU3QgRnJhbmNpcyBTdCwgV2FuIENoYWksIEhvbmcgS29uZyImGiQKFgoUChIJ7dqsMF0ABDQRWkfsC7DxGX8SCuWcsOS4i0HoiJY",
      "types": [
        "subpremise"
      ]
    }
  ],
  "licno": "2212815467",
  "timestamp": 1564968756,
  "version": "1564966095"
}
