{
  "adr_en": "No Record, SHOP B, G/F., LIP SENG MANSION, NOS. 15-19 CARNARVON ROAD, TSIM SHA TSUI, KOWLOON",
  "adr_tc": "\u4e5d\u9f8d\u5c16\u6c99\u5480 \u52a0\u62ff\u5206\u905315-19\u865f \u7acb\u8aa0\u5927\u5ec8\u5730\u4e0bB\u8216 \u6c92\u6709\u8a18\u9304",
  "geocode_en": [
    {
      "address_components": [
        {
          "long_name": "Lip Seng Mansion",
          "short_name": "Lip Seng Mansion",
          "types": [
            "premise"
          ]
        },
        {
          "long_name": "15-19",
          "short_name": "15-19",
          "types": [
            "street_number"
          ]
        },
        {
          "long_name": "Carnarvon Road",
          "short_name": "Carnarvon Rd",
          "types": [
            "route"
          ]
        },
        {
          "long_name": "Tsim Sha Tsui",
          "short_name": "Tsim Sha Tsui",
          "types": [
            "neighborhood",
            "political"
          ]
        },
        {
          "long_name": "Kowloon",
          "short_name": "Kowloon",
          "types": [
            "administrative_area_level_1",
            "political"
          ]
        },
        {
          "long_name": "Hong Kong",
          "short_name": "HK",
          "types": [
            "country",
            "political"
          ]
        }
      ],
      "formatted_address": "Lip Seng Mansion, 15-19 Carnarvon Rd, Tsim Sha Tsui, Hong Kong",
      "geometry": {
        "bounds": {
          "northeast": {
            "lat": 22.2979706,
            "lng": 114.1735501
          },
          "southwest": {
            "lat": 22.2977277,
            "lng": 114.1732961
          }
        },
        "location": {
          "lat": 22.2978397,
          "lng": 114.1734375
        },
        "location_type": "ROOFTOP",
        "viewport": {
          "northeast": {
            "lat": 22.2991981302915,
            "lng": 114.1747720802915
          },
          "southwest": {
            "lat": 22.2965001697085,
            "lng": 114.1720741197085
          }
        }
      },
      "partial_match": true,
      "place_id": "ChIJZU_K_O0ABDQRqgX5AIjah00",
      "types": [
        "premise"
      ]
    }
  ],
  "geocode_tc": [
    {
      "address_components": [
        {
          "long_name": "\u7acb\u8aa0\u5927\u5ec8",
          "short_name": "\u7acb\u8aa0\u5927\u5ec8",
          "types": [
            "premise"
          ]
        },
        {
          "long_name": "15-19",
          "short_name": "15-19",
          "types": [
            "street_number"
          ]
        },
        {
          "long_name": "\u52a0\u62ff\u5206\u9053",
          "short_name": "\u52a0\u62ff\u5206\u9053",
          "types": [
            "route"
          ]
        },
        {
          "long_name": "\u5c16\u6c99\u5480",
          "short_name": "\u5c16\u6c99\u5480",
          "types": [
            "neighborhood",
            "political"
          ]
        },
        {
          "long_name": "\u4e5d\u9f8d",
          "short_name": "\u4e5d\u9f8d",
          "types": [
            "administrative_area_level_1",
            "political"
          ]
        },
        {
          "long_name": "\u9999\u6e2f",
          "short_name": "HK",
          "types": [
            "country",
            "political"
          ]
        }
      ],
      "formatted_address": "\u9999\u6e2f\u5c16\u6c99\u5480\u52a0\u62ff\u5206\u905315-19\u865f\u7acb\u8aa0\u5927\u5ec8",
      "geometry": {
        "bounds": {
          "northeast": {
            "lat": 22.2979706,
            "lng": 114.1735501
          },
          "southwest": {
            "lat": 22.2977277,
            "lng": 114.1732961
          }
        },
        "location": {
          "lat": 22.2978397,
          "lng": 114.1734375
        },
        "location_type": "ROOFTOP",
        "viewport": {
          "northeast": {
            "lat": 22.2991981302915,
            "lng": 114.1747720802915
          },
          "southwest": {
            "lat": 22.2965001697085,
            "lng": 114.1720741197085
          }
        }
      },
      "partial_match": true,
      "place_id": "ChIJZU_K_O0ABDQRqgX5AIjah00",
      "types": [
        "premise"
      ]
    }
  ],
  "licno": "3861817776",
  "timestamp": 1564975666,
  "version": "1564966095"
}
