{
  "adr_en": "\u9ebb\u9178\u6a02, SHOP G4-7, G/F, PHASE 1, AMOY PLAZA, 77 NGAU TAU KOK ROAD, KWUN TONG, KOWLOON",
  "adr_tc": "\u4e5d\u9f8d\u89c0\u5858\u725b\u982d\u89d2\u905377\u865f\u6dd8\u5927\u5546\u5834\u7b2c\u4e00\u671f\u5730\u4e0bG4-7\u8216 \u9ebb\u9178\u6a02",
  "geocode_en": [
    {
      "address_components": [
        {
          "long_name": "Hong Kong",
          "short_name": "HK",
          "types": [
            "country",
            "political"
          ]
        }
      ],
      "formatted_address": "Shop G288, Amoy Plaza III, 77 Ngau Tau Kok Road, Kowloon Bay, Hong Kong",
      "geometry": {
        "location": {
          "lat": 22.3250112,
          "lng": 114.2154594
        },
        "location_type": "GEOMETRIC_CENTER",
        "viewport": {
          "northeast": {
            "lat": 22.3263601802915,
            "lng": 114.2168083802915
          },
          "southwest": {
            "lat": 22.3236622197085,
            "lng": 114.2141104197085
          }
        }
      },
      "place_id": "ChIJhZFzUbUGBDQR0rv2OcNKhm0",
      "plus_code": {
        "compound_code": "86G8+25 Hong Kong",
        "global_code": "7PJP86G8+25"
      },
      "types": [
        "establishment",
        "food",
        "point_of_interest",
        "restaurant"
      ]
    }
  ],
  "geocode_tc": [
    {
      "address_components": [
        {
          "long_name": "\u9999\u6e2f",
          "short_name": "HK",
          "types": [
            "country",
            "political"
          ]
        }
      ],
      "formatted_address": "\u9999\u6e2f\u4e5d\u9f8d\u7063\u725b\u982d\u89d2\u905377\u865f\u6dd8\u5927\u5546\u5834\u4e09\u671f\u5730\u4e0bG288\u865f\u8216",
      "geometry": {
        "location": {
          "lat": 22.3244328,
          "lng": 114.2158037
        },
        "location_type": "GEOMETRIC_CENTER",
        "viewport": {
          "northeast": {
            "lat": 22.3257817802915,
            "lng": 114.2171526802915
          },
          "southwest": {
            "lat": 22.3230838197085,
            "lng": 114.2144547197085
          }
        }
      },
      "place_id": "ChIJhZFzUbUGBDQRgMI4VGxhFDc",
      "plus_code": {
        "compound_code": "86F8+Q8 \u9999\u6e2f",
        "global_code": "7PJP86F8+Q8"
      },
      "types": [
        "establishment",
        "food",
        "point_of_interest",
        "restaurant"
      ]
    }
  ],
  "licno": "2251805993",
  "timestamp": 1564968756,
  "version": "1564966095"
}
