{
  "adr_en": "CHEF, G/F, MAISON ROSE, NO. 270 CHEUNG SHA WAN ROAD, KOWLOON",
  "adr_tc": "\u4e5d\u9f8d\u9577\u6c99\u7063\u9053270\u865f\u5fa1\u532f\u5730\u4e0b \u5927\u5e2b\u5085",
  "geocode_en": [
    {
      "address_components": [
        {
          "long_name": "Maison Rose",
          "short_name": "Maison Rose",
          "types": [
            "premise"
          ]
        },
        {
          "long_name": "270",
          "short_name": "270",
          "types": [
            "street_number"
          ]
        },
        {
          "long_name": "Cheung Sha Wan Road",
          "short_name": "Cheung Sha Wan Rd",
          "types": [
            "route"
          ]
        },
        {
          "long_name": "Om Yau",
          "short_name": "Om Yau",
          "types": [
            "neighborhood",
            "political"
          ]
        },
        {
          "long_name": "Kowloon",
          "short_name": "Kowloon",
          "types": [
            "administrative_area_level_1",
            "political"
          ]
        },
        {
          "long_name": "Hong Kong",
          "short_name": "HK",
          "types": [
            "country",
            "political"
          ]
        }
      ],
      "formatted_address": "Maison Rose, 270 Cheung Sha Wan Rd, Om Yau, Hong Kong",
      "geometry": {
        "bounds": {
          "northeast": {
            "lat": 22.332293,
            "lng": 114.160942
          },
          "southwest": {
            "lat": 22.3320749,
            "lng": 114.1607151
          }
        },
        "location": {
          "lat": 22.3321899,
          "lng": 114.1608187
        },
        "location_type": "ROOFTOP",
        "viewport": {
          "northeast": {
            "lat": 22.3335329302915,
            "lng": 114.1621775302915
          },
          "southwest": {
            "lat": 22.3308349697085,
            "lng": 114.1594795697085
          }
        }
      },
      "partial_match": true,
      "place_id": "ChIJa9z-TrMABDQRfkEcoLOEKc4",
      "types": [
        "premise"
      ]
    }
  ],
  "geocode_tc": [
    {
      "address_components": [
        {
          "long_name": "Maison Rose",
          "short_name": "Maison Rose",
          "types": [
            "premise"
          ]
        },
        {
          "long_name": "270",
          "short_name": "270",
          "types": [
            "street_number"
          ]
        },
        {
          "long_name": "Cheung Sha Wan Road",
          "short_name": "Cheung Sha Wan Rd",
          "types": [
            "route"
          ]
        },
        {
          "long_name": "Sham Shui Po",
          "short_name": "Sham Shui Po",
          "types": [
            "neighborhood",
            "political"
          ]
        },
        {
          "long_name": "\u9999\u6e2f",
          "short_name": "HK",
          "types": [
            "country",
            "political"
          ]
        }
      ],
      "formatted_address": "\u865f, Maison Rose, 270 Cheung Sha Wan Rd, Sham Shui Po, \u9999\u6e2f",
      "geometry": {
        "location": {
          "lat": 22.3321839,
          "lng": 114.1608285
        },
        "location_type": "ROOFTOP",
        "viewport": {
          "northeast": {
            "lat": 22.3335328802915,
            "lng": 114.1621774802915
          },
          "southwest": {
            "lat": 22.3308349197085,
            "lng": 114.1594795197085
          }
        }
      },
      "place_id": "ChIJQdz-TrMABDQRy6eyuaCDFoM",
      "plus_code": {
        "compound_code": "85J6+V8 \u9999\u6e2f",
        "global_code": "7PJP85J6+V8"
      },
      "types": [
        "establishment",
        "food",
        "point_of_interest",
        "restaurant"
      ]
    }
  ],
  "licno": "2263805167",
  "timestamp": 1564968756,
  "version": "1564966095"
}
