{
  "adr_en": "Uncle Russ Coffee, SHOP G-10, G/F., BANK OF AMERICA TOWER, 12 HARCOURT ROAD, CENTRAL, HONG KONG",
  "adr_tc": "\u9999\u6e2f\u590f\u6164\u905312\u865f \u7f8e\u570b\u9280\u884c\u4e2d\u5fc3\u5730\u4e0bG-10\u865f\u8216 Uncle Russ Coffee",
  "geocode_en": [
    {
      "address_components": [
        {
          "long_name": "Bank of America Tower",
          "short_name": "Bank of America Tower",
          "types": [
            "premise"
          ]
        },
        {
          "long_name": "12",
          "short_name": "12",
          "types": [
            "street_number"
          ]
        },
        {
          "long_name": "Harcourt Road",
          "short_name": "Harcourt Rd",
          "types": [
            "route"
          ]
        },
        {
          "long_name": "Central",
          "short_name": "Central",
          "types": [
            "neighborhood",
            "political"
          ]
        },
        {
          "long_name": "Hong Kong Island",
          "short_name": "Hong Kong Island",
          "types": [
            "administrative_area_level_1",
            "political"
          ]
        },
        {
          "long_name": "Hong Kong",
          "short_name": "HK",
          "types": [
            "country",
            "political"
          ]
        }
      ],
      "formatted_address": "Bank of America Tower, 12 Harcourt Rd, Central, Hong Kong",
      "geometry": {
        "bounds": {
          "northeast": {
            "lat": 22.2809453,
            "lng": 114.1634058
          },
          "southwest": {
            "lat": 22.2802553,
            "lng": 114.1627959
          }
        },
        "location": {
          "lat": 22.2806409,
          "lng": 114.1629785
        },
        "location_type": "ROOFTOP",
        "viewport": {
          "northeast": {
            "lat": 22.2819492802915,
            "lng": 114.1644498302915
          },
          "southwest": {
            "lat": 22.2792513197085,
            "lng": 114.1617518697085
          }
        }
      },
      "partial_match": true,
      "place_id": "ChIJu3uIlWYABDQRmv3MmTOMmS4",
      "types": [
        "premise"
      ]
    }
  ],
  "geocode_tc": [
    {
      "address_components": [
        {
          "long_name": "\u865f\u8216",
          "short_name": "\u865f\u8216",
          "types": [
            "subpremise"
          ]
        },
        {
          "long_name": "\u7f8e\u570b\u9280\u884c\u4e2d\u5fc3",
          "short_name": "\u7f8e\u570b\u9280\u884c\u4e2d\u5fc3",
          "types": [
            "premise"
          ]
        },
        {
          "long_name": "12",
          "short_name": "12",
          "types": [
            "street_number"
          ]
        },
        {
          "long_name": "\u590f\u6128\u9053",
          "short_name": "\u590f\u6128\u9053",
          "types": [
            "route"
          ]
        },
        {
          "long_name": "\u4e2d\u74b0",
          "short_name": "\u4e2d\u74b0",
          "types": [
            "neighborhood",
            "political"
          ]
        },
        {
          "long_name": "\u9999\u6e2f\u5cf6",
          "short_name": "\u9999\u6e2f\u5cf6",
          "types": [
            "administrative_area_level_1",
            "political"
          ]
        },
        {
          "long_name": "\u9999\u6e2f",
          "short_name": "HK",
          "types": [
            "country",
            "political"
          ]
        }
      ],
      "formatted_address": "\u9999\u6e2f\u4e2d\u74b0\u590f\u6128\u905312\u865f\u7f8e\u570b\u9280\u884c\u4e2d\u5fc3\u865f\u8216",
      "geometry": {
        "bounds": {
          "northeast": {
            "lat": 22.2809453,
            "lng": 114.1634058
          },
          "southwest": {
            "lat": 22.2802553,
            "lng": 114.1627959
          }
        },
        "location": {
          "lat": 22.2806409,
          "lng": 114.1629785
        },
        "location_type": "ROOFTOP",
        "viewport": {
          "northeast": {
            "lat": 22.2819492802915,
            "lng": 114.1644498302915
          },
          "southwest": {
            "lat": 22.2792513197085,
            "lng": 114.1617518697085
          }
        }
      },
      "partial_match": true,
      "place_id": "EkHomZ_oiJYsIEJhbmsgb2YgQW1lcmljYSBUb3dlciwgMTIgSGFyY291cnQgUmQsIENlbnRyYWwsIEhvbmcgS29uZyIiGiAKFgoUChIJu3uIlWYABDQRmv3MmTOMmS4SBuiZn-iIlg",
      "types": [
        "subpremise"
      ]
    }
  ],
  "licno": "2213132330",
  "timestamp": 1564968756,
  "version": "1564966095"
}
