{
  "adr_en": "GENKI SUSHI/ DONDONYA/ IPPUDO, SHOP 2135-2139, LEVEL 2 , MA ON SHAN PLAZA, 608 SAI SHA ROAD, MA ON SHAN, SHA TIN, NEW TERRITORIES",
  "adr_tc": "\u65b0\u754c\u6c99\u7530\u99ac\u978d\u5c71 \u897f\u6c99\u8def608\u865f  \u99ac\u978d\u5c71\u5ee3\u5834 \u4e8c\u6a13 2135-2139\u92ea \u5143\u6c23\u58fd\u53f8/ \u4e3c\u4e3c\u5c4b/ \u4e00\u98a8\u5802",
  "geocode_en": [
    {
      "address_components": [
        {
          "long_name": "SHOP 2135-2139, LEVEL",
          "short_name": "SHOP 2135-2139, LEVEL",
          "types": [
            "subpremise"
          ]
        },
        {
          "long_name": "Ma On Shan Plaza",
          "short_name": "Ma On Shan Plaza",
          "types": [
            "premise"
          ]
        },
        {
          "long_name": "608",
          "short_name": "608",
          "types": [
            "street_number"
          ]
        },
        {
          "long_name": "Sai Sha Road",
          "short_name": "Sai Sha Rd",
          "types": [
            "route"
          ]
        },
        {
          "long_name": "Ma On Shan",
          "short_name": "Ma On Shan",
          "types": [
            "neighborhood",
            "political"
          ]
        },
        {
          "long_name": "New Territories",
          "short_name": "New Territories",
          "types": [
            "administrative_area_level_1",
            "political"
          ]
        },
        {
          "long_name": "Hong Kong",
          "short_name": "HK",
          "types": [
            "country",
            "political"
          ]
        }
      ],
      "formatted_address": "SHOP 2135-2139, LEVEL, Ma On Shan Plaza, 608 Sai Sha Rd, Ma On Shan, Hong Kong",
      "geometry": {
        "bounds": {
          "northeast": {
            "lat": 22.4260492,
            "lng": 114.2323906
          },
          "southwest": {
            "lat": 22.4248319,
            "lng": 114.2302878
          }
        },
        "location": {
          "lat": 22.4253282,
          "lng": 114.2310624
        },
        "location_type": "ROOFTOP",
        "viewport": {
          "northeast": {
            "lat": 22.4267895302915,
            "lng": 114.2326881802915
          },
          "southwest": {
            "lat": 22.42409156970849,
            "lng": 114.2299902197085
          }
        }
      },
      "partial_match": true,
      "place_id": "Ek5TSE9QIDIxMzUtMjEzOSwgTEVWRUwsIE1hIE9uIFNoYW4gUGxhemEsIDYwOCBTYWkgU2hhIFJkLCBNYSBPbiBTaGFuLCBIb25nIEtvbmciMRovChYKFAoSCcXaig2xCAQ0EXJBm1O_kGknEhVTSE9QIDIxMzUtMjEzOSwgTEVWRUw",
      "types": [
        "subpremise"
      ]
    },
    {
      "address_components": [
        {
          "long_name": "Ma On Shan Plaza",
          "short_name": "Ma On Shan Plaza",
          "types": [
            "premise"
          ]
        },
        {
          "long_name": "608",
          "short_name": "608",
          "types": [
            "street_number"
          ]
        },
        {
          "long_name": "Sai Sha Road",
          "short_name": "Sai Sha Rd",
          "types": [
            "route"
          ]
        },
        {
          "long_name": "Ma On Shan",
          "short_name": "Ma On Shan",
          "types": [
            "neighborhood",
            "political"
          ]
        },
        {
          "long_name": "New Territories",
          "short_name": "New Territories",
          "types": [
            "administrative_area_level_1",
            "political"
          ]
        },
        {
          "long_name": "Hong Kong",
          "short_name": "HK",
          "types": [
            "country",
            "political"
          ]
        }
      ],
      "formatted_address": "Ma On Shan Plaza, 608 Sai Sha Rd, Ma On Shan, Hong Kong",
      "geometry": {
        "bounds": {
          "northeast": {
            "lat": 22.4260492,
            "lng": 114.2323906
          },
          "southwest": {
            "lat": 22.4248319,
            "lng": 114.2302878
          }
        },
        "location": {
          "lat": 22.4253282,
          "lng": 114.2310624
        },
        "location_type": "ROOFTOP",
        "viewport": {
          "northeast": {
            "lat": 22.4267895302915,
            "lng": 114.2326881802915
          },
          "southwest": {
            "lat": 22.42409156970849,
            "lng": 114.2299902197085
          }
        }
      },
      "partial_match": true,
      "place_id": "ChIJxdqKDbEIBDQRckGbU7-QaSc",
      "types": [
        "premise"
      ]
    }
  ],
  "geocode_tc": [
    {
      "address_components": [
        {
          "long_name": "\u99ac\u978d\u5c71\u5ee3\u5834",
          "short_name": "\u99ac\u978d\u5c71\u5ee3\u5834",
          "types": [
            "premise"
          ]
        },
        {
          "long_name": "608",
          "short_name": "608",
          "types": [
            "street_number"
          ]
        },
        {
          "long_name": "\u897f\u6c99\u8def",
          "short_name": "\u897f\u6c99\u8def",
          "types": [
            "route"
          ]
        },
        {
          "long_name": "\u99ac\u978d\u5c71",
          "short_name": "\u99ac\u978d\u5c71",
          "types": [
            "neighborhood",
            "political"
          ]
        },
        {
          "long_name": "\u65b0\u754c",
          "short_name": "\u65b0\u754c",
          "types": [
            "administrative_area_level_1",
            "political"
          ]
        },
        {
          "long_name": "\u9999\u6e2f",
          "short_name": "HK",
          "types": [
            "country",
            "political"
          ]
        }
      ],
      "formatted_address": "\u9999\u6e2f\u99ac\u978d\u5c71\u897f\u6c99\u8def608\u865f\u99ac\u978d\u5c71\u5ee3\u5834",
      "geometry": {
        "bounds": {
          "northeast": {
            "lat": 22.4260492,
            "lng": 114.2323906
          },
          "southwest": {
            "lat": 22.4248319,
            "lng": 114.2302878
          }
        },
        "location": {
          "lat": 22.4253282,
          "lng": 114.2310624
        },
        "location_type": "ROOFTOP",
        "viewport": {
          "northeast": {
            "lat": 22.4267895302915,
            "lng": 114.2326881802915
          },
          "southwest": {
            "lat": 22.42409156970849,
            "lng": 114.2299902197085
          }
        }
      },
      "partial_match": true,
      "place_id": "ChIJxdqKDbEIBDQRckGbU7-QaSc",
      "types": [
        "premise"
      ]
    },
    {
      "address_components": [
        {
          "long_name": "\u99ac\u978d\u5c71",
          "short_name": "\u99ac\u978d\u5c71",
          "types": [
            "neighborhood",
            "political"
          ]
        },
        {
          "long_name": "\u65b0\u754c",
          "short_name": "\u65b0\u754c",
          "types": [
            "administrative_area_level_1",
            "political"
          ]
        },
        {
          "long_name": "\u9999\u6e2f",
          "short_name": "HK",
          "types": [
            "country",
            "political"
          ]
        }
      ],
      "formatted_address": "\u9999\u6e2f\u99ac\u978d\u5c71\u99ac\u978d\u5c71\u5ee3\u58342\u6a132135-2139\u865f\u8216",
      "geometry": {
        "location": {
          "lat": 22.4256988,
          "lng": 114.2319299
        },
        "location_type": "GEOMETRIC_CENTER",
        "viewport": {
          "northeast": {
            "lat": 22.4270477802915,
            "lng": 114.2332788802915
          },
          "southwest": {
            "lat": 22.4243498197085,
            "lng": 114.2305809197085
          }
        }
      },
      "partial_match": true,
      "place_id": "ChIJNzG9YLEIBDQRoIg4pOhIs2U",
      "plus_code": {
        "compound_code": "C6GJ+7Q \u9999\u6e2f",
        "global_code": "7PJPC6GJ+7Q"
      },
      "types": [
        "establishment",
        "food",
        "point_of_interest",
        "restaurant"
      ]
    }
  ],
  "licno": "3897806986",
  "timestamp": 1564975666,
  "version": "1564966095"
}
