{
  "adr_en": "\u4e09\u8cc0\u5c4b, SHOP D, G/F, LUX THEATRE BUILDING, 2-18 MING ON STREET, 103-105 BAKER STREET, 2J-2K BULKELEY STREET, KOWLOON CITY, KOWLOON",
  "adr_tc": "\u4e5d\u9f8d\u660e\u5b89\u88572\u81f318\u865f\u5730\u4e0bD\u8216\u5fc5\u5609\u8857103\u81f3105\u865f \u5bf6\u5176\u5229\u88572J\u81f32K\u865f \u4e09\u8cc0\u5c4b",
  "geocode_en": [
    {
      "address_components": [
        {
          "long_name": "Hong Kong",
          "short_name": "HK",
          "types": [
            "country",
            "political"
          ]
        }
      ],
      "formatted_address": "Hong Kong, \u660e\u5b89\u88572\u81f318\u865f\u5730\u4e0bD\u8216\u5fc5\u5609\u8857103\u81f3105\u865f \u5bf6\u5176\u5229\u88572J\u81f32K\u865f",
      "geometry": {
        "location": {
          "lat": 22.306134,
          "lng": 114.185841
        },
        "location_type": "GEOMETRIC_CENTER",
        "viewport": {
          "northeast": {
            "lat": 22.3074829802915,
            "lng": 114.1871899802915
          },
          "southwest": {
            "lat": 22.3047850197085,
            "lng": 114.1844920197085
          }
        }
      },
      "partial_match": true,
      "place_id": "ChIJn1_sq-AABDQReWKzI1kKEVE",
      "plus_code": {
        "compound_code": "854P+F8 Hong Kong",
        "global_code": "7PJP854P+F8"
      },
      "types": [
        "establishment",
        "point_of_interest"
      ]
    },
    {
      "address_components": [
        {
          "long_name": "BUILDING, 2",
          "short_name": "BUILDING, 2",
          "types": [
            "subpremise"
          ]
        },
        {
          "long_name": "Lux Theatre Building",
          "short_name": "Lux Theatre Building",
          "types": [
            "premise"
          ]
        },
        {
          "long_name": "103-105",
          "short_name": "103-105",
          "types": [
            "street_number"
          ]
        },
        {
          "long_name": "Baker Street",
          "short_name": "Baker St",
          "types": [
            "route"
          ]
        },
        {
          "long_name": "Hung Hom",
          "short_name": "Hung Hom",
          "types": [
            "neighborhood",
            "political"
          ]
        },
        {
          "long_name": "Kowloon",
          "short_name": "Kowloon",
          "types": [
            "administrative_area_level_1",
            "political"
          ]
        },
        {
          "long_name": "Hong Kong",
          "short_name": "HK",
          "types": [
            "country",
            "political"
          ]
        }
      ],
      "formatted_address": "BUILDING, 2, Lux Theatre Building, 103-105 Baker St, Hung Hom, Hong Kong",
      "geometry": {
        "bounds": {
          "northeast": {
            "lat": 22.306597,
            "lng": 114.186189
          },
          "southwest": {
            "lat": 22.305959,
            "lng": 114.1856001
          }
        },
        "location": {
          "lat": 22.3062872,
          "lng": 114.1858756
        },
        "location_type": "ROOFTOP",
        "viewport": {
          "northeast": {
            "lat": 22.3076269802915,
            "lng": 114.1872435302915
          },
          "southwest": {
            "lat": 22.3049290197085,
            "lng": 114.1845455697085
          }
        }
      },
      "partial_match": true,
      "place_id": "EkhCVUlMRElORywgMiwgTHV4IFRoZWF0cmUgQnVpbGRpbmcsIDEwMy0xMDUgQmFrZXIgU3QsIEh1bmcgSG9tLCBIb25nIEtvbmciJxolChYKFAoSCS05L6rgAAQ0ETZNVVMJ6nu5EgtCVUlMRElORywgMg",
      "types": [
        "subpremise"
      ]
    }
  ],
  "geocode_tc": [],
  "licno": "2252283703",
  "timestamp": 1564968756,
  "version": "1564966095"
}
