{
  "adr_en": "Prince, SHOP NOS. 50-51 & 56-57, LOWER G/F, KWAI SING CENTRE, 416 CASTLE PEAK ROAD, KWAI CHUNG, NEW TERRITORIES",
  "adr_tc": "\u65b0\u754c\u8475\u6d8c\u9752\u5c71\u516c\u8def416\u865f\u8475\u661f\u4e2d\u5fc3\u5730\u4e0b\u4f4e\u5c6450-51\u865f \u53ca56-57\u865f\u92ea \u592a\u5b50",
  "geocode_en": [
    {
      "address_components": [
        {
          "long_name": "51",
          "short_name": "51",
          "types": [
            "subpremise"
          ]
        },
        {
          "long_name": "Kwai Sing Centre",
          "short_name": "Kwai Sing Centre",
          "types": [
            "premise"
          ]
        },
        {
          "long_name": "1-3",
          "short_name": "1-3",
          "types": [
            "street_number"
          ]
        },
        {
          "long_name": "Wo Yi Hop Road",
          "short_name": "Wo Yi Hop Rd",
          "types": [
            "route"
          ]
        },
        {
          "long_name": "Shek Lei",
          "short_name": "Shek Lei",
          "types": [
            "neighborhood",
            "political"
          ]
        },
        {
          "long_name": "New Territories",
          "short_name": "New Territories",
          "types": [
            "administrative_area_level_1",
            "political"
          ]
        },
        {
          "long_name": "Hong Kong",
          "short_name": "HK",
          "types": [
            "country",
            "political"
          ]
        }
      ],
      "formatted_address": "51, Kwai Sing Centre, 1-3 Wo Yi Hop Rd, Shek Lei, Hong Kong",
      "geometry": {
        "bounds": {
          "northeast": {
            "lat": 22.366306,
            "lng": 114.1359691
          },
          "southwest": {
            "lat": 22.365233,
            "lng": 114.13516
          }
        },
        "location": {
          "lat": 22.3657263,
          "lng": 114.1354818
        },
        "location_type": "ROOFTOP",
        "viewport": {
          "northeast": {
            "lat": 22.3671184802915,
            "lng": 114.1369135302915
          },
          "southwest": {
            "lat": 22.3644205197085,
            "lng": 114.1342155697085
          }
        }
      },
      "partial_match": true,
      "place_id": "Ejs1MSwgS3dhaSBTaW5nIENlbnRyZSwgMS0zIFdvIFlpIEhvcCBSZCwgU2hlayBMZWksIEhvbmcgS29uZyIeGhwKFgoUChIJ4VMCyZv4AzQR1iPUX1haG_wSAjUx",
      "types": [
        "subpremise"
      ]
    },
    {
      "address_components": [
        {
          "long_name": "Kwai Sing Centre",
          "short_name": "Kwai Sing Centre",
          "types": [
            "premise"
          ]
        },
        {
          "long_name": "1-3",
          "short_name": "1-3",
          "types": [
            "street_number"
          ]
        },
        {
          "long_name": "Wo Yi Hop Road",
          "short_name": "Wo Yi Hop Rd",
          "types": [
            "route"
          ]
        },
        {
          "long_name": "Shek Lei",
          "short_name": "Shek Lei",
          "types": [
            "neighborhood",
            "political"
          ]
        },
        {
          "long_name": "New Territories",
          "short_name": "New Territories",
          "types": [
            "administrative_area_level_1",
            "political"
          ]
        },
        {
          "long_name": "Hong Kong",
          "short_name": "HK",
          "types": [
            "country",
            "political"
          ]
        }
      ],
      "formatted_address": "Kwai Sing Centre, 1-3 Wo Yi Hop Rd, Shek Lei, Hong Kong",
      "geometry": {
        "bounds": {
          "northeast": {
            "lat": 22.366306,
            "lng": 114.1359691
          },
          "southwest": {
            "lat": 22.365233,
            "lng": 114.13516
          }
        },
        "location": {
          "lat": 22.3657263,
          "lng": 114.1354818
        },
        "location_type": "ROOFTOP",
        "viewport": {
          "northeast": {
            "lat": 22.3671184802915,
            "lng": 114.1369135302915
          },
          "southwest": {
            "lat": 22.3644205197085,
            "lng": 114.1342155697085
          }
        }
      },
      "partial_match": true,
      "place_id": "ChIJ4VMCyZv4AzQR1iPUX1haG_w",
      "types": [
        "premise"
      ]
    },
    {
      "address_components": [
        {
          "long_name": "416",
          "short_name": "416",
          "types": [
            "street_number"
          ]
        },
        {
          "long_name": "Castle Peak Road",
          "short_name": "Castle Peak Rd",
          "types": [
            "route"
          ]
        },
        {
          "long_name": "Shek Lei",
          "short_name": "Shek Lei",
          "types": [
            "neighborhood",
            "political"
          ]
        },
        {
          "long_name": "New Territories",
          "short_name": "New Territories",
          "types": [
            "administrative_area_level_1",
            "political"
          ]
        },
        {
          "long_name": "Hong Kong",
          "short_name": "HK",
          "types": [
            "country",
            "political"
          ]
        }
      ],
      "formatted_address": "416 Castle Peak Rd, Shek Lei, Hong Kong",
      "geometry": {
        "location": {
          "lat": 22.366048,
          "lng": 114.135381
        },
        "location_type": "ROOFTOP",
        "viewport": {
          "northeast": {
            "lat": 22.3673969802915,
            "lng": 114.1367299802915
          },
          "southwest": {
            "lat": 22.3646990197085,
            "lng": 114.1340320197085
          }
        }
      },
      "partial_match": true,
      "place_id": "ChIJ_czitZv4AzQRmSCrQevpjuY",
      "plus_code": {
        "compound_code": "948P+C5 Hong Kong",
        "global_code": "7PJP948P+C5"
      },
      "types": [
        "street_address"
      ]
    }
  ],
  "geocode_tc": [
    {
      "address_components": [
        {
          "long_name": "416",
          "short_name": "416",
          "types": [
            "street_number"
          ]
        },
        {
          "long_name": "\u9752\u5c71\u516c\u8def\u8475\u6d8c\u6bb5",
          "short_name": "\u9752\u5c71\u516c\u8def\u8475\u6d8c\u6bb5",
          "types": [
            "route"
          ]
        },
        {
          "long_name": "\u77f3\u7c6c",
          "short_name": "\u77f3\u7c6c",
          "types": [
            "neighborhood",
            "political"
          ]
        },
        {
          "long_name": "\u65b0\u754c",
          "short_name": "\u65b0\u754c",
          "types": [
            "administrative_area_level_1",
            "political"
          ]
        },
        {
          "long_name": "\u9999\u6e2f",
          "short_name": "HK",
          "types": [
            "country",
            "political"
          ]
        }
      ],
      "formatted_address": "\u9999\u6e2f\u77f3\u7c6c\u9752\u5c71\u516c\u8def\u8475\u6d8c\u6bb5416\u865f",
      "geometry": {
        "location": {
          "lat": 22.366048,
          "lng": 114.135381
        },
        "location_type": "ROOFTOP",
        "viewport": {
          "northeast": {
            "lat": 22.3673969802915,
            "lng": 114.1367299802915
          },
          "southwest": {
            "lat": 22.3646990197085,
            "lng": 114.1340320197085
          }
        }
      },
      "partial_match": true,
      "place_id": "ChIJ_czitZv4AzQRmSCrQevpjuY",
      "plus_code": {
        "compound_code": "948P+C5 \u9999\u6e2f",
        "global_code": "7PJP948P+C5"
      },
      "types": [
        "street_address"
      ]
    },
    {
      "address_components": [
        {
          "long_name": "56-57\u865f\u92ea",
          "short_name": "56-57\u865f\u92ea",
          "types": [
            "subpremise"
          ]
        },
        {
          "long_name": "\u8475\u661f\u4e2d\u5fc3",
          "short_name": "\u8475\u661f\u4e2d\u5fc3",
          "types": [
            "premise"
          ]
        },
        {
          "long_name": "1-3",
          "short_name": "1-3",
          "types": [
            "street_number"
          ]
        },
        {
          "long_name": "\u548c\u5b9c\u5408\u9053",
          "short_name": "\u548c\u5b9c\u5408\u9053",
          "types": [
            "route"
          ]
        },
        {
          "long_name": "\u77f3\u7c6c",
          "short_name": "\u77f3\u7c6c",
          "types": [
            "neighborhood",
            "political"
          ]
        },
        {
          "long_name": "\u65b0\u754c",
          "short_name": "\u65b0\u754c",
          "types": [
            "administrative_area_level_1",
            "political"
          ]
        },
        {
          "long_name": "\u9999\u6e2f",
          "short_name": "HK",
          "types": [
            "country",
            "political"
          ]
        }
      ],
      "formatted_address": "\u9999\u6e2f\u77f3\u7c6c\u548c\u5b9c\u5408\u90531-3\u865f\u8475\u661f\u4e2d\u5fc356-57\u865f\u92ea",
      "geometry": {
        "bounds": {
          "northeast": {
            "lat": 22.366306,
            "lng": 114.1359691
          },
          "southwest": {
            "lat": 22.365233,
            "lng": 114.13516
          }
        },
        "location": {
          "lat": 22.3657263,
          "lng": 114.1354818
        },
        "location_type": "ROOFTOP",
        "viewport": {
          "northeast": {
            "lat": 22.3671184802915,
            "lng": 114.1369135302915
          },
          "southwest": {
            "lat": 22.3644205197085,
            "lng": 114.1342155697085
          }
        }
      },
      "partial_match": true,
      "place_id": "EkQ1Ni01N-iZn-mLqiwgS3dhaSBTaW5nIENlbnRyZSwgMS0zIFdvIFlpIEhvcCBSZCwgU2hlayBMZWksIEhvbmcgS29uZyInGiUKFgoUChIJ4VMCyZv4AzQR1iPUX1haG_wSCzU2LTU36Jmf6Yuq",
      "types": [
        "subpremise"
      ]
    },
    {
      "address_components": [
        {
          "long_name": "\u592a\u5b50",
          "short_name": "\u592a\u5b50",
          "types": [
            "neighborhood",
            "political"
          ]
        },
        {
          "long_name": "\u4e5d\u9f8d",
          "short_name": "\u4e5d\u9f8d",
          "types": [
            "administrative_area_level_1",
            "political"
          ]
        },
        {
          "long_name": "\u9999\u6e2f",
          "short_name": "HK",
          "types": [
            "country",
            "political"
          ]
        }
      ],
      "formatted_address": "\u9999\u6e2f\u592a\u5b50",
      "geometry": {
        "bounds": {
          "northeast": {
            "lat": 22.326978,
            "lng": 114.178471
          },
          "southwest": {
            "lat": 22.3216141,
            "lng": 114.163465
          }
        },
        "location": {
          "lat": 22.3243935,
          "lng": 114.1692021
        },
        "location_type": "APPROXIMATE",
        "viewport": {
          "northeast": {
            "lat": 22.326978,
            "lng": 114.178471
          },
          "southwest": {
            "lat": 22.3216141,
            "lng": 114.163465
          }
        }
      },
      "partial_match": true,
      "place_id": "ChIJO3RgdMkABDQRkhmdqKkxACU",
      "types": [
        "neighborhood",
        "political"
      ]
    }
  ],
  "licno": "2291802349",
  "timestamp": 1564968756,
  "version": "1564966095"
}
