{
  "adr_en": "FAIRWOOD FAST FOOD, SHOP NO. 1 & 3, G/F., & SHOP NOS. 209-211, 1/F, FU PIK HOUSE, TAI WO HAU ESTATE, KWAI CHUNG, NEW TERRITORIES",
  "adr_tc": "\u65b0\u754c\u8475\u6d8c\u5927\u7aa9\u53e3\u90a8 \u5bcc\u78a7\u6a13\u5730\u4e0b1\u53ca3\u865f\u92ea \u53ca\u4e00\u6a13209-211\u865f\u92ea \u5927\u5feb\u6d3b",
  "geocode_en": [
    {
      "address_components": [
        {
          "long_name": "Hong Kong",
          "short_name": "HK",
          "types": [
            "country",
            "political"
          ]
        }
      ],
      "formatted_address": "Kwai Chung, Hong Kong",
      "geometry": {
        "location": {
          "lat": 22.369594,
          "lng": 114.124019
        },
        "location_type": "GEOMETRIC_CENTER",
        "viewport": {
          "northeast": {
            "lat": 22.3709429802915,
            "lng": 114.1253679802915
          },
          "southwest": {
            "lat": 22.3682450197085,
            "lng": 114.1226700197085
          }
        }
      },
      "partial_match": true,
      "place_id": "ChIJ96llTpL4AzQR_B6Z-1p_ndc",
      "plus_code": {
        "compound_code": "949F+RJ Hong Kong",
        "global_code": "7PJP949F+RJ"
      },
      "types": [
        "establishment",
        "lodging",
        "point_of_interest"
      ]
    }
  ],
  "geocode_tc": [
    {
      "address_components": [
        {
          "long_name": "\u5927\u7aa9\u53e3\u90a8\u5bcc\u78a7\u6a13",
          "short_name": "\u5927\u7aa9\u53e3\u90a8\u5bcc\u78a7\u6a13",
          "types": [
            "premise"
          ]
        },
        {
          "long_name": "\u8475\u6d8c",
          "short_name": "\u8475\u6d8c",
          "types": [
            "neighborhood",
            "political"
          ]
        },
        {
          "long_name": "\u65b0\u754c",
          "short_name": "\u65b0\u754c",
          "types": [
            "administrative_area_level_1",
            "political"
          ]
        },
        {
          "long_name": "\u9999\u6e2f",
          "short_name": "HK",
          "types": [
            "country",
            "political"
          ]
        }
      ],
      "formatted_address": "\u9999\u6e2f\u8475\u6d8c\u5927\u7aa9\u53e3\u90a8\u5bcc\u78a7\u6a13",
      "geometry": {
        "bounds": {
          "northeast": {
            "lat": 22.3699,
            "lng": 114.1241759
          },
          "southwest": {
            "lat": 22.369297,
            "lng": 114.1238689
          }
        },
        "location": {
          "lat": 22.3696026,
          "lng": 114.1240321
        },
        "location_type": "ROOFTOP",
        "viewport": {
          "northeast": {
            "lat": 22.3709474802915,
            "lng": 114.1253713802915
          },
          "southwest": {
            "lat": 22.3682495197085,
            "lng": 114.1226734197085
          }
        }
      },
      "partial_match": true,
      "place_id": "ChIJxUlkTpL4AzQRSIHuN0ygkqw",
      "types": [
        "premise"
      ]
    }
  ],
  "licno": "2291001140",
  "timestamp": 1564968756,
  "version": "1564966095"
}
