{
  "adr_en": "Yuet Tai Fung, SHOP G & H, G/F, YAU LEE BUILDING, 9-27 YEE ON STREET, KWUN TONG, KOWLOON",
  "adr_tc": "\u4e5d\u9f8d\u89c0\u5858\u5b9c\u5b89\u88579-27\u865f\u6709\u5229\u5927\u6a13\u5730\u4e0bG\u53caH\u92ea \u8d8a\u6cf0\u8c50",
  "geocode_en": [
    {
      "address_components": [
        {
          "long_name": "Hong Kong",
          "short_name": "HK",
          "types": [
            "country",
            "political"
          ]
        }
      ],
      "formatted_address": "Flat H, G/F, Yau Lee Building, 9-27 Yee On Street, Kwun Tong, Kowloon, Hong Kong",
      "geometry": {
        "location": {
          "lat": 22.315515,
          "lng": 114.222372
        },
        "location_type": "GEOMETRIC_CENTER",
        "viewport": {
          "northeast": {
            "lat": 22.3168639802915,
            "lng": 114.2237209802915
          },
          "southwest": {
            "lat": 22.3141660197085,
            "lng": 114.2210230197085
          }
        }
      },
      "partial_match": true,
      "place_id": "ChIJLRWFw04BBDQRp2zaUe5Opng",
      "plus_code": {
        "compound_code": "868C+6W Hong Kong",
        "global_code": "7PJP868C+6W"
      },
      "types": [
        "establishment",
        "food",
        "point_of_interest",
        "restaurant"
      ]
    },
    {
      "address_components": [
        {
          "long_name": "SHOP G & H, G",
          "short_name": "SHOP G & H, G",
          "types": [
            "subpremise"
          ]
        },
        {
          "long_name": "Yau Lee Building",
          "short_name": "Yau Lee Building",
          "types": [
            "premise"
          ]
        },
        {
          "long_name": "9-27",
          "short_name": "9-27",
          "types": [
            "street_number"
          ]
        },
        {
          "long_name": "Yee On Street",
          "short_name": "Yee On St",
          "types": [
            "route"
          ]
        },
        {
          "long_name": "Ngau Tau Kok",
          "short_name": "Ngau Tau Kok",
          "types": [
            "neighborhood",
            "political"
          ]
        },
        {
          "long_name": "Kowloon",
          "short_name": "Kowloon",
          "types": [
            "administrative_area_level_1",
            "political"
          ]
        },
        {
          "long_name": "Hong Kong",
          "short_name": "HK",
          "types": [
            "country",
            "political"
          ]
        }
      ],
      "formatted_address": "SHOP G & H, G, Yau Lee Building, 9-27 Yee On St, Ngau Tau Kok, Hong Kong",
      "geometry": {
        "bounds": {
          "northeast": {
            "lat": 22.3156169,
            "lng": 114.222604
          },
          "southwest": {
            "lat": 22.3154139,
            "lng": 114.2221399
          }
        },
        "location": {
          "lat": 22.3155195,
          "lng": 114.2223784
        },
        "location_type": "ROOFTOP",
        "viewport": {
          "northeast": {
            "lat": 22.3168643802915,
            "lng": 114.2237209302915
          },
          "southwest": {
            "lat": 22.3141664197085,
            "lng": 114.2210229697085
          }
        }
      },
      "partial_match": true,
      "place_id": "EkhTSE9QIEcgJiBILCBHLCBZYXUgTGVlIEJ1aWxkaW5nLCA5LTI3IFllZSBPbiBTdCwgTmdhdSBUYXUgS29rLCBIb25nIEtvbmciKRonChYKFAoSCedqhcNOAQQ0EURts8WXgvoxEg1TSE9QIEcgJiBILCBH",
      "types": [
        "subpremise"
      ]
    }
  ],
  "geocode_tc": [
    {
      "address_components": [
        {
          "long_name": "\u9999\u6e2f",
          "short_name": "HK",
          "types": [
            "country",
            "political"
          ]
        }
      ],
      "formatted_address": "Flat H, G/F, Yau Lee Building, 9-27 Yee On Street, Kwun Tong, Kowloon, \u9999\u6e2f",
      "geometry": {
        "location": {
          "lat": 22.315515,
          "lng": 114.222372
        },
        "location_type": "GEOMETRIC_CENTER",
        "viewport": {
          "northeast": {
            "lat": 22.3168639802915,
            "lng": 114.2237209802915
          },
          "southwest": {
            "lat": 22.3141660197085,
            "lng": 114.2210230197085
          }
        }
      },
      "place_id": "ChIJLRWFw04BBDQRp2zaUe5Opng",
      "plus_code": {
        "compound_code": "868C+6W \u9999\u6e2f",
        "global_code": "7PJP868C+6W"
      },
      "types": [
        "establishment",
        "food",
        "point_of_interest",
        "restaurant"
      ]
    }
  ],
  "licno": "2251806190",
  "timestamp": 1564968756,
  "version": "1564966095"
}
