{
  "adr_en": "Dragon King Restaurant, 2/F, YEN SHENG CENTRE, 64 HOI YUEN ROAD, KWUN TONG, KOWLOON",
  "adr_tc": "\u4e5d\u9f8d\u89c0\u5858\u958b\u6e90\u905364\u865f\u6e90\u6210\u4e2d\u5fc3\u4e8c\u6a13\u5168\u5c64 \u9f8d\u7687\u9152\u5bb6",
  "geocode_en": [
    {
      "address_components": [
        {
          "long_name": "Hong Kong",
          "short_name": "HK",
          "types": [
            "country",
            "political"
          ]
        }
      ],
      "formatted_address": "Hong Kong, \u9285\u947c\u7063\u544a\u58eb\u6253\u9053280\u865f\u4e16\u8cbf\u4e2d\u5fc312\u6a13",
      "geometry": {
        "location": {
          "lat": 22.2815127,
          "lng": 114.1842965
        },
        "location_type": "GEOMETRIC_CENTER",
        "viewport": {
          "northeast": {
            "lat": 22.2828616802915,
            "lng": 114.1856454802915
          },
          "southwest": {
            "lat": 22.2801637197085,
            "lng": 114.1829475197085
          }
        }
      },
      "partial_match": true,
      "place_id": "ChIJbTzaXVYABDQRvl4kZnz3Gf8",
      "plus_code": {
        "compound_code": "75JM+JP Hong Kong",
        "global_code": "7PJP75JM+JP"
      },
      "types": [
        "establishment",
        "food",
        "point_of_interest",
        "restaurant"
      ]
    },
    {
      "address_components": [
        {
          "long_name": "Hong Kong",
          "short_name": "HK",
          "types": [
            "country",
            "political"
          ]
        }
      ],
      "formatted_address": "Hong Kong, \u9999\u6e2f\u4e5d\u9f8d\u89c0\u5858\u958b\u6e90\u905364\u865f\u6e90\u6210\u4e2d\u5fc327\u5b57\u6a13",
      "geometry": {
        "location": {
          "lat": 22.310762,
          "lng": 114.225434
        },
        "location_type": "GEOMETRIC_CENTER",
        "viewport": {
          "northeast": {
            "lat": 22.3121109802915,
            "lng": 114.2267829802915
          },
          "southwest": {
            "lat": 22.3094130197085,
            "lng": 114.2240850197085
          }
        }
      },
      "partial_match": true,
      "place_id": "ChIJByVFZkUBBDQRFx-GU0rkIKk",
      "types": [
        "establishment",
        "point_of_interest"
      ]
    },
    {
      "address_components": [
        {
          "long_name": "64",
          "short_name": "64",
          "types": [
            "street_number"
          ]
        },
        {
          "long_name": "Hoi Yuen Road",
          "short_name": "Hoi Yuen Rd",
          "types": [
            "route"
          ]
        },
        {
          "long_name": "Kwun Tong",
          "short_name": "Kwun Tong",
          "types": [
            "neighborhood",
            "political"
          ]
        },
        {
          "long_name": "Kowloon",
          "short_name": "Kowloon",
          "types": [
            "administrative_area_level_1",
            "political"
          ]
        },
        {
          "long_name": "Hong Kong",
          "short_name": "HK",
          "types": [
            "country",
            "political"
          ]
        }
      ],
      "formatted_address": "64 Hoi Yuen Rd, Kwun Tong, Hong Kong",
      "geometry": {
        "bounds": {
          "northeast": {
            "lat": 22.3110449,
            "lng": 114.225774
          },
          "southwest": {
            "lat": 22.310494,
            "lng": 114.2251681
          }
        },
        "location": {
          "lat": 22.3107275,
          "lng": 114.2253969
        },
        "location_type": "ROOFTOP",
        "viewport": {
          "northeast": {
            "lat": 22.3121184302915,
            "lng": 114.2268200302915
          },
          "southwest": {
            "lat": 22.3094204697085,
            "lng": 114.2241220697085
          }
        }
      },
      "partial_match": true,
      "place_id": "ChIJeTRSZkUBBDQRwkMccyUQk04",
      "types": [
        "premise"
      ]
    }
  ],
  "geocode_tc": [
    {
      "address_components": [
        {
          "long_name": "\u9999\u6e2f",
          "short_name": "HK",
          "types": [
            "country",
            "political"
          ]
        }
      ],
      "formatted_address": "\u9999\u6e2f\u89c0\u5858\u958b\u6e90\u905364\u865f\u6e90\u6210\u4e2d\u5fc32\u6a13",
      "geometry": {
        "location": {
          "lat": 22.310783,
          "lng": 114.225484
        },
        "location_type": "GEOMETRIC_CENTER",
        "viewport": {
          "northeast": {
            "lat": 22.3121319802915,
            "lng": 114.2268329802915
          },
          "southwest": {
            "lat": 22.3094340197085,
            "lng": 114.2241350197085
          }
        }
      },
      "place_id": "ChIJ971UZkUBBDQRCZG4DjlVgi8",
      "plus_code": {
        "compound_code": "866G+85 \u9999\u6e2f",
        "global_code": "7PJP866G+85"
      },
      "types": [
        "establishment",
        "food",
        "point_of_interest",
        "restaurant"
      ]
    }
  ],
  "licno": "2251801159",
  "timestamp": 1564968756,
  "version": "1564966095"
}
