{
  "adr_en": "\u9d3b\u904b\u98df\u5c4b, SHOP G4A, G/F, TAK TIN SHOPPING CENTRE, 223 PIK WAN ROAD, LAM TIN, KOWLOON",
  "adr_tc": "\u4e5d\u9f8d\u85cd\u7530\u78a7\u96f2\u9053223\u865f\u5fb7\u7530\u5546\u5834\u5730\u4e0bG4A\u92ea \u9d3b\u904b\u98df\u5c4b",
  "geocode_en": [
    {
      "address_components": [
        {
          "long_name": "Hong Kong",
          "short_name": "HK",
          "types": [
            "country",
            "political"
          ]
        }
      ],
      "formatted_address": "Hong Kong, \u85cd\u7530\u5fb7\u7530\u90a8\u5fb7\u7530\u5546\u5834\u5730\u4e0b4A\u8216",
      "geometry": {
        "location": {
          "lat": 22.3101762,
          "lng": 114.2380604
        },
        "location_type": "GEOMETRIC_CENTER",
        "viewport": {
          "northeast": {
            "lat": 22.3115251802915,
            "lng": 114.2394093802915
          },
          "southwest": {
            "lat": 22.30882721970849,
            "lng": 114.2367114197085
          }
        }
      },
      "partial_match": true,
      "place_id": "ChIJ8_mP7lcBBDQRmmL4Zh4P3IA",
      "plus_code": {
        "compound_code": "866Q+36 Hong Kong",
        "global_code": "7PJP866Q+36"
      },
      "types": [
        "establishment",
        "food",
        "point_of_interest",
        "restaurant"
      ]
    },
    {
      "address_components": [
        {
          "long_name": "Tak Tin Estate Tak Yan House",
          "short_name": "Tak Tin Estate Tak Yan House",
          "types": [
            "premise"
          ]
        },
        {
          "long_name": "223\u865f",
          "short_name": "223\u865f",
          "types": [
            "street_number"
          ]
        },
        {
          "long_name": "Pik Wan Road",
          "short_name": "Pik Wan Rd",
          "types": [
            "route"
          ]
        },
        {
          "long_name": "Lam Tin",
          "short_name": "Lam Tin",
          "types": [
            "neighborhood",
            "political"
          ]
        },
        {
          "long_name": "Kowloon",
          "short_name": "Kowloon",
          "types": [
            "administrative_area_level_1",
            "political"
          ]
        },
        {
          "long_name": "Hong Kong",
          "short_name": "HK",
          "types": [
            "country",
            "political"
          ]
        }
      ],
      "formatted_address": "Tak Tin Estate Tak Yan House, 223\u865f Pik Wan Rd, Lam Tin, Hong Kong",
      "geometry": {
        "location": {
          "lat": 22.3104444,
          "lng": 114.2379886
        },
        "location_type": "ROOFTOP",
        "viewport": {
          "northeast": {
            "lat": 22.3117933802915,
            "lng": 114.2393375802915
          },
          "southwest": {
            "lat": 22.3090954197085,
            "lng": 114.2366396197085
          }
        }
      },
      "partial_match": true,
      "place_id": "ChIJAcDv61cBBDQRpsXJBXpa69M",
      "plus_code": {
        "compound_code": "866Q+55 Hong Kong",
        "global_code": "7PJP866Q+55"
      },
      "types": [
        "establishment",
        "point_of_interest",
        "shopping_mall"
      ]
    }
  ],
  "geocode_tc": [
    {
      "address_components": [
        {
          "long_name": "\u9999\u6e2f",
          "short_name": "HK",
          "types": [
            "country",
            "political"
          ]
        }
      ],
      "formatted_address": "\u9999\u6e2f\u85cd\u7530\u5fb7\u7530\u90a8\u5fb7\u7530\u5546\u5834\u5730\u4e0b4A\u8216",
      "geometry": {
        "location": {
          "lat": 22.3101762,
          "lng": 114.2380604
        },
        "location_type": "GEOMETRIC_CENTER",
        "viewport": {
          "northeast": {
            "lat": 22.3115251802915,
            "lng": 114.2394093802915
          },
          "southwest": {
            "lat": 22.30882721970849,
            "lng": 114.2367114197085
          }
        }
      },
      "place_id": "ChIJ8_mP7lcBBDQRmmL4Zh4P3IA",
      "plus_code": {
        "compound_code": "866Q+36 \u9999\u6e2f",
        "global_code": "7PJP866Q+36"
      },
      "types": [
        "establishment",
        "food",
        "point_of_interest",
        "restaurant"
      ]
    }
  ],
  "licno": "3151800701",
  "timestamp": 1564975666,
  "version": "1564966095"
}
