{
  "adr_en": "\u4e0a\u6d77\u96f2\u541e, SHOP NO. 3, G/F, WING FU MANSION, 10-24 PARKES STREET, KOWLOON",
  "adr_tc": "\u4e5d\u9f8d\u767d\u52a0\u58eb\u885710-24\u865f\u6c38\u5bcc\u5927\u5ec8\u5730\u4e0b3\u865f\u8216 \u4e0a\u6d77\u96f2\u541e",
  "geocode_en": [
    {
      "address_components": [
        {
          "long_name": "Shanghai",
          "short_name": "Shanghai",
          "types": [
            "locality",
            "political"
          ]
        },
        {
          "long_name": "Shanghai",
          "short_name": "Shanghai",
          "types": [
            "administrative_area_level_1",
            "political"
          ]
        },
        {
          "long_name": "China",
          "short_name": "CN",
          "types": [
            "country",
            "political"
          ]
        }
      ],
      "formatted_address": "Shanghai, China",
      "geometry": {
        "bounds": {
          "northeast": {
            "lat": 31.8727163,
            "lng": 122.2471487
          },
          "southwest": {
            "lat": 30.6755933,
            "lng": 120.8568044
          }
        },
        "location": {
          "lat": 31.230416,
          "lng": 121.473701
        },
        "location_type": "APPROXIMATE",
        "viewport": {
          "northeast": {
            "lat": 31.6688967,
            "lng": 122.1137989
          },
          "southwest": {
            "lat": 30.7798012,
            "lng": 120.8397067
          }
        }
      },
      "partial_match": true,
      "place_id": "ChIJMzz1sUBwsjURoWTDI5QSlQI",
      "types": [
        "locality",
        "political"
      ]
    },
    {
      "address_components": [
        {
          "long_name": "\u96f2\u541e, SHOP NO",
          "short_name": "\u96f2\u541e, SHOP NO",
          "types": [
            "subpremise"
          ]
        },
        {
          "long_name": "Wing Fu Mansion",
          "short_name": "Wing Fu Mansion",
          "types": [
            "premise"
          ]
        },
        {
          "long_name": "10-24",
          "short_name": "10-24",
          "types": [
            "street_number"
          ]
        },
        {
          "long_name": "Parkes Street",
          "short_name": "Parkes St",
          "types": [
            "route"
          ]
        },
        {
          "long_name": "Yau Ma Tei",
          "short_name": "Yau Ma Tei",
          "types": [
            "neighborhood",
            "political"
          ]
        },
        {
          "long_name": "Kowloon",
          "short_name": "Kowloon",
          "types": [
            "administrative_area_level_1",
            "political"
          ]
        },
        {
          "long_name": "Hong Kong",
          "short_name": "HK",
          "types": [
            "country",
            "political"
          ]
        }
      ],
      "formatted_address": "\u96f2\u541e, SHOP NO, Wing Fu Mansion, 10-24 Parkes St, Yau Ma Tei, Hong Kong",
      "geometry": {
        "bounds": {
          "northeast": {
            "lat": 22.303882,
            "lng": 114.170881
          },
          "southwest": {
            "lat": 22.303706,
            "lng": 114.170756
          }
        },
        "location": {
          "lat": 22.3038022,
          "lng": 114.1708045
        },
        "location_type": "ROOFTOP",
        "viewport": {
          "northeast": {
            "lat": 22.3051429802915,
            "lng": 114.1721674802915
          },
          "southwest": {
            "lat": 22.3024450197085,
            "lng": 114.1694695197085
          }
        }
      },
      "partial_match": true,
      "place_id": "Ekjpm7LlkJ4sIFNIT1AgTk8sIFdpbmcgRnUgTWFuc2lvbiwgMTAtMjQgUGFya2VzIFN0LCBZYXUgTWEgVGVpLCBIb25nIEtvbmciKxopChYKFAoSCUUY74LrAAQ0Eezn-2U5hZNvEg_pm7LlkJ4sIFNIT1AgTk8",
      "types": [
        "subpremise"
      ]
    },
    {
      "address_components": [
        {
          "long_name": "SHOP NO. 3, G",
          "short_name": "SHOP NO. 3, G",
          "types": [
            "subpremise"
          ]
        },
        {
          "long_name": "Wing Fu Mansion",
          "short_name": "Wing Fu Mansion",
          "types": [
            "premise"
          ]
        },
        {
          "long_name": "10-24",
          "short_name": "10-24",
          "types": [
            "street_number"
          ]
        },
        {
          "long_name": "Parkes Street",
          "short_name": "Parkes St",
          "types": [
            "route"
          ]
        },
        {
          "long_name": "Yau Ma Tei",
          "short_name": "Yau Ma Tei",
          "types": [
            "neighborhood",
            "political"
          ]
        },
        {
          "long_name": "Kowloon",
          "short_name": "Kowloon",
          "types": [
            "administrative_area_level_1",
            "political"
          ]
        },
        {
          "long_name": "Hong Kong",
          "short_name": "HK",
          "types": [
            "country",
            "political"
          ]
        }
      ],
      "formatted_address": "SHOP NO. 3, G, Wing Fu Mansion, 10-24 Parkes St, Yau Ma Tei, Hong Kong",
      "geometry": {
        "bounds": {
          "northeast": {
            "lat": 22.303882,
            "lng": 114.170881
          },
          "southwest": {
            "lat": 22.303706,
            "lng": 114.170756
          }
        },
        "location": {
          "lat": 22.3038022,
          "lng": 114.1708045
        },
        "location_type": "ROOFTOP",
        "viewport": {
          "northeast": {
            "lat": 22.3051429802915,
            "lng": 114.1721674802915
          },
          "southwest": {
            "lat": 22.3024450197085,
            "lng": 114.1694695197085
          }
        }
      },
      "partial_match": true,
      "place_id": "EkZTSE9QIE5PLiAzLCBHLCBXaW5nIEZ1IE1hbnNpb24sIDEwLTI0IFBhcmtlcyBTdCwgWWF1IE1hIFRlaSwgSG9uZyBLb25nIikaJwoWChQKEglFGO-C6wAENBHs5_tlOYWTbxINU0hPUCBOTy4gMywgRw",
      "types": [
        "subpremise"
      ]
    }
  ],
  "geocode_tc": [
    {
      "address_components": [
        {
          "long_name": "\u6c38\u5bcc\u5927\u5ec8",
          "short_name": "\u6c38\u5bcc\u5927\u5ec8",
          "types": [
            "premise"
          ]
        },
        {
          "long_name": "10-24",
          "short_name": "10-24",
          "types": [
            "street_number"
          ]
        },
        {
          "long_name": "\u767d\u52a0\u58eb\u8857",
          "short_name": "\u767d\u52a0\u58eb\u8857",
          "types": [
            "route"
          ]
        },
        {
          "long_name": "\u6cb9\u9ebb\u5730",
          "short_name": "\u6cb9\u9ebb\u5730",
          "types": [
            "neighborhood",
            "political"
          ]
        },
        {
          "long_name": "\u4e5d\u9f8d",
          "short_name": "\u4e5d\u9f8d",
          "types": [
            "administrative_area_level_1",
            "political"
          ]
        },
        {
          "long_name": "\u9999\u6e2f",
          "short_name": "HK",
          "types": [
            "country",
            "political"
          ]
        }
      ],
      "formatted_address": "\u9999\u6e2f\u6cb9\u9ebb\u5730\u767d\u52a0\u58eb\u885710-24\u865f\u6c38\u5bcc\u5927\u5ec8",
      "geometry": {
        "bounds": {
          "northeast": {
            "lat": 22.303882,
            "lng": 114.170881
          },
          "southwest": {
            "lat": 22.303706,
            "lng": 114.170756
          }
        },
        "location": {
          "lat": 22.3038022,
          "lng": 114.1708045
        },
        "location_type": "ROOFTOP",
        "viewport": {
          "northeast": {
            "lat": 22.3051429802915,
            "lng": 114.1721674802915
          },
          "southwest": {
            "lat": 22.3024450197085,
            "lng": 114.1694695197085
          }
        }
      },
      "partial_match": true,
      "place_id": "ChIJRRjvgusABDQR7Of7ZTmFk28",
      "types": [
        "premise"
      ]
    },
    {
      "address_components": [
        {
          "long_name": "\u4e0a\u6d77",
          "short_name": "\u4e0a\u6d77",
          "types": [
            "locality",
            "political"
          ]
        },
        {
          "long_name": "\u4e0a\u6d77",
          "short_name": "\u4e0a\u6d77",
          "types": [
            "administrative_area_level_1",
            "political"
          ]
        },
        {
          "long_name": "\u4e2d\u570b",
          "short_name": "CN",
          "types": [
            "country",
            "political"
          ]
        }
      ],
      "formatted_address": "\u4e2d\u570b\u4e0a\u6d77",
      "geometry": {
        "bounds": {
          "northeast": {
            "lat": 31.8727163,
            "lng": 122.2471487
          },
          "southwest": {
            "lat": 30.6755933,
            "lng": 120.8568044
          }
        },
        "location": {
          "lat": 31.230416,
          "lng": 121.473701
        },
        "location_type": "APPROXIMATE",
        "viewport": {
          "northeast": {
            "lat": 31.6688967,
            "lng": 122.1137989
          },
          "southwest": {
            "lat": 30.7798012,
            "lng": 120.8397067
          }
        }
      },
      "partial_match": true,
      "place_id": "ChIJMzz1sUBwsjURoWTDI5QSlQI",
      "types": [
        "locality",
        "political"
      ]
    }
  ],
  "licno": "2261809554",
  "timestamp": 1564968756,
  "version": "1564966095"
}
