{
  "adr_en": "FULUM PALACE, SHOP NO. 6-7, 1/F, MARBELLA SHOPPING CENTRE, 23 ON CHUN STREET, MA ON SHAN, SHA TIN, NEW TERRITORIES",
  "adr_tc": "\u65b0\u754c\u6c99\u7530\u99ac\u978d\u5c71\u978d\u99ff\u885723\u865f\u8fce\u6fe4\u7063\u5546\u58341\u6a136-7\u865f\u92ea \u5bcc\u81e8\u7687\u5bae",
  "geocode_en": [
    {
      "address_components": [
        {
          "long_name": "Marbella",
          "short_name": "Marbella",
          "types": [
            "locality",
            "political"
          ]
        },
        {
          "long_name": "M\u00e1laga",
          "short_name": "M\u00e1laga",
          "types": [
            "administrative_area_level_2",
            "political"
          ]
        },
        {
          "long_name": "Andalusia",
          "short_name": "AL",
          "types": [
            "administrative_area_level_1",
            "political"
          ]
        },
        {
          "long_name": "Spain",
          "short_name": "ES",
          "types": [
            "country",
            "political"
          ]
        }
      ],
      "formatted_address": "Marbella, M\u00e1laga, Spain",
      "geometry": {
        "bounds": {
          "northeast": {
            "lat": 36.5324463,
            "lng": -4.7320417
          },
          "southwest": {
            "lat": 36.4692554,
            "lng": -4.9979581
          }
        },
        "location": {
          "lat": 36.510071,
          "lng": -4.8824474
        },
        "location_type": "APPROXIMATE",
        "viewport": {
          "northeast": {
            "lat": 36.5324463,
            "lng": -4.7320417
          },
          "southwest": {
            "lat": 36.4692554,
            "lng": -4.9979581
          }
        }
      },
      "partial_match": true,
      "place_id": "ChIJ36tNkAnYcg0Rq-y1B7mdbA4",
      "types": [
        "locality",
        "political"
      ]
    },
    {
      "address_components": [
        {
          "long_name": "23",
          "short_name": "23",
          "types": [
            "street_number"
          ]
        },
        {
          "long_name": "On Chun Street",
          "short_name": "On Chun St",
          "types": [
            "route"
          ]
        },
        {
          "long_name": "Ma On Shan",
          "short_name": "Ma On Shan",
          "types": [
            "neighborhood",
            "political"
          ]
        },
        {
          "long_name": "New Territories",
          "short_name": "New Territories",
          "types": [
            "administrative_area_level_1",
            "political"
          ]
        },
        {
          "long_name": "Hong Kong",
          "short_name": "HK",
          "types": [
            "country",
            "political"
          ]
        }
      ],
      "formatted_address": "23 On Chun St, Ma On Shan, Hong Kong",
      "geometry": {
        "location": {
          "lat": 22.425115,
          "lng": 114.227149
        },
        "location_type": "ROOFTOP",
        "viewport": {
          "northeast": {
            "lat": 22.4264639802915,
            "lng": 114.2284979802915
          },
          "southwest": {
            "lat": 22.42376601970849,
            "lng": 114.2258000197085
          }
        }
      },
      "partial_match": true,
      "place_id": "ChIJHeH8gboIBDQRrFu-jc7q5wQ",
      "plus_code": {
        "compound_code": "C6GG+2V Hong Kong",
        "global_code": "7PJPC6GG+2V"
      },
      "types": [
        "street_address"
      ]
    }
  ],
  "geocode_tc": [
    {
      "address_components": [
        {
          "long_name": "23",
          "short_name": "23",
          "types": [
            "street_number"
          ]
        },
        {
          "long_name": "\u978d\u99ff\u8857",
          "short_name": "\u978d\u99ff\u8857",
          "types": [
            "route"
          ]
        },
        {
          "long_name": "\u99ac\u978d\u5c71",
          "short_name": "\u99ac\u978d\u5c71",
          "types": [
            "neighborhood",
            "political"
          ]
        },
        {
          "long_name": "\u65b0\u754c",
          "short_name": "\u65b0\u754c",
          "types": [
            "administrative_area_level_1",
            "political"
          ]
        },
        {
          "long_name": "\u9999\u6e2f",
          "short_name": "HK",
          "types": [
            "country",
            "political"
          ]
        }
      ],
      "formatted_address": "\u9999\u6e2f\u99ac\u978d\u5c71\u978d\u99ff\u885723\u865f",
      "geometry": {
        "location": {
          "lat": 22.425293,
          "lng": 114.2274556
        },
        "location_type": "ROOFTOP",
        "viewport": {
          "northeast": {
            "lat": 22.4266419802915,
            "lng": 114.2288045802915
          },
          "southwest": {
            "lat": 22.4239440197085,
            "lng": 114.2261066197085
          }
        }
      },
      "place_id": "ChIJexq4frAIBDQRmYRJtguksiY",
      "plus_code": {
        "compound_code": "C6GG+4X \u9999\u6e2f",
        "global_code": "7PJPC6GG+4X"
      },
      "types": [
        "establishment",
        "point_of_interest",
        "shopping_mall"
      ]
    },
    {
      "address_components": [
        {
          "long_name": "23",
          "short_name": "23",
          "types": [
            "street_number"
          ]
        },
        {
          "long_name": "On Chun Street",
          "short_name": "On Chun St",
          "types": [
            "route"
          ]
        },
        {
          "long_name": "Ma On Shan",
          "short_name": "Ma On Shan",
          "types": [
            "neighborhood",
            "political"
          ]
        },
        {
          "long_name": "\u9999\u6e2f",
          "short_name": "HK",
          "types": [
            "country",
            "political"
          ]
        }
      ],
      "formatted_address": "marbella mall, 23 On Chun St, Ma On Shan, \u9999\u6e2f",
      "geometry": {
        "location": {
          "lat": 22.4252881,
          "lng": 114.2275176
        },
        "location_type": "ROOFTOP",
        "viewport": {
          "northeast": {
            "lat": 22.4266370802915,
            "lng": 114.2288665802915
          },
          "southwest": {
            "lat": 22.4239391197085,
            "lng": 114.2261686197085
          }
        }
      },
      "place_id": "ChIJpxELfrAIBDQRz8tfhZt-wEo",
      "plus_code": {
        "compound_code": "C6GH+42 \u9999\u6e2f",
        "global_code": "7PJPC6GH+42"
      },
      "types": [
        "establishment",
        "food",
        "point_of_interest",
        "restaurant"
      ]
    }
  ],
  "licno": "2297803894",
  "timestamp": 1564975666,
  "version": "1564966095"
}
