{
  "adr_en": "(no record found), UNIT 3, G/F., SUNSHINE PLAZA, 353 LOCKHART ROAD, WAN CHAI, HONG KONG",
  "adr_tc": "\u9999\u6e2f\u7063\u4ed4\u99f1\u514b\u9053353\u865f\u4e09\u6e58\u5927\u5ec8\u5730\u4e0b3\u865f\u92ea (\u6c92\u6709\u8a18\u9304)",
  "geocode_en": [
    {
      "address_components": [
        {
          "long_name": "Sunshine Plaza",
          "short_name": "Sunshine Plaza",
          "types": [
            "premise"
          ]
        },
        {
          "long_name": "324-338",
          "short_name": "324-338",
          "types": [
            "street_number"
          ]
        },
        {
          "long_name": "Jaffe Road",
          "short_name": "Jaffe Rd",
          "types": [
            "route"
          ]
        },
        {
          "long_name": "Wan Chai",
          "short_name": "Wan Chai",
          "types": [
            "neighborhood",
            "political"
          ]
        },
        {
          "long_name": "Hong Kong Island",
          "short_name": "Hong Kong Island",
          "types": [
            "administrative_area_level_1",
            "political"
          ]
        },
        {
          "long_name": "Hong Kong",
          "short_name": "HK",
          "types": [
            "country",
            "political"
          ]
        }
      ],
      "formatted_address": "Sunshine Plaza, 324-338 Jaffe Rd, Wan Chai, Hong Kong",
      "geometry": {
        "bounds": {
          "northeast": {
            "lat": 22.279652,
            "lng": 114.1790769
          },
          "southwest": {
            "lat": 22.2794259,
            "lng": 114.1787099
          }
        },
        "location": {
          "lat": 22.2795531,
          "lng": 114.1788858
        },
        "location_type": "ROOFTOP",
        "viewport": {
          "northeast": {
            "lat": 22.2808879302915,
            "lng": 114.1802423802915
          },
          "southwest": {
            "lat": 22.2781899697085,
            "lng": 114.1775444197085
          }
        }
      },
      "partial_match": true,
      "place_id": "ChIJoVu2AloABDQRbvo21kZVprw",
      "types": [
        "premise"
      ]
    },
    {
      "address_components": [
        {
          "long_name": "353",
          "short_name": "353",
          "types": [
            "street_number"
          ]
        },
        {
          "long_name": "Lockhart Road",
          "short_name": "Lockhart Rd",
          "types": [
            "route"
          ]
        },
        {
          "long_name": "Wan Chai",
          "short_name": "Wan Chai",
          "types": [
            "neighborhood",
            "political"
          ]
        },
        {
          "long_name": "Hong Kong Island",
          "short_name": "Hong Kong Island",
          "types": [
            "administrative_area_level_1",
            "political"
          ]
        },
        {
          "long_name": "Hong Kong",
          "short_name": "HK",
          "types": [
            "country",
            "political"
          ]
        }
      ],
      "formatted_address": "353 Lockhart Rd, Wan Chai, Hong Kong",
      "geometry": {
        "location": {
          "lat": 22.2793609,
          "lng": 114.1789335
        },
        "location_type": "ROOFTOP",
        "viewport": {
          "northeast": {
            "lat": 22.2807098802915,
            "lng": 114.1802824802915
          },
          "southwest": {
            "lat": 22.2780119197085,
            "lng": 114.1775845197085
          }
        }
      },
      "partial_match": true,
      "place_id": "ChIJt_-2AloABDQRBbbnlBxjpMU",
      "plus_code": {
        "compound_code": "75HH+PH Hong Kong",
        "global_code": "7PJP75HH+PH"
      },
      "types": [
        "street_address"
      ]
    }
  ],
  "geocode_tc": [
    {
      "address_components": [
        {
          "long_name": "353",
          "short_name": "353",
          "types": [
            "street_number"
          ]
        },
        {
          "long_name": "\u99f1\u514b\u9053",
          "short_name": "\u99f1\u514b\u9053",
          "types": [
            "route"
          ]
        },
        {
          "long_name": "\u7063\u4ed4",
          "short_name": "\u7063\u4ed4",
          "types": [
            "neighborhood",
            "political"
          ]
        },
        {
          "long_name": "\u9999\u6e2f\u5cf6",
          "short_name": "\u9999\u6e2f\u5cf6",
          "types": [
            "administrative_area_level_1",
            "political"
          ]
        },
        {
          "long_name": "\u9999\u6e2f",
          "short_name": "HK",
          "types": [
            "country",
            "political"
          ]
        }
      ],
      "formatted_address": "\u9999\u6e2f\u7063\u4ed4\u99f1\u514b\u9053353\u865f",
      "geometry": {
        "location": {
          "lat": 22.2793609,
          "lng": 114.1789335
        },
        "location_type": "ROOFTOP",
        "viewport": {
          "northeast": {
            "lat": 22.2807098802915,
            "lng": 114.1802824802915
          },
          "southwest": {
            "lat": 22.2780119197085,
            "lng": 114.1775845197085
          }
        }
      },
      "partial_match": true,
      "place_id": "ChIJt_-2AloABDQRBbbnlBxjpMU",
      "plus_code": {
        "compound_code": "75HH+PH \u9999\u6e2f",
        "global_code": "7PJP75HH+PH"
      },
      "types": [
        "street_address"
      ]
    },
    {
      "address_components": [
        {
          "long_name": "\u865f\u92ea",
          "short_name": "\u865f\u92ea",
          "types": [
            "subpremise"
          ]
        },
        {
          "long_name": "\u4e09\u6e58\u5927\u5ec8",
          "short_name": "\u4e09\u6e58\u5927\u5ec8",
          "types": [
            "premise"
          ]
        },
        {
          "long_name": "324-338",
          "short_name": "324-338",
          "types": [
            "street_number"
          ]
        },
        {
          "long_name": "\u8b1d\u6590\u9053",
          "short_name": "\u8b1d\u6590\u9053",
          "types": [
            "route"
          ]
        },
        {
          "long_name": "\u7063\u4ed4",
          "short_name": "\u7063\u4ed4",
          "types": [
            "neighborhood",
            "political"
          ]
        },
        {
          "long_name": "\u9999\u6e2f\u5cf6",
          "short_name": "\u9999\u6e2f\u5cf6",
          "types": [
            "administrative_area_level_1",
            "political"
          ]
        },
        {
          "long_name": "\u9999\u6e2f",
          "short_name": "HK",
          "types": [
            "country",
            "political"
          ]
        }
      ],
      "formatted_address": "\u9999\u6e2f\u7063\u4ed4\u8b1d\u6590\u9053324-338\u865f\u4e09\u6e58\u5927\u5ec8\u865f\u92ea",
      "geometry": {
        "bounds": {
          "northeast": {
            "lat": 22.279652,
            "lng": 114.1790769
          },
          "southwest": {
            "lat": 22.2794259,
            "lng": 114.1787099
          }
        },
        "location": {
          "lat": 22.2795531,
          "lng": 114.1788858
        },
        "location_type": "ROOFTOP",
        "viewport": {
          "northeast": {
            "lat": 22.2808879302915,
            "lng": 114.1802423802915
          },
          "southwest": {
            "lat": 22.2781899697085,
            "lng": 114.1775444197085
          }
        }
      },
      "partial_match": true,
      "place_id": "Ej3omZ_pi6osIFN1bnNoaW5lIFBsYXphLCAzMjQtMzM4IEphZmZlIFJkLCBXYW4gQ2hhaSwgSG9uZyBLb25nIiIaIAoWChQKEgmhW7YCWgAENBFu-jbWRlWmvBIG6Jmf6Yuq",
      "types": [
        "subpremise"
      ]
    }
  ],
  "licno": "3912808081",
  "timestamp": 1564975666,
  "version": "1564966095"
}
