{
  "adr_en": "CHUNG SHAN VEGGIE LIMITED, SHOP 4, BASEMENT, KAI FUNG BUILDING, NOS. 2-24 JERVOIS STREET AND NOS. 189-205 QUEEN'S ROAD CENTRAL, HONG KONG",
  "adr_tc": "\u9999\u6e2f\u4e2d\u74b0\u7687\u540e\u5927\u9053\u4e2d189-205\u865f\u8607\u676d\u88572-24\u865f\u555f\u8c50\u5927\u5ec8\u5730 \u5eab4\u865f\u8216 \u677e\u5c71\u7d20\u98df\u6709\u9650\u516c\u53f8",
  "geocode_en": [
    {
      "address_components": [
        {
          "long_name": "Kai Fung Building",
          "short_name": "Kai Fung Building",
          "types": [
            "premise"
          ]
        },
        {
          "long_name": "102-104",
          "short_name": "102-104",
          "types": [
            "street_number"
          ]
        },
        {
          "long_name": "Hill Road",
          "short_name": "Hill Rd",
          "types": [
            "route"
          ]
        },
        {
          "long_name": "Sai Wan",
          "short_name": "Sai Wan",
          "types": [
            "neighborhood",
            "political"
          ]
        },
        {
          "long_name": "Hong Kong Island",
          "short_name": "Hong Kong Island",
          "types": [
            "administrative_area_level_1",
            "political"
          ]
        },
        {
          "long_name": "Hong Kong",
          "short_name": "HK",
          "types": [
            "country",
            "political"
          ]
        }
      ],
      "formatted_address": "Kai Fung Building, 102-104 Hill Rd, Sai Wan, Hong Kong",
      "geometry": {
        "bounds": {
          "northeast": {
            "lat": 22.2841929,
            "lng": 114.1364419
          },
          "southwest": {
            "lat": 22.284065,
            "lng": 114.136318
          }
        },
        "location": {
          "lat": 22.2841481,
          "lng": 114.1363876
        },
        "location_type": "ROOFTOP",
        "viewport": {
          "northeast": {
            "lat": 22.2854779302915,
            "lng": 114.1377289302915
          },
          "southwest": {
            "lat": 22.2827799697085,
            "lng": 114.1350309697085
          }
        }
      },
      "partial_match": true,
      "place_id": "ChIJ59tpSIT_AzQR3vo5rcjh7d8",
      "types": [
        "premise"
      ]
    },
    {
      "address_components": [
        {
          "long_name": "2-24",
          "short_name": "2-24",
          "types": [
            "street_number"
          ]
        },
        {
          "long_name": "Jervois Street",
          "short_name": "Jervois St",
          "types": [
            "route"
          ]
        },
        {
          "long_name": "Sheung Wan",
          "short_name": "Sheung Wan",
          "types": [
            "neighborhood",
            "political"
          ]
        },
        {
          "long_name": "Hong Kong Island",
          "short_name": "Hong Kong Island",
          "types": [
            "administrative_area_level_1",
            "political"
          ]
        },
        {
          "long_name": "Hong Kong",
          "short_name": "HK",
          "types": [
            "country",
            "political"
          ]
        }
      ],
      "formatted_address": "2-24 Jervois St, Sheung Wan, Hong Kong",
      "geometry": {
        "location": {
          "lat": 22.2851104,
          "lng": 114.1526558
        },
        "location_type": "ROOFTOP",
        "viewport": {
          "northeast": {
            "lat": 22.2864593802915,
            "lng": 114.1540047802915
          },
          "southwest": {
            "lat": 22.2837614197085,
            "lng": 114.1513068197085
          }
        }
      },
      "partial_match": true,
      "place_id": "ChIJaxuGYHwABDQRR2OYfqSbe58",
      "plus_code": {
        "compound_code": "75P3+23 Hong Kong",
        "global_code": "7PJP75P3+23"
      },
      "types": [
        "street_address"
      ]
    },
    {
      "address_components": [
        {
          "long_name": "Kai Fung Mansion",
          "short_name": "Kai Fung Mansion",
          "types": [
            "premise"
          ]
        },
        {
          "long_name": "189-205",
          "short_name": "189-205",
          "types": [
            "street_number"
          ]
        },
        {
          "long_name": "Queen's Road Central",
          "short_name": "Queen's Road Central",
          "types": [
            "route"
          ]
        },
        {
          "long_name": "Hong Kong Island",
          "short_name": "Hong Kong Island",
          "types": [
            "administrative_area_level_1",
            "political"
          ]
        },
        {
          "long_name": "Hong Kong",
          "short_name": "HK",
          "types": [
            "country",
            "political"
          ]
        }
      ],
      "formatted_address": "Kai Fung Mansion, 189-205 Queen's Road Central, Hong Kong",
      "geometry": {
        "bounds": {
          "northeast": {
            "lat": 22.2852041,
            "lng": 114.152827
          },
          "southwest": {
            "lat": 22.285001,
            "lng": 114.1524679
          }
        },
        "location": {
          "lat": 22.2851104,
          "lng": 114.1526558
        },
        "location_type": "ROOFTOP",
        "viewport": {
          "northeast": {
            "lat": 22.2864515302915,
            "lng": 114.1539964302915
          },
          "southwest": {
            "lat": 22.28375356970849,
            "lng": 114.1512984697085
          }
        }
      },
      "partial_match": true,
      "place_id": "ChIJaxuGYHwABDQRKBStRODUchc",
      "types": [
        "premise"
      ]
    }
  ],
  "geocode_tc": [
    {
      "address_components": [
        {
          "long_name": "Kai Fung Mansion",
          "short_name": "Kai Fung Mansion",
          "types": [
            "premise"
          ]
        },
        {
          "long_name": "10",
          "short_name": "10",
          "types": [
            "street_number"
          ]
        },
        {
          "long_name": "Jervois Street",
          "short_name": "Jervois St",
          "types": [
            "route"
          ]
        },
        {
          "long_name": "Sheung Wan",
          "short_name": "Sheung Wan",
          "types": [
            "neighborhood",
            "political"
          ]
        },
        {
          "long_name": "\u9999\u6e2f",
          "short_name": "HK",
          "types": [
            "country",
            "political"
          ]
        }
      ],
      "formatted_address": "Shop No. 4, G/F, Kai Fung Mansion, 10 Jervois St, Sheung Wan, \u9999\u6e2f",
      "geometry": {
        "location": {
          "lat": 22.2850932,
          "lng": 114.1525684
        },
        "location_type": "ROOFTOP",
        "viewport": {
          "northeast": {
            "lat": 22.2864421802915,
            "lng": 114.1539173802915
          },
          "southwest": {
            "lat": 22.2837442197085,
            "lng": 114.1512194197085
          }
        }
      },
      "partial_match": true,
      "place_id": "ChIJd7M8KWQBBDQRI0V3XvHygeY",
      "plus_code": {
        "compound_code": "75P3+22 \u9999\u6e2f",
        "global_code": "7PJP75P3+22"
      },
      "types": [
        "establishment",
        "food",
        "point_of_interest",
        "restaurant"
      ]
    },
    {
      "address_components": [
        {
          "long_name": "\u555f\u8c50\u5927\u5ec8",
          "short_name": "\u555f\u8c50\u5927\u5ec8",
          "types": [
            "premise"
          ]
        },
        {
          "long_name": "189-205",
          "short_name": "189-205",
          "types": [
            "street_number"
          ]
        },
        {
          "long_name": "\u7687\u540e\u5927\u9053\u4e2d",
          "short_name": "\u7687\u540e\u5927\u9053\u4e2d",
          "types": [
            "route"
          ]
        },
        {
          "long_name": "\u9999\u6e2f\u5cf6",
          "short_name": "\u9999\u6e2f\u5cf6",
          "types": [
            "administrative_area_level_1",
            "political"
          ]
        },
        {
          "long_name": "\u9999\u6e2f",
          "short_name": "HK",
          "types": [
            "country",
            "political"
          ]
        }
      ],
      "formatted_address": "\u9999\u6e2f\u7687\u540e\u5927\u9053\u4e2d189-205\u865f\u555f\u8c50\u5927\u5ec8",
      "geometry": {
        "bounds": {
          "northeast": {
            "lat": 22.2852041,
            "lng": 114.152827
          },
          "southwest": {
            "lat": 22.285001,
            "lng": 114.1524679
          }
        },
        "location": {
          "lat": 22.2851104,
          "lng": 114.1526558
        },
        "location_type": "ROOFTOP",
        "viewport": {
          "northeast": {
            "lat": 22.2864515302915,
            "lng": 114.1539964302915
          },
          "southwest": {
            "lat": 22.28375356970849,
            "lng": 114.1512984697085
          }
        }
      },
      "partial_match": true,
      "place_id": "ChIJaxuGYHwABDQRKBStRODUchc",
      "types": [
        "premise"
      ]
    },
    {
      "address_components": [
        {
          "long_name": "\u5eab4\u865f\u8216",
          "short_name": "\u5eab4\u865f\u8216",
          "types": [
            "subpremise"
          ]
        },
        {
          "long_name": "\u555f\u8c50\u5927\u5ec8",
          "short_name": "\u555f\u8c50\u5927\u5ec8",
          "types": [
            "premise"
          ]
        },
        {
          "long_name": "189-205",
          "short_name": "189-205",
          "types": [
            "street_number"
          ]
        },
        {
          "long_name": "\u7687\u540e\u5927\u9053\u4e2d",
          "short_name": "\u7687\u540e\u5927\u9053\u4e2d",
          "types": [
            "route"
          ]
        },
        {
          "long_name": "\u9999\u6e2f\u5cf6",
          "short_name": "\u9999\u6e2f\u5cf6",
          "types": [
            "administrative_area_level_1",
            "political"
          ]
        },
        {
          "long_name": "\u9999\u6e2f",
          "short_name": "HK",
          "types": [
            "country",
            "political"
          ]
        }
      ],
      "formatted_address": "\u9999\u6e2f\u7687\u540e\u5927\u9053\u4e2d189-205\u865f\u555f\u8c50\u5927\u5ec8\u5eab4\u865f\u8216",
      "geometry": {
        "bounds": {
          "northeast": {
            "lat": 22.2852041,
            "lng": 114.152827
          },
          "southwest": {
            "lat": 22.285001,
            "lng": 114.1524679
          }
        },
        "location": {
          "lat": 22.2851104,
          "lng": 114.1526558
        },
        "location_type": "ROOFTOP",
        "viewport": {
          "northeast": {
            "lat": 22.2864515302915,
            "lng": 114.1539964302915
          },
          "southwest": {
            "lat": 22.28375356970849,
            "lng": 114.1512984697085
          }
        }
      },
      "partial_match": true,
      "place_id": "EkXluqs06Jmf6IiWLCBLYWkgRnVuZyBNYW5zaW9uLCAxODktMjA1IFF1ZWVuJ3MgUm9hZCBDZW50cmFsLCBIb25nIEtvbmciJhokChYKFAoSCWsbhmB8AAQ0ESgUrUTg1HIXEgrluqs06Jmf6IiW",
      "types": [
        "subpremise"
      ]
    }
  ],
  "licno": "2218807190",
  "timestamp": 1564968756,
  "version": "1564966095"
}
