{
  "adr_en": "SAMSEN, SHOPS 03-04, G/F., 64-70A STONE NULLAH LANE, WAN CHAI, HONG KONG",
  "adr_tc": "\u9999\u6e2f\u7063\u4ed4\u77f3\u6c34\u6e20\u885764-70A\u865f\u5730\u4e0b03-04\u865f\u92ea SAMSEN",
  "geocode_en": [
    {
      "address_components": [
        {
          "long_name": "68",
          "short_name": "68",
          "types": [
            "street_number"
          ]
        },
        {
          "long_name": "Stone Nullah Lane",
          "short_name": "Stone Nullah Ln",
          "types": [
            "route"
          ]
        },
        {
          "long_name": "Wan Chai",
          "short_name": "Wan Chai",
          "types": [
            "neighborhood",
            "political"
          ]
        },
        {
          "long_name": "Hong Kong Island",
          "short_name": "Hong Kong Island",
          "types": [
            "administrative_area_level_1",
            "political"
          ]
        },
        {
          "long_name": "Hong Kong",
          "short_name": "HK",
          "types": [
            "country",
            "political"
          ]
        }
      ],
      "formatted_address": "68 Stone Nullah Ln, Wan Chai, Hong Kong",
      "geometry": {
        "location": {
          "lat": 22.274208,
          "lng": 114.174143
        },
        "location_type": "ROOFTOP",
        "viewport": {
          "northeast": {
            "lat": 22.2755569802915,
            "lng": 114.1754919802915
          },
          "southwest": {
            "lat": 22.2728590197085,
            "lng": 114.1727940197085
          }
        }
      },
      "partial_match": true,
      "place_id": "ChIJvYK0qEQABDQRAiM3ui4qdF8",
      "plus_code": {
        "compound_code": "75FF+MM Wan Chai, Hong Kong",
        "global_code": "7PJP75FF+MM"
      },
      "types": [
        "establishment",
        "food",
        "point_of_interest",
        "restaurant"
      ]
    },
    {
      "address_components": [
        {
          "long_name": "G",
          "short_name": "G",
          "types": [
            "subpremise"
          ]
        },
        {
          "long_name": "Fu Lok Building",
          "short_name": "Fu Lok Building",
          "types": [
            "premise"
          ]
        },
        {
          "long_name": "64-70A",
          "short_name": "64-70A",
          "types": [
            "street_number"
          ]
        },
        {
          "long_name": "Stone Nullah Lane",
          "short_name": "Stone Nullah Ln",
          "types": [
            "route"
          ]
        },
        {
          "long_name": "Wan Chai",
          "short_name": "Wan Chai",
          "types": [
            "neighborhood",
            "political"
          ]
        },
        {
          "long_name": "Hong Kong Island",
          "short_name": "Hong Kong Island",
          "types": [
            "administrative_area_level_1",
            "political"
          ]
        },
        {
          "long_name": "Hong Kong",
          "short_name": "HK",
          "types": [
            "country",
            "political"
          ]
        }
      ],
      "formatted_address": "G, Fu Lok Building, 64-70A Stone Nullah Ln, Wan Chai, Hong Kong",
      "geometry": {
        "bounds": {
          "northeast": {
            "lat": 22.274186,
            "lng": 114.174209
          },
          "southwest": {
            "lat": 22.274091,
            "lng": 114.1740829
          }
        },
        "location": {
          "lat": 22.274152,
          "lng": 114.1741485
        },
        "location_type": "ROOFTOP",
        "viewport": {
          "northeast": {
            "lat": 22.2754874802915,
            "lng": 114.1754949302915
          },
          "southwest": {
            "lat": 22.2727895197085,
            "lng": 114.1727969697085
          }
        }
      },
      "partial_match": true,
      "place_id": "Ej9HLCBGdSBMb2sgQnVpbGRpbmcsIDY0LTcwQSBTdG9uZSBOdWxsYWggTG4sIFdhbiBDaGFpLCBIb25nIEtvbmciHRobChYKFAoSCcPPaK9EAAQ0ETqJATZoUFUuEgFH",
      "types": [
        "subpremise"
      ]
    },
    {
      "address_components": [
        {
          "long_name": "F",
          "short_name": "F",
          "types": [
            "subpremise"
          ]
        },
        {
          "long_name": "Fu Lok Building",
          "short_name": "Fu Lok Building",
          "types": [
            "premise"
          ]
        },
        {
          "long_name": "64-70A",
          "short_name": "64-70A",
          "types": [
            "street_number"
          ]
        },
        {
          "long_name": "Stone Nullah Lane",
          "short_name": "Stone Nullah Ln",
          "types": [
            "route"
          ]
        },
        {
          "long_name": "Wan Chai",
          "short_name": "Wan Chai",
          "types": [
            "neighborhood",
            "political"
          ]
        },
        {
          "long_name": "Hong Kong Island",
          "short_name": "Hong Kong Island",
          "types": [
            "administrative_area_level_1",
            "political"
          ]
        },
        {
          "long_name": "Hong Kong",
          "short_name": "HK",
          "types": [
            "country",
            "political"
          ]
        }
      ],
      "formatted_address": "F, Fu Lok Building, 64-70A Stone Nullah Ln, Wan Chai, Hong Kong",
      "geometry": {
        "bounds": {
          "northeast": {
            "lat": 22.274186,
            "lng": 114.174209
          },
          "southwest": {
            "lat": 22.274091,
            "lng": 114.1740829
          }
        },
        "location": {
          "lat": 22.274152,
          "lng": 114.1741485
        },
        "location_type": "ROOFTOP",
        "viewport": {
          "northeast": {
            "lat": 22.2754874802915,
            "lng": 114.1754949302915
          },
          "southwest": {
            "lat": 22.2727895197085,
            "lng": 114.1727969697085
          }
        }
      },
      "partial_match": true,
      "place_id": "Ej9GLCBGdSBMb2sgQnVpbGRpbmcsIDY0LTcwQSBTdG9uZSBOdWxsYWggTG4sIFdhbiBDaGFpLCBIb25nIEtvbmciHRobChYKFAoSCcPPaK9EAAQ0ETqJATZoUFUuEgFG",
      "types": [
        "subpremise"
      ]
    }
  ],
  "geocode_tc": [
    {
      "address_components": [
        {
          "long_name": "\u5730\u4e0b03-04\u865f",
          "short_name": "\u5730\u4e0b03-04\u865f",
          "types": [
            "subpremise"
          ]
        },
        {
          "long_name": "\u5bcc\u6a02\u6a13",
          "short_name": "\u5bcc\u6a02\u6a13",
          "types": [
            "premise"
          ]
        },
        {
          "long_name": "64-70A",
          "short_name": "64-70A",
          "types": [
            "street_number"
          ]
        },
        {
          "long_name": "\u77f3\u6c34\u6e20\u8857",
          "short_name": "\u77f3\u6c34\u6e20\u8857",
          "types": [
            "route"
          ]
        },
        {
          "long_name": "\u7063\u4ed4",
          "short_name": "\u7063\u4ed4",
          "types": [
            "neighborhood",
            "political"
          ]
        },
        {
          "long_name": "\u9999\u6e2f\u5cf6",
          "short_name": "\u9999\u6e2f\u5cf6",
          "types": [
            "administrative_area_level_1",
            "political"
          ]
        },
        {
          "long_name": "\u9999\u6e2f",
          "short_name": "HK",
          "types": [
            "country",
            "political"
          ]
        }
      ],
      "formatted_address": "\u9999\u6e2f\u7063\u4ed4\u77f3\u6c34\u6e20\u885764-70A\u865f\u5bcc\u6a02\u6a13\u5730\u4e0b03-04\u865f",
      "geometry": {
        "bounds": {
          "northeast": {
            "lat": 22.274186,
            "lng": 114.174209
          },
          "southwest": {
            "lat": 22.274091,
            "lng": 114.1740829
          }
        },
        "location": {
          "lat": 22.274152,
          "lng": 114.1741485
        },
        "location_type": "ROOFTOP",
        "viewport": {
          "northeast": {
            "lat": 22.2754874802915,
            "lng": 114.1754949302915
          },
          "southwest": {
            "lat": 22.2727895197085,
            "lng": 114.1727969697085
          }
        }
      },
      "partial_match": true,
      "place_id": "EkzlnLDkuIswMy0wNOiZnywgRnUgTG9rIEJ1aWxkaW5nLCA2NC03MEEgU3RvbmUgTnVsbGFoIExuLCBXYW4gQ2hhaSwgSG9uZyBLb25nIioaKAoWChQKEgnDz2ivRAAENBE6iQE2aFBVLhIO5Zyw5LiLMDMtMDTomZ8",
      "types": [
        "subpremise"
      ]
    },
    {
      "address_components": [
        {
          "long_name": "68",
          "short_name": "68",
          "types": [
            "street_number"
          ]
        },
        {
          "long_name": "\u77f3\u6c34\u6e20\u8857",
          "short_name": "\u77f3\u6c34\u6e20\u8857",
          "types": [
            "route"
          ]
        },
        {
          "long_name": "\u7063\u4ed4",
          "short_name": "\u7063\u4ed4",
          "types": [
            "neighborhood",
            "political"
          ]
        },
        {
          "long_name": "\u9999\u6e2f\u5cf6",
          "short_name": "\u9999\u6e2f\u5cf6",
          "types": [
            "administrative_area_level_1",
            "political"
          ]
        },
        {
          "long_name": "\u9999\u6e2f",
          "short_name": "HK",
          "types": [
            "country",
            "political"
          ]
        }
      ],
      "formatted_address": "\u9999\u6e2f\u7063\u4ed4\u77f3\u6c34\u6e20\u885768\u865f",
      "geometry": {
        "location": {
          "lat": 22.274208,
          "lng": 114.174143
        },
        "location_type": "ROOFTOP",
        "viewport": {
          "northeast": {
            "lat": 22.2755569802915,
            "lng": 114.1754919802915
          },
          "southwest": {
            "lat": 22.2728590197085,
            "lng": 114.1727940197085
          }
        }
      },
      "partial_match": true,
      "place_id": "ChIJvYK0qEQABDQRAiM3ui4qdF8",
      "plus_code": {
        "compound_code": "75FF+MM \u9999\u6e2f\u7063\u4ed4",
        "global_code": "7PJP75FF+MM"
      },
      "types": [
        "establishment",
        "food",
        "point_of_interest",
        "restaurant"
      ]
    }
  ],
  "licno": "2212813559",
  "timestamp": 1564966180,
  "version": "1564966095"
}
