{
  "adr_en": "\u65b0\u6fe0\u8336\u9910\u5ef3, LEVEL 1, TPTL 10, SHOP 16 (MAJOR PORTION) & 22, TAI PO PLAZA, 1 ON TAI ROAD, TAI PO, NEW TERRITORIES",
  "adr_tc": "\u65b0\u754c\u5927\u57d4\u5927\u57d4\u5e02\u5730\u6bb5\u7b2c10\u865f\u5b89\u6cf0\u8def1\u865f\u5927\u57d4\u5ee3\u58341\u5c64 16\u865f\u8216(\u5927\u90e8\u4efd)\u53ca22\u865f\u8216 \u65b0\u6fe0\u8336\u9910\u5ef3",
  "geocode_en": [
    {
      "address_components": [
        {
          "long_name": "Hong Kong",
          "short_name": "HK",
          "types": [
            "country",
            "political"
          ]
        }
      ],
      "formatted_address": "Hong Kong, \u5927\u57d4\u5b89\u6cf0\u8def1\u865f\u5927\u57d4\u5ee3\u583410\u865f\u5730\u4e0b",
      "geometry": {
        "location": {
          "lat": 22.4532031,
          "lng": 114.1698415
        },
        "location_type": "GEOMETRIC_CENTER",
        "viewport": {
          "northeast": {
            "lat": 22.4545520802915,
            "lng": 114.1711904802915
          },
          "southwest": {
            "lat": 22.4518541197085,
            "lng": 114.1684925197085
          }
        }
      },
      "partial_match": true,
      "place_id": "ChIJP141zkcIBDQR862hDLbq6Iw",
      "plus_code": {
        "compound_code": "F539+7W Hong Kong",
        "global_code": "7PJPF539+7W"
      },
      "types": [
        "establishment",
        "food",
        "point_of_interest",
        "restaurant"
      ]
    },
    {
      "address_components": [
        {
          "long_name": "1",
          "short_name": "1",
          "types": [
            "street_number"
          ]
        },
        {
          "long_name": "On Tai Road",
          "short_name": "On Tai Rd",
          "types": [
            "route"
          ]
        },
        {
          "long_name": "Tai Po",
          "short_name": "Tai Po",
          "types": [
            "neighborhood",
            "political"
          ]
        },
        {
          "long_name": "Hong Kong",
          "short_name": "HK",
          "types": [
            "country",
            "political"
          ]
        }
      ],
      "formatted_address": "\u865f, 1 On Tai Rd, Tai Po, Hong Kong",
      "geometry": {
        "location": {
          "lat": 22.452909,
          "lng": 114.170445
        },
        "location_type": "ROOFTOP",
        "viewport": {
          "northeast": {
            "lat": 22.4542579802915,
            "lng": 114.1717939802915
          },
          "southwest": {
            "lat": 22.4515600197085,
            "lng": 114.1690960197085
          }
        }
      },
      "partial_match": true,
      "place_id": "ChIJE6t3zEcIBDQRkNUH-YsXl5s",
      "plus_code": {
        "compound_code": "F53C+55 Hong Kong",
        "global_code": "7PJPF53C+55"
      },
      "types": [
        "establishment",
        "point_of_interest"
      ]
    }
  ],
  "geocode_tc": [
    {
      "address_components": [
        {
          "long_name": "1",
          "short_name": "1",
          "types": [
            "street_number"
          ]
        },
        {
          "long_name": "On Tai Road",
          "short_name": "On Tai Rd",
          "types": [
            "route"
          ]
        },
        {
          "long_name": "Tai Po",
          "short_name": "Tai Po",
          "types": [
            "neighborhood",
            "political"
          ]
        },
        {
          "long_name": "\u9999\u6e2f",
          "short_name": "HK",
          "types": [
            "country",
            "political"
          ]
        }
      ],
      "formatted_address": "\u865f, 1 On Tai Rd, Tai Po, \u9999\u6e2f",
      "geometry": {
        "location": {
          "lat": 22.452909,
          "lng": 114.170445
        },
        "location_type": "ROOFTOP",
        "viewport": {
          "northeast": {
            "lat": 22.4542579802915,
            "lng": 114.1717939802915
          },
          "southwest": {
            "lat": 22.4515600197085,
            "lng": 114.1690960197085
          }
        }
      },
      "partial_match": true,
      "place_id": "ChIJE6t3zEcIBDQRkNUH-YsXl5s",
      "plus_code": {
        "compound_code": "F53C+55 \u9999\u6e2f",
        "global_code": "7PJPF53C+55"
      },
      "types": [
        "establishment",
        "point_of_interest"
      ]
    },
    {
      "address_components": [
        {
          "long_name": "\u8def\u6c39\u9023\u8cab\u516c\u8def",
          "short_name": "\u8def\u6c39\u9023\u8cab\u516c\u8def",
          "types": [
            "route"
          ]
        },
        {
          "long_name": "\u6fb3\u9580",
          "short_name": "MO",
          "types": [
            "country",
            "political"
          ]
        }
      ],
      "formatted_address": "\u6fb3\u9580\u8def\u6c39\u9023\u8cab\u516c\u8def",
      "geometry": {
        "location": {
          "lat": 22.1410008,
          "lng": 113.5613681
        },
        "location_type": "GEOMETRIC_CENTER",
        "viewport": {
          "northeast": {
            "lat": 22.1423497802915,
            "lng": 113.5627170802915
          },
          "southwest": {
            "lat": 22.1396518197085,
            "lng": 113.5600191197085
          }
        }
      },
      "partial_match": true,
      "place_id": "ChIJO2fDrhBwATQR_U0a7WrxtcA",
      "plus_code": {
        "compound_code": "4HR6+CG \u6fb3\u9580\u8def\u6c39\u57ce",
        "global_code": "7PJM4HR6+CG"
      },
      "types": [
        "establishment",
        "lodging",
        "point_of_interest"
      ]
    }
  ],
  "licno": "2295000136",
  "timestamp": 1564975666,
  "version": "1564966095"
}
