{
  "adr_en": "SORA, G/F, FOO HOO CENTRE, 3 AUSTIN AVENUE, TSIM SHA TSUI, KOWLOON",
  "adr_tc": "\u4e5d\u9f8d\u5c16\u6c99\u5480\u67ef\u58eb\u7538\u8def3\u865f\u5bcc\u597d\u4e2d\u5fc3\u5730\u4e0b \u7a7a",
  "geocode_en": [
    {
      "address_components": [
        {
          "long_name": "3",
          "short_name": "3",
          "types": [
            "street_number"
          ]
        },
        {
          "long_name": "Austin Avenue",
          "short_name": "Austin Ave",
          "types": [
            "route"
          ]
        },
        {
          "long_name": "Tsim Sha Tsui",
          "short_name": "Tsim Sha Tsui",
          "types": [
            "neighborhood",
            "political"
          ]
        },
        {
          "long_name": "Kowloon",
          "short_name": "Kowloon",
          "types": [
            "administrative_area_level_1",
            "political"
          ]
        },
        {
          "long_name": "Hong Kong",
          "short_name": "HK",
          "types": [
            "country",
            "political"
          ]
        }
      ],
      "formatted_address": "3 Austin Ave, Tsim Sha Tsui, Hong Kong",
      "geometry": {
        "location": {
          "lat": 22.3019939,
          "lng": 114.176192
        },
        "location_type": "ROOFTOP",
        "viewport": {
          "northeast": {
            "lat": 22.3033428802915,
            "lng": 114.1775409802915
          },
          "southwest": {
            "lat": 22.3006449197085,
            "lng": 114.1748430197085
          }
        }
      },
      "partial_match": true,
      "place_id": "ChIJE-JSRW0BBDQRgftpb6_1vPM",
      "plus_code": {
        "compound_code": "852G+QF Tsim Sha Tsui, Hong Kong",
        "global_code": "7PJP852G+QF"
      },
      "types": [
        "establishment",
        "food",
        "point_of_interest",
        "restaurant"
      ]
    }
  ],
  "geocode_tc": [
    {
      "address_components": [
        {
          "long_name": "\u5bcc\u597d\u4e2d\u5fc3",
          "short_name": "\u5bcc\u597d\u4e2d\u5fc3",
          "types": [
            "premise"
          ]
        },
        {
          "long_name": "3",
          "short_name": "3",
          "types": [
            "street_number"
          ]
        },
        {
          "long_name": "\u67ef\u58eb\u7538\u8def",
          "short_name": "\u67ef\u58eb\u7538\u8def",
          "types": [
            "route"
          ]
        },
        {
          "long_name": "\u5c16\u6c99\u5480",
          "short_name": "\u5c16\u6c99\u5480",
          "types": [
            "neighborhood",
            "political"
          ]
        },
        {
          "long_name": "\u4e5d\u9f8d",
          "short_name": "\u4e5d\u9f8d",
          "types": [
            "administrative_area_level_1",
            "political"
          ]
        },
        {
          "long_name": "\u9999\u6e2f",
          "short_name": "HK",
          "types": [
            "country",
            "political"
          ]
        }
      ],
      "formatted_address": "\u9999\u6e2f\u5c16\u6c99\u5480\u67ef\u58eb\u7538\u8def3\u865f\u5bcc\u597d\u4e2d\u5fc3",
      "geometry": {
        "bounds": {
          "northeast": {
            "lat": 22.30206,
            "lng": 114.176279
          },
          "southwest": {
            "lat": 22.3018879,
            "lng": 114.1761051
          }
        },
        "location": {
          "lat": 22.3019939,
          "lng": 114.176192
        },
        "location_type": "ROOFTOP",
        "viewport": {
          "northeast": {
            "lat": 22.3033229302915,
            "lng": 114.1775410302915
          },
          "southwest": {
            "lat": 22.3006249697085,
            "lng": 114.1748430697085
          }
        }
      },
      "place_id": "ChIJ2alc0e4ABDQRFvEVIhsH9YY",
      "types": [
        "premise"
      ]
    }
  ],
  "licno": "2261813955",
  "timestamp": 1564968756,
  "version": "1564966095"
}
