{
  "adr_en": "Pepper Lunch, SHOP 202, 2/F, ONE PACIFIC CENTRE, 414 KWUN TONG ROAD, KWUN TONG, KOWLOON",
  "adr_tc": "\u4e5d\u9f8d\u89c0\u5858\u89c0\u5858\u9053414\u865fONE PACIFIC CENTRE 2\u6a13202\u865f\u8216 \u80e1\u6912\u5eda\u623f",
  "geocode_en": [
    {
      "address_components": [
        {
          "long_name": "One Pacific Centre",
          "short_name": "One Pacific Centre",
          "types": [
            "premise"
          ]
        },
        {
          "long_name": "Kwun Tong",
          "short_name": "Kwun Tong",
          "types": [
            "neighborhood",
            "political"
          ]
        },
        {
          "long_name": "Kowloon",
          "short_name": "Kowloon",
          "types": [
            "administrative_area_level_1",
            "political"
          ]
        },
        {
          "long_name": "Hong Kong",
          "short_name": "HK",
          "types": [
            "country",
            "political"
          ]
        }
      ],
      "formatted_address": "One Pacific Centre, Kwun Tong, Hong Kong",
      "geometry": {
        "bounds": {
          "northeast": {
            "lat": 22.3127266,
            "lng": 114.2259046
          },
          "southwest": {
            "lat": 22.3115425,
            "lng": 114.2243654
          }
        },
        "location": {
          "lat": 22.3122535,
          "lng": 114.2251183
        },
        "location_type": "ROOFTOP",
        "viewport": {
          "northeast": {
            "lat": 22.3134835302915,
            "lng": 114.2264839802915
          },
          "southwest": {
            "lat": 22.31078556970849,
            "lng": 114.2237860197085
          }
        }
      },
      "partial_match": true,
      "place_id": "ChIJU-DInk8BBDQRYSTouFtkh4Y",
      "types": [
        "premise"
      ]
    }
  ],
  "geocode_tc": [
    {
      "address_components": [
        {
          "long_name": "\u9999\u6e2f",
          "short_name": "HK",
          "types": [
            "country",
            "political"
          ]
        }
      ],
      "formatted_address": "\u9999\u6e2f\u89c0\u5858 \u89c0\u5858\u9053414\u865fOne Pacific Centre 3\u6a13303\u865f\u8216",
      "geometry": {
        "location": {
          "lat": 22.3127295,
          "lng": 114.2246275
        },
        "location_type": "GEOMETRIC_CENTER",
        "viewport": {
          "northeast": {
            "lat": 22.3140784802915,
            "lng": 114.2259764802915
          },
          "southwest": {
            "lat": 22.3113805197085,
            "lng": 114.2232785197085
          }
        }
      },
      "place_id": "ChIJh7ShoU8BBDQRfpu4IxouRh4",
      "plus_code": {
        "compound_code": "867F+3V \u9999\u6e2f",
        "global_code": "7PJP867F+3V"
      },
      "types": [
        "establishment",
        "food",
        "point_of_interest",
        "restaurant"
      ]
    }
  ],
  "licno": "2251803775",
  "timestamp": 1564968756,
  "version": "1564966095"
}
