{
  "adr_en": "\u8b5a\u4ed4\u96f2\u5357\u7c73\u7dda, MAJOR PORTIONS OF SHOP 213, 2/F, KWUN TONG PLAZA, 68 HOI YUEN ROAD, KWUN TONG, KOWLOON",
  "adr_tc": "\u4e5d\u9f8d\u89c0\u5858\u958b\u6e90\u905368\u865f\u89c0\u5858\u5ee3\u58342\u6a13213\u865f\u92ea\u4e3b\u8981\u90e8\u5206 \u8b5a\u4ed4\u96f2\u5357\u7c73\u7dda",
  "geocode_en": [
    {
      "address_components": [
        {
          "long_name": "SHOP 213",
          "short_name": "SHOP 213",
          "types": [
            "subpremise"
          ]
        },
        {
          "long_name": "Kwun Tong Plaza",
          "short_name": "Kwun Tong Plaza",
          "types": [
            "premise"
          ]
        },
        {
          "long_name": "68",
          "short_name": "68",
          "types": [
            "street_number"
          ]
        },
        {
          "long_name": "Hoi Yuen Road",
          "short_name": "Hoi Yuen Rd",
          "types": [
            "route"
          ]
        },
        {
          "long_name": "Kwun Tong",
          "short_name": "Kwun Tong",
          "types": [
            "neighborhood",
            "political"
          ]
        },
        {
          "long_name": "Kowloon",
          "short_name": "Kowloon",
          "types": [
            "administrative_area_level_1",
            "political"
          ]
        },
        {
          "long_name": "Hong Kong",
          "short_name": "HK",
          "types": [
            "country",
            "political"
          ]
        }
      ],
      "formatted_address": "SHOP 213, Kwun Tong Plaza, 68 Hoi Yuen Rd, Kwun Tong, Hong Kong",
      "geometry": {
        "bounds": {
          "northeast": {
            "lat": 22.3114619,
            "lng": 114.226343
          },
          "southwest": {
            "lat": 22.31089,
            "lng": 114.2256951
          }
        },
        "location": {
          "lat": 22.3111987,
          "lng": 114.2260006
        },
        "location_type": "ROOFTOP",
        "viewport": {
          "northeast": {
            "lat": 22.3125249302915,
            "lng": 114.2273680302915
          },
          "southwest": {
            "lat": 22.3098269697085,
            "lng": 114.2246700697085
          }
        }
      },
      "partial_match": true,
      "place_id": "Ej9TSE9QIDIxMywgS3d1biBUb25nIFBsYXphLCA2OCBIb2kgWXVlbiBSZCwgS3d1biBUb25nLCBIb25nIEtvbmciJBoiChYKFAoSCeW2Tl9FAQQ0EUSQENmGl_vvEghTSE9QIDIxMw",
      "types": [
        "subpremise"
      ]
    },
    {
      "address_components": [
        {
          "long_name": "Kwun Tong Plaza",
          "short_name": "Kwun Tong Plaza",
          "types": [
            "premise"
          ]
        },
        {
          "long_name": "68",
          "short_name": "68",
          "types": [
            "street_number"
          ]
        },
        {
          "long_name": "Hoi Yuen Road",
          "short_name": "Hoi Yuen Rd",
          "types": [
            "route"
          ]
        },
        {
          "long_name": "Kwun Tong",
          "short_name": "Kwun Tong",
          "types": [
            "neighborhood",
            "political"
          ]
        },
        {
          "long_name": "Kowloon",
          "short_name": "Kowloon",
          "types": [
            "administrative_area_level_1",
            "political"
          ]
        },
        {
          "long_name": "Hong Kong",
          "short_name": "HK",
          "types": [
            "country",
            "political"
          ]
        }
      ],
      "formatted_address": "Kwun Tong Plaza, 68 Hoi Yuen Rd, Kwun Tong, Hong Kong",
      "geometry": {
        "bounds": {
          "northeast": {
            "lat": 22.3114619,
            "lng": 114.226343
          },
          "southwest": {
            "lat": 22.31089,
            "lng": 114.2256951
          }
        },
        "location": {
          "lat": 22.3111987,
          "lng": 114.2260006
        },
        "location_type": "ROOFTOP",
        "viewport": {
          "northeast": {
            "lat": 22.3125249302915,
            "lng": 114.2273680302915
          },
          "southwest": {
            "lat": 22.3098269697085,
            "lng": 114.2246700697085
          }
        }
      },
      "partial_match": true,
      "place_id": "ChIJ5bZOX0UBBDQRRJAQ2YaX--8",
      "types": [
        "premise"
      ]
    }
  ],
  "geocode_tc": [
    {
      "address_components": [
        {
          "long_name": "\u89c0\u5858",
          "short_name": "\u89c0\u5858",
          "types": [
            "neighborhood",
            "political"
          ]
        },
        {
          "long_name": "\u4e5d\u9f8d",
          "short_name": "\u4e5d\u9f8d",
          "types": [
            "administrative_area_level_1",
            "political"
          ]
        },
        {
          "long_name": "\u9999\u6e2f",
          "short_name": "HK",
          "types": [
            "country",
            "political"
          ]
        }
      ],
      "formatted_address": "\u9999\u6e2f\u89c0\u5858\u89c0\u5858\u958b\u6e90\u905368\u865f\u89c0\u5858\u5ee3\u58342\u6a13213\u865f\u92ea",
      "geometry": {
        "location": {
          "lat": 22.311161,
          "lng": 114.2260002
        },
        "location_type": "GEOMETRIC_CENTER",
        "viewport": {
          "northeast": {
            "lat": 22.3125099802915,
            "lng": 114.2273491802915
          },
          "southwest": {
            "lat": 22.3098120197085,
            "lng": 114.2246512197085
          }
        }
      },
      "place_id": "ChIJ2a6C2E4BBDQRxSnzvL8Nnuo",
      "types": [
        "establishment",
        "food",
        "point_of_interest",
        "restaurant"
      ]
    }
  ],
  "licno": "2251806288",
  "timestamp": 1564968756,
  "version": "1564966095"
}
