{
  "adr_en": "\u540d\u9580\u6d77\u9bae\u706b\u934b, SHOP NO. 1-4, G/F, FREE STANDING BLOCK 1, SAM SHING ESTATE, TUEN MUN, NEW TERRITORIES",
  "adr_tc": "\u65b0\u754c\u5c6f\u9580\u4e09\u8056\u90a8\u7368\u7acb\u4ead\u7b2c1\u5ea7\u5730\u4e0b1-4\u865f\u92ea \u540d\u9580\u6d77\u9bae\u706b\u934b",
  "geocode_en": [
    {
      "address_components": [
        {
          "long_name": "Hong Kong",
          "short_name": "HK",
          "types": [
            "country",
            "political"
          ]
        }
      ],
      "formatted_address": "Shop No. 1-4, G/F, Free Standing Block 1, Sam Shing Estate, Tuen Mun, New Territories, Hong Kong",
      "geometry": {
        "location": {
          "lat": 22.380477,
          "lng": 113.978465
        },
        "location_type": "GEOMETRIC_CENTER",
        "viewport": {
          "northeast": {
            "lat": 22.38182598029151,
            "lng": 113.9798139802915
          },
          "southwest": {
            "lat": 22.3791280197085,
            "lng": 113.9771160197085
          }
        }
      },
      "place_id": "ChIJH2gTZGr7AzQRTDNaLakzySQ",
      "plus_code": {
        "compound_code": "9XJH+59 Hong Kong",
        "global_code": "7PJM9XJH+59"
      },
      "types": [
        "establishment",
        "food",
        "point_of_interest",
        "restaurant"
      ]
    }
  ],
  "geocode_tc": [
    {
      "address_components": [
        {
          "long_name": "\u5c6f\u9580",
          "short_name": "\u5c6f\u9580",
          "types": [
            "neighborhood",
            "political"
          ]
        },
        {
          "long_name": "\u65b0\u754c",
          "short_name": "\u65b0\u754c",
          "types": [
            "administrative_area_level_1",
            "political"
          ]
        },
        {
          "long_name": "\u9999\u6e2f",
          "short_name": "HK",
          "types": [
            "country",
            "political"
          ]
        }
      ],
      "formatted_address": "\u9999\u6e2f\u5c6f\u9580\u65b0\u589f 1/F, Fung Yu House, Sam Shing Estate",
      "geometry": {
        "location": {
          "lat": 22.381318,
          "lng": 113.9779241
        },
        "location_type": "GEOMETRIC_CENTER",
        "viewport": {
          "northeast": {
            "lat": 22.3826669802915,
            "lng": 113.9792730802915
          },
          "southwest": {
            "lat": 22.3799690197085,
            "lng": 113.9765751197085
          }
        }
      },
      "partial_match": true,
      "place_id": "ChIJSwqehmr7AzQRD0mvtESEGJ8",
      "plus_code": {
        "compound_code": "9XJH+G5 \u9999\u6e2f",
        "global_code": "7PJM9XJH+G5"
      },
      "types": [
        "establishment",
        "point_of_interest"
      ]
    }
  ],
  "licno": "2293801492",
  "timestamp": 1564968756,
  "version": "1564966095"
}
