{
  "adr_en": "The Hangout Corner, SHOP 2, G/F., PO HING COURT, 10-18 PO HING FONG, SHEUNG WAN, HONG KONG",
  "adr_tc": "\u9999\u6e2f\u4e0a\u74b0\u666e\u6176\u574a10-18\u865f\u666e\u6176\u95a3\u5730\u4e0b2\u865f\u8216 \u6211\u611b\u6162\u716e",
  "geocode_en": [
    {
      "address_components": [
        {
          "long_name": "10",
          "short_name": "10",
          "types": [
            "subpremise"
          ]
        },
        {
          "long_name": "18",
          "short_name": "18",
          "types": [
            "street_number"
          ]
        },
        {
          "long_name": "Po Hing Fong",
          "short_name": "Po Hing Fong",
          "types": [
            "route"
          ]
        },
        {
          "long_name": "Sheung Wan",
          "short_name": "Sheung Wan",
          "types": [
            "neighborhood",
            "political"
          ]
        },
        {
          "long_name": "Hong Kong Island",
          "short_name": "Hong Kong Island",
          "types": [
            "administrative_area_level_1",
            "political"
          ]
        },
        {
          "long_name": "Hong Kong",
          "short_name": "HK",
          "types": [
            "country",
            "political"
          ]
        }
      ],
      "formatted_address": "10, 18 Po Hing Fong, Sheung Wan, Hong Kong",
      "geometry": {
        "location": {
          "lat": 22.284595,
          "lng": 114.147215
        },
        "location_type": "ROOFTOP",
        "viewport": {
          "northeast": {
            "lat": 22.2859439802915,
            "lng": 114.1485639802915
          },
          "southwest": {
            "lat": 22.2832460197085,
            "lng": 114.1458660197085
          }
        }
      },
      "partial_match": true,
      "place_id": "ChIJhcIErjIBBDQRWQHKncoPbDM",
      "plus_code": {
        "compound_code": "74MW+RV Hong Kong",
        "global_code": "7PJP74MW+RV"
      },
      "types": [
        "establishment",
        "food",
        "point_of_interest",
        "restaurant"
      ]
    },
    {
      "address_components": [
        {
          "long_name": "Po Hing Court",
          "short_name": "Po Hing Court",
          "types": [
            "premise"
          ]
        },
        {
          "long_name": "10-18",
          "short_name": "10-18",
          "types": [
            "street_number"
          ]
        },
        {
          "long_name": "Po Hing Fong",
          "short_name": "Po Hing Fong",
          "types": [
            "route"
          ]
        },
        {
          "long_name": "Tai Ping Shan",
          "short_name": "Tai Ping Shan",
          "types": [
            "neighborhood",
            "political"
          ]
        },
        {
          "long_name": "Hong Kong Island",
          "short_name": "Hong Kong Island",
          "types": [
            "administrative_area_level_1",
            "political"
          ]
        },
        {
          "long_name": "Hong Kong",
          "short_name": "HK",
          "types": [
            "country",
            "political"
          ]
        }
      ],
      "formatted_address": "Po Hing Court, 10-18 Po Hing Fong, Tai Ping Shan, Hong Kong",
      "geometry": {
        "bounds": {
          "northeast": {
            "lat": 22.2847119,
            "lng": 114.147343
          },
          "southwest": {
            "lat": 22.2844979,
            "lng": 114.147101
          }
        },
        "location": {
          "lat": 22.2846264,
          "lng": 114.1472099
        },
        "location_type": "ROOFTOP",
        "viewport": {
          "northeast": {
            "lat": 22.2859538802915,
            "lng": 114.1485709802915
          },
          "southwest": {
            "lat": 22.2832559197085,
            "lng": 114.1458730197085
          }
        }
      },
      "partial_match": true,
      "place_id": "ChIJvdey1H4ABDQRyH1tA5s2ZEo",
      "types": [
        "premise"
      ]
    }
  ],
  "geocode_tc": [
    {
      "address_components": [
        {
          "long_name": "10",
          "short_name": "10",
          "types": [
            "subpremise"
          ]
        },
        {
          "long_name": "18",
          "short_name": "18",
          "types": [
            "street_number"
          ]
        },
        {
          "long_name": "Po Hing Fong",
          "short_name": "Po Hing Fong",
          "types": [
            "route"
          ]
        },
        {
          "long_name": "Sheung Wan",
          "short_name": "Sheung Wan",
          "types": [
            "neighborhood",
            "political"
          ]
        },
        {
          "long_name": "Hong Kong Island",
          "short_name": "Hong Kong Island",
          "types": [
            "administrative_area_level_1",
            "political"
          ]
        },
        {
          "long_name": "\u9999\u6e2f",
          "short_name": "HK",
          "types": [
            "country",
            "political"
          ]
        }
      ],
      "formatted_address": "10, 18 Po Hing Fong, Sheung Wan, \u9999\u6e2f",
      "geometry": {
        "location": {
          "lat": 22.284595,
          "lng": 114.147215
        },
        "location_type": "ROOFTOP",
        "viewport": {
          "northeast": {
            "lat": 22.2859439802915,
            "lng": 114.1485639802915
          },
          "southwest": {
            "lat": 22.2832460197085,
            "lng": 114.1458660197085
          }
        }
      },
      "partial_match": true,
      "place_id": "ChIJhcIErjIBBDQRWQHKncoPbDM",
      "plus_code": {
        "compound_code": "74MW+RV \u9999\u6e2f",
        "global_code": "7PJP74MW+RV"
      },
      "types": [
        "establishment",
        "food",
        "point_of_interest",
        "restaurant"
      ]
    },
    {
      "address_components": [
        {
          "long_name": "\u666e\u6176\u95a3",
          "short_name": "\u666e\u6176\u95a3",
          "types": [
            "premise"
          ]
        },
        {
          "long_name": "10-18",
          "short_name": "10-18",
          "types": [
            "street_number"
          ]
        },
        {
          "long_name": "\u666e\u6176\u574a",
          "short_name": "\u666e\u6176\u574a",
          "types": [
            "route"
          ]
        },
        {
          "long_name": "\u592a\u5e73\u5c71",
          "short_name": "\u592a\u5e73\u5c71",
          "types": [
            "neighborhood",
            "political"
          ]
        },
        {
          "long_name": "\u9999\u6e2f\u5cf6",
          "short_name": "\u9999\u6e2f\u5cf6",
          "types": [
            "administrative_area_level_1",
            "political"
          ]
        },
        {
          "long_name": "\u9999\u6e2f",
          "short_name": "HK",
          "types": [
            "country",
            "political"
          ]
        }
      ],
      "formatted_address": "\u9999\u6e2f\u592a\u5e73\u5c71\u666e\u6176\u574a10-18\u865f\u666e\u6176\u95a3",
      "geometry": {
        "bounds": {
          "northeast": {
            "lat": 22.2847119,
            "lng": 114.147343
          },
          "southwest": {
            "lat": 22.2844979,
            "lng": 114.147101
          }
        },
        "location": {
          "lat": 22.2846264,
          "lng": 114.1472099
        },
        "location_type": "ROOFTOP",
        "viewport": {
          "northeast": {
            "lat": 22.2859538802915,
            "lng": 114.1485709802915
          },
          "southwest": {
            "lat": 22.2832559197085,
            "lng": 114.1458730197085
          }
        }
      },
      "partial_match": true,
      "place_id": "ChIJvdey1H4ABDQRyH1tA5s2ZEo",
      "types": [
        "premise"
      ]
    }
  ],
  "licno": "3918808986",
  "timestamp": 1564975666,
  "version": "1564966095"
}
