{
  "adr_en": "\u9999\u6e2f\u4ed4\u9b5a\u86cb\u7ca5\u9eb5\u5c08\u9580\u5e97, SHOP NO. 103 & SHOP NO. 114, G/F, BLOCK B, I-FENG MANSIONS, NO. 237A TO KWA WAN ROAD, KOWLOON",
  "adr_tc": "\u4e5d\u9f8d\u571f\u74dc\u7063\u9053237A\u865f\u76ca\u8c50\u5927\u5ec8B\u5ea7\u5730\u4e0b103\u53ca114\u865f\u8216 \u9999\u6e2f\u4ed4\u9b5a\u86cb\u7ca5\u9eb5\u5c08\u9580\u5e97",
  "geocode_en": [
    {
      "address_components": [
        {
          "long_name": "I-feng Mansion Block B",
          "short_name": "I-feng Mansion Block B",
          "types": [
            "premise"
          ]
        },
        {
          "long_name": "237A",
          "short_name": "237A",
          "types": [
            "street_number"
          ]
        },
        {
          "long_name": "To Kwa Wan Road",
          "short_name": "To Kwa Wan Rd",
          "types": [
            "route"
          ]
        },
        {
          "long_name": "To Kwa Wan",
          "short_name": "To Kwa Wan",
          "types": [
            "neighborhood",
            "political"
          ]
        },
        {
          "long_name": "Kowloon",
          "short_name": "Kowloon",
          "types": [
            "administrative_area_level_1",
            "political"
          ]
        },
        {
          "long_name": "Hong Kong",
          "short_name": "HK",
          "types": [
            "country",
            "political"
          ]
        }
      ],
      "formatted_address": "I-feng Mansion Block B, 237A To Kwa Wan Rd, To Kwa Wan, Hong Kong",
      "geometry": {
        "bounds": {
          "northeast": {
            "lat": 22.315789,
            "lng": 114.189506
          },
          "southwest": {
            "lat": 22.3152959,
            "lng": 114.1889741
          }
        },
        "location": {
          "lat": 22.3155249,
          "lng": 114.1892195
        },
        "location_type": "ROOFTOP",
        "viewport": {
          "northeast": {
            "lat": 22.3168914302915,
            "lng": 114.1905890302915
          },
          "southwest": {
            "lat": 22.3141934697085,
            "lng": 114.1878910697085
          }
        }
      },
      "partial_match": true,
      "place_id": "ChIJb1dxSNgABDQRxiFzoDDK7TA",
      "types": [
        "premise"
      ]
    }
  ],
  "geocode_tc": [
    {
      "address_components": [
        {
          "long_name": "\u76ca\u8c50\u5927\u5ec8B\u5ea7",
          "short_name": "\u76ca\u8c50\u5927\u5ec8B\u5ea7",
          "types": [
            "premise"
          ]
        },
        {
          "long_name": "237A",
          "short_name": "237A",
          "types": [
            "street_number"
          ]
        },
        {
          "long_name": "\u571f\u74dc\u7063\u9053",
          "short_name": "\u571f\u74dc\u7063\u9053",
          "types": [
            "route"
          ]
        },
        {
          "long_name": "\u571f\u74dc\u7063",
          "short_name": "\u571f\u74dc\u7063",
          "types": [
            "neighborhood",
            "political"
          ]
        },
        {
          "long_name": "\u4e5d\u9f8d",
          "short_name": "\u4e5d\u9f8d",
          "types": [
            "administrative_area_level_1",
            "political"
          ]
        },
        {
          "long_name": "\u9999\u6e2f",
          "short_name": "HK",
          "types": [
            "country",
            "political"
          ]
        }
      ],
      "formatted_address": "\u9999\u6e2f\u571f\u74dc\u7063\u571f\u74dc\u7063\u9053237A\u865f\u76ca\u8c50\u5927\u5ec8B\u5ea7",
      "geometry": {
        "bounds": {
          "northeast": {
            "lat": 22.315789,
            "lng": 114.189506
          },
          "southwest": {
            "lat": 22.3152959,
            "lng": 114.1889741
          }
        },
        "location": {
          "lat": 22.3155249,
          "lng": 114.1892195
        },
        "location_type": "ROOFTOP",
        "viewport": {
          "northeast": {
            "lat": 22.3168914302915,
            "lng": 114.1905890302915
          },
          "southwest": {
            "lat": 22.3141934697085,
            "lng": 114.1878910697085
          }
        }
      },
      "partial_match": true,
      "place_id": "ChIJb1dxSNgABDQRxiFzoDDK7TA",
      "types": [
        "premise"
      ]
    }
  ],
  "licno": "2252803833",
  "timestamp": 1564968756,
  "version": "1564966095"
}
