{
  "adr_en": "Shanghai Lao Lao, SHOP G014 AND G015, GROUND FLOOR, CHUNG FU PLAZA (PHASE 1), TIN CHUNG COURT, 30 TIN WAH ROAD, TIN SHUI WAI, YUEN LONG, NEW TERRITORIES",
  "adr_tc": "\u65b0\u754c\u5143\u6717\u5929\u6c34\u570d\u5929\u83ef\u8def30\u865f\u5929\u980c\u82d1\u980c\u5bcc\u5ee3\u5834 1\u671f\u5730\u4e0bG14\u53caG15\u865f\u92ea \u4e0a\u6d77\u59e5\u59e5",
  "geocode_en": [
    {
      "address_components": [
        {
          "long_name": "22-30",
          "short_name": "22-30",
          "types": [
            "street_number"
          ]
        },
        {
          "long_name": "Paterson Street",
          "short_name": "Paterson St",
          "types": [
            "route"
          ]
        },
        {
          "long_name": "Causeway Bay",
          "short_name": "Causeway Bay",
          "types": [
            "neighborhood",
            "political"
          ]
        },
        {
          "long_name": "Hong Kong Island",
          "short_name": "Hong Kong Island",
          "types": [
            "administrative_area_level_1",
            "political"
          ]
        },
        {
          "long_name": "Hong Kong",
          "short_name": "HK",
          "types": [
            "country",
            "political"
          ]
        }
      ],
      "formatted_address": "22-30 Paterson St, Causeway Bay, Hong Kong",
      "geometry": {
        "location": {
          "lat": 22.2807635,
          "lng": 114.1859078
        },
        "location_type": "ROOFTOP",
        "viewport": {
          "northeast": {
            "lat": 22.2821124802915,
            "lng": 114.1872567802915
          },
          "southwest": {
            "lat": 22.2794145197085,
            "lng": 114.1845588197085
          }
        }
      },
      "partial_match": true,
      "place_id": "ChIJI13UKFQABDQRLKaZxWF3tNY",
      "plus_code": {
        "compound_code": "75JP+89 Hong Kong",
        "global_code": "7PJP75JP+89"
      },
      "types": [
        "establishment",
        "food",
        "point_of_interest",
        "restaurant"
      ]
    },
    {
      "address_components": [
        {
          "long_name": "30",
          "short_name": "30",
          "types": [
            "street_number"
          ]
        },
        {
          "long_name": "Tin Wah Road",
          "short_name": "Tin Wah Rd",
          "types": [
            "route"
          ]
        },
        {
          "long_name": "Tin Shui Wai",
          "short_name": "Tin Shui Wai",
          "types": [
            "neighborhood",
            "political"
          ]
        },
        {
          "long_name": "New Territories",
          "short_name": "New Territories",
          "types": [
            "administrative_area_level_1",
            "political"
          ]
        },
        {
          "long_name": "Hong Kong",
          "short_name": "HK",
          "types": [
            "country",
            "political"
          ]
        }
      ],
      "formatted_address": "30 Tin Wah Rd, Tin Shui Wai, Hong Kong",
      "geometry": {
        "location": {
          "lat": 22.46157,
          "lng": 113.997453
        },
        "location_type": "ROOFTOP",
        "viewport": {
          "northeast": {
            "lat": 22.4629189802915,
            "lng": 113.9988019802915
          },
          "southwest": {
            "lat": 22.4602210197085,
            "lng": 113.9961040197085
          }
        }
      },
      "partial_match": true,
      "place_id": "ChIJm3tlCGPwAzQR31MVRUytlKk",
      "plus_code": {
        "compound_code": "FX6W+JX Hong Kong",
        "global_code": "7PJMFX6W+JX"
      },
      "types": [
        "establishment",
        "parking",
        "point_of_interest"
      ]
    }
  ],
  "geocode_tc": [
    {
      "address_components": [
        {
          "long_name": "30",
          "short_name": "30",
          "types": [
            "street_number"
          ]
        },
        {
          "long_name": "\u5929\u83ef\u8def",
          "short_name": "\u5929\u83ef\u8def",
          "types": [
            "route"
          ]
        },
        {
          "long_name": "\u5929\u6c34\u570d",
          "short_name": "\u5929\u6c34\u570d",
          "types": [
            "neighborhood",
            "political"
          ]
        },
        {
          "long_name": "\u65b0\u754c",
          "short_name": "\u65b0\u754c",
          "types": [
            "administrative_area_level_1",
            "political"
          ]
        },
        {
          "long_name": "\u9999\u6e2f",
          "short_name": "HK",
          "types": [
            "country",
            "political"
          ]
        }
      ],
      "formatted_address": "\u9999\u6e2f\u5929\u6c34\u570d\u5929\u83ef\u8def30\u865f",
      "geometry": {
        "location": {
          "lat": 22.46157,
          "lng": 113.997453
        },
        "location_type": "ROOFTOP",
        "viewport": {
          "northeast": {
            "lat": 22.4629189802915,
            "lng": 113.9988019802915
          },
          "southwest": {
            "lat": 22.4602210197085,
            "lng": 113.9961040197085
          }
        }
      },
      "partial_match": true,
      "place_id": "ChIJm3tlCGPwAzQR31MVRUytlKk",
      "plus_code": {
        "compound_code": "FX6W+JX \u9999\u6e2f",
        "global_code": "7PJMFX6W+JX"
      },
      "types": [
        "establishment",
        "parking",
        "point_of_interest"
      ]
    },
    {
      "address_components": [
        {
          "long_name": "\u4e0a\u6d77",
          "short_name": "\u4e0a\u6d77",
          "types": [
            "locality",
            "political"
          ]
        },
        {
          "long_name": "\u4e0a\u6d77",
          "short_name": "\u4e0a\u6d77",
          "types": [
            "administrative_area_level_1",
            "political"
          ]
        },
        {
          "long_name": "\u4e2d\u570b",
          "short_name": "CN",
          "types": [
            "country",
            "political"
          ]
        }
      ],
      "formatted_address": "\u4e2d\u570b\u4e0a\u6d77",
      "geometry": {
        "bounds": {
          "northeast": {
            "lat": 31.8727163,
            "lng": 122.2471487
          },
          "southwest": {
            "lat": 30.6755933,
            "lng": 120.8568044
          }
        },
        "location": {
          "lat": 31.230416,
          "lng": 121.473701
        },
        "location_type": "APPROXIMATE",
        "viewport": {
          "northeast": {
            "lat": 31.6688967,
            "lng": 122.1137989
          },
          "southwest": {
            "lat": 30.7798012,
            "lng": 120.8397067
          }
        }
      },
      "partial_match": true,
      "place_id": "ChIJMzz1sUBwsjURoWTDI5QSlQI",
      "types": [
        "locality",
        "political"
      ]
    }
  ],
  "licno": "2294805774",
  "timestamp": 1564975666,
  "version": "1564966095"
}
