{
  "adr_en": "Buddha Lounge, SHOP BASEMENT, AMBER LODGE, 23 HOLLYWOOD ROAD, COCHRANE STREET, CENTRAL, HONG KONG",
  "adr_tc": "\u9999\u6e2f\u8377\u674e\u6d3b\u905323\u865f \u95a3\u9e9f\u8857\u91d1\u73c0\u82d1\u5730\u5eab\u5546\u8216 Buddha Lounge",
  "geocode_en": [
    {
      "address_components": [
        {
          "long_name": "Hong Kong",
          "short_name": "HK",
          "types": [
            "country",
            "political"
          ]
        }
      ],
      "formatted_address": "Hong Kong, \u4e2d\u74b0\u8377\u674e\u6d3b\u905323\u865f\u91d1\u73c0\u82d1LG\u6a13",
      "geometry": {
        "location": {
          "lat": 22.282098,
          "lng": 114.153954
        },
        "location_type": "GEOMETRIC_CENTER",
        "viewport": {
          "northeast": {
            "lat": 22.2834469802915,
            "lng": 114.1553029802915
          },
          "southwest": {
            "lat": 22.28074901970849,
            "lng": 114.1526050197085
          }
        }
      },
      "partial_match": true,
      "place_id": "ChIJL7dZE3sABDQRJAvR7n39zXI",
      "plus_code": {
        "compound_code": "75J3+RH Hong Kong",
        "global_code": "7PJP75J3+RH"
      },
      "types": [
        "bar",
        "establishment",
        "point_of_interest"
      ]
    },
    {
      "address_components": [
        {
          "long_name": "Amber Lodge",
          "short_name": "Amber Lodge",
          "types": [
            "premise"
          ]
        },
        {
          "long_name": "23",
          "short_name": "23",
          "types": [
            "street_number"
          ]
        },
        {
          "long_name": "Hollywood Road",
          "short_name": "Hollywood Rd",
          "types": [
            "route"
          ]
        },
        {
          "long_name": "Central",
          "short_name": "Central",
          "types": [
            "neighborhood",
            "political"
          ]
        },
        {
          "long_name": "Hong Kong Island",
          "short_name": "Hong Kong Island",
          "types": [
            "administrative_area_level_1",
            "political"
          ]
        },
        {
          "long_name": "Hong Kong",
          "short_name": "HK",
          "types": [
            "country",
            "political"
          ]
        }
      ],
      "formatted_address": "Amber Lodge, 23 Hollywood Rd, Central, Hong Kong",
      "geometry": {
        "bounds": {
          "northeast": {
            "lat": 22.282155,
            "lng": 114.154064
          },
          "southwest": {
            "lat": 22.2820489,
            "lng": 114.153933
          }
        },
        "location": {
          "lat": 22.2821206,
          "lng": 114.1539912
        },
        "location_type": "ROOFTOP",
        "viewport": {
          "northeast": {
            "lat": 22.2834509302915,
            "lng": 114.1553474802915
          },
          "southwest": {
            "lat": 22.2807529697085,
            "lng": 114.1526495197085
          }
        }
      },
      "partial_match": true,
      "place_id": "ChIJCWyvFHsABDQRFujCeAM8lCY",
      "types": [
        "premise"
      ]
    }
  ],
  "geocode_tc": [
    {
      "address_components": [
        {
          "long_name": "\u9999\u6e2f",
          "short_name": "HK",
          "types": [
            "country",
            "political"
          ]
        }
      ],
      "formatted_address": "\u9999\u6e2f\u4e2d\u74b0\u8377\u674e\u6d3b\u905323\u865f\u91d1\u73c0\u82d1LG\u6a13",
      "geometry": {
        "location": {
          "lat": 22.282098,
          "lng": 114.153954
        },
        "location_type": "GEOMETRIC_CENTER",
        "viewport": {
          "northeast": {
            "lat": 22.2834469802915,
            "lng": 114.1553029802915
          },
          "southwest": {
            "lat": 22.28074901970849,
            "lng": 114.1526050197085
          }
        }
      },
      "place_id": "ChIJL7dZE3sABDQRJAvR7n39zXI",
      "plus_code": {
        "compound_code": "75J3+RH \u9999\u6e2f",
        "global_code": "7PJP75J3+RH"
      },
      "types": [
        "bar",
        "establishment",
        "point_of_interest"
      ]
    }
  ],
  "licno": "3113159915",
  "timestamp": 1564975666,
  "version": "1564966095"
}
