{
  "adr_en": "Kowloon Restaurant, MAJOR PORTION OF SHOP 7 AND SHOP 8, G/F., OPULENT BUILDING, NO. 396 HENNESSY ROAD, CAUSEWAY BAY, HONG KONG",
  "adr_tc": "\u9999\u6e2f\u9285\u947c\u7063\u8ed2\u5c3c\u8a69\u9053396\u865f\u5fb7\u8208\u5927\u5ec8\u5730\u4e0b7\u865f\u8216(\u5927\u90e8\u5206) \u53ca8\u865f\u8216 \u4e5d\u9f8d\u9910\u5ba4",
  "geocode_en": [
    {
      "address_components": [
        {
          "long_name": "396",
          "short_name": "396",
          "types": [
            "street_number"
          ]
        },
        {
          "long_name": "Hennessy Road",
          "short_name": "Hennessy Rd",
          "types": [
            "route"
          ]
        },
        {
          "long_name": "Wan Chai",
          "short_name": "Wan Chai",
          "types": [
            "neighborhood",
            "political"
          ]
        },
        {
          "long_name": "Hong Kong Island",
          "short_name": "Hong Kong Island",
          "types": [
            "administrative_area_level_1",
            "political"
          ]
        },
        {
          "long_name": "Hong Kong",
          "short_name": "HK",
          "types": [
            "country",
            "political"
          ]
        }
      ],
      "formatted_address": "396 Hennessy Rd, Wan Chai, Hong Kong",
      "geometry": {
        "location": {
          "lat": 22.278736,
          "lng": 114.1803615
        },
        "location_type": "ROOFTOP",
        "viewport": {
          "northeast": {
            "lat": 22.2800849802915,
            "lng": 114.1817104802915
          },
          "southwest": {
            "lat": 22.2773870197085,
            "lng": 114.1790125197085
          }
        }
      },
      "partial_match": true,
      "place_id": "ChIJ24MusFAABDQRHK07B9-VGy0",
      "plus_code": {
        "compound_code": "75HJ+F4 Hong Kong",
        "global_code": "7PJP75HJ+F4"
      },
      "types": [
        "street_address"
      ]
    },
    {
      "address_components": [
        {
          "long_name": "Opulent Building",
          "short_name": "Opulent Building",
          "types": [
            "premise"
          ]
        },
        {
          "long_name": "396-416",
          "short_name": "396-416",
          "types": [
            "street_number"
          ]
        },
        {
          "long_name": "Hennessy Road",
          "short_name": "Hennessy Rd",
          "types": [
            "route"
          ]
        },
        {
          "long_name": "Wan Chai",
          "short_name": "Wan Chai",
          "types": [
            "neighborhood",
            "political"
          ]
        },
        {
          "long_name": "Hong Kong Island",
          "short_name": "Hong Kong Island",
          "types": [
            "administrative_area_level_1",
            "political"
          ]
        },
        {
          "long_name": "Hong Kong",
          "short_name": "HK",
          "types": [
            "country",
            "political"
          ]
        }
      ],
      "formatted_address": "Opulent Building, 396-416 Hennessy Rd, Wan Chai, Hong Kong",
      "geometry": {
        "bounds": {
          "northeast": {
            "lat": 22.2790009,
            "lng": 114.1806341
          },
          "southwest": {
            "lat": 22.278676,
            "lng": 114.1801381
          }
        },
        "location": {
          "lat": 22.2788322,
          "lng": 114.1804185
        },
        "location_type": "ROOFTOP",
        "viewport": {
          "northeast": {
            "lat": 22.2801874302915,
            "lng": 114.1817350802915
          },
          "southwest": {
            "lat": 22.2774894697085,
            "lng": 114.1790371197085
          }
        }
      },
      "partial_match": true,
      "place_id": "ChIJMdctsFAABDQRetZazXGUycM",
      "types": [
        "premise"
      ]
    }
  ],
  "geocode_tc": [
    {
      "address_components": [
        {
          "long_name": "\u53ca8\u865f\u8216",
          "short_name": "\u53ca8\u865f\u8216",
          "types": [
            "subpremise"
          ]
        },
        {
          "long_name": "\u5fb7\u8208\u5927\u5ec8",
          "short_name": "\u5fb7\u8208\u5927\u5ec8",
          "types": [
            "premise"
          ]
        },
        {
          "long_name": "396-416",
          "short_name": "396-416",
          "types": [
            "street_number"
          ]
        },
        {
          "long_name": "\u8ed2\u5c3c\u8a69\u9053",
          "short_name": "\u8ed2\u5c3c\u8a69\u9053",
          "types": [
            "route"
          ]
        },
        {
          "long_name": "\u7063\u4ed4",
          "short_name": "\u7063\u4ed4",
          "types": [
            "neighborhood",
            "political"
          ]
        },
        {
          "long_name": "\u9999\u6e2f\u5cf6",
          "short_name": "\u9999\u6e2f\u5cf6",
          "types": [
            "administrative_area_level_1",
            "political"
          ]
        },
        {
          "long_name": "\u9999\u6e2f",
          "short_name": "HK",
          "types": [
            "country",
            "political"
          ]
        }
      ],
      "formatted_address": "\u9999\u6e2f\u7063\u4ed4\u8ed2\u5c3c\u8a69\u9053396-416\u865f\u5fb7\u8208\u5927\u5ec8\u53ca8\u865f\u8216",
      "geometry": {
        "bounds": {
          "northeast": {
            "lat": 22.2790009,
            "lng": 114.1806341
          },
          "southwest": {
            "lat": 22.278676,
            "lng": 114.1801381
          }
        },
        "location": {
          "lat": 22.2788322,
          "lng": 114.1804185
        },
        "location_type": "ROOFTOP",
        "viewport": {
          "northeast": {
            "lat": 22.2801874302915,
            "lng": 114.1817350802915
          },
          "southwest": {
            "lat": 22.2774894697085,
            "lng": 114.1790371197085
          }
        }
      },
      "partial_match": true,
      "place_id": "Ekblj4o46Jmf6IiWLCBPcHVsZW50IEJ1aWxkaW5nLCAzOTYtNDE2IEhlbm5lc3N5IFJkLCBXYW4gQ2hhaSwgSG9uZyBLb25nIiYaJAoWChQKEgkx1y2wUAAENBF61lrNcZTJwxIK5Y-KOOiZn-iIlg",
      "types": [
        "subpremise"
      ]
    },
    {
      "address_components": [
        {
          "long_name": "\u4e5d\u9f8d",
          "short_name": "\u4e5d\u9f8d",
          "types": [
            "administrative_area_level_1",
            "political"
          ]
        },
        {
          "long_name": "\u9999\u6e2f",
          "short_name": "HK",
          "types": [
            "country",
            "political"
          ]
        }
      ],
      "formatted_address": "\u9999\u6e2f\u4e5d\u9f8d",
      "geometry": {
        "bounds": {
          "northeast": {
            "lat": 22.3726529,
            "lng": 114.2455041
          },
          "southwest": {
            "lat": 22.2858651,
            "lng": 114.121388
          }
        },
        "location": {
          "lat": 22.3185673,
          "lng": 114.1796057
        },
        "location_type": "APPROXIMATE",
        "viewport": {
          "northeast": {
            "lat": 22.3726529,
            "lng": 114.2455041
          },
          "southwest": {
            "lat": 22.2858651,
            "lng": 114.121388
          }
        }
      },
      "partial_match": true,
      "place_id": "ChIJY08J76z4AzQRxALvQEcjed8",
      "types": [
        "administrative_area_level_1",
        "political"
      ]
    }
  ],
  "licno": "2212816071",
  "timestamp": 1564968756,
  "version": "1564966095"
}
