{
  "adr_en": "Rebar, 6/F., YING KONG MANSION, NO. 2-6 YEE WO STREET, CAUSEWAY BAY, HONG KONG",
  "adr_tc": "\u9999\u6e2f\u9285\u947c\u7063\u6021\u548c\u88572-6\u865f\u82f1\u5149\u5927\u5ec86\u6a13 Rebar",
  "geocode_en": [
    {
      "address_components": [
        {
          "long_name": "Ying Kong Mansion",
          "short_name": "Ying Kong Mansion",
          "types": [
            "premise"
          ]
        },
        {
          "long_name": "2-6",
          "short_name": "2-6",
          "types": [
            "street_number"
          ]
        },
        {
          "long_name": "Yee Wo Street",
          "short_name": "Yee Wo St",
          "types": [
            "route"
          ]
        },
        {
          "long_name": "Causeway Bay",
          "short_name": "Causeway Bay",
          "types": [
            "neighborhood",
            "political"
          ]
        },
        {
          "long_name": "Hong Kong Island",
          "short_name": "Hong Kong Island",
          "types": [
            "administrative_area_level_1",
            "political"
          ]
        },
        {
          "long_name": "Hong Kong",
          "short_name": "HK",
          "types": [
            "country",
            "political"
          ]
        }
      ],
      "formatted_address": "Ying Kong Mansion, 2-6 Yee Wo St, Causeway Bay, Hong Kong",
      "geometry": {
        "bounds": {
          "northeast": {
            "lat": 22.279951,
            "lng": 114.184964
          },
          "southwest": {
            "lat": 22.2798201,
            "lng": 114.1847599
          }
        },
        "location": {
          "lat": 22.2798863,
          "lng": 114.1848654
        },
        "location_type": "ROOFTOP",
        "viewport": {
          "northeast": {
            "lat": 22.2812345302915,
            "lng": 114.1862109302915
          },
          "southwest": {
            "lat": 22.2785365697085,
            "lng": 114.1835129697085
          }
        }
      },
      "partial_match": true,
      "place_id": "ChIJd04mo1YABDQRHksleDk4iN0",
      "types": [
        "premise"
      ]
    }
  ],
  "geocode_tc": [
    {
      "address_components": [
        {
          "long_name": "\u82f1\u5149\u5927\u5ec8",
          "short_name": "\u82f1\u5149\u5927\u5ec8",
          "types": [
            "premise"
          ]
        },
        {
          "long_name": "2-6",
          "short_name": "2-6",
          "types": [
            "street_number"
          ]
        },
        {
          "long_name": "\u6021\u548c\u8857",
          "short_name": "\u6021\u548c\u8857",
          "types": [
            "route"
          ]
        },
        {
          "long_name": "\u9285\u947c\u7063",
          "short_name": "\u9285\u947c\u7063",
          "types": [
            "neighborhood",
            "political"
          ]
        },
        {
          "long_name": "\u9999\u6e2f\u5cf6",
          "short_name": "\u9999\u6e2f\u5cf6",
          "types": [
            "administrative_area_level_1",
            "political"
          ]
        },
        {
          "long_name": "\u9999\u6e2f",
          "short_name": "HK",
          "types": [
            "country",
            "political"
          ]
        }
      ],
      "formatted_address": "\u9999\u6e2f\u9285\u947c\u7063\u6021\u548c\u88572-6\u865f\u82f1\u5149\u5927\u5ec8",
      "geometry": {
        "bounds": {
          "northeast": {
            "lat": 22.279951,
            "lng": 114.184964
          },
          "southwest": {
            "lat": 22.2798201,
            "lng": 114.1847599
          }
        },
        "location": {
          "lat": 22.2798863,
          "lng": 114.1848654
        },
        "location_type": "ROOFTOP",
        "viewport": {
          "northeast": {
            "lat": 22.2812345302915,
            "lng": 114.1862109302915
          },
          "southwest": {
            "lat": 22.2785365697085,
            "lng": 114.1835129697085
          }
        }
      },
      "partial_match": true,
      "place_id": "ChIJd04mo1YABDQRHksleDk4iN0",
      "types": [
        "premise"
      ]
    }
  ],
  "licno": "3112803538",
  "timestamp": 1564975666,
  "version": "1564966095"
}
