{
  "adr_en": "Yummy (Aberdeen), SHOP NOS. 110-110A & 112, 1/F., PORT CENTRE, 38 CHENGTU ROAD, ABERDEEN, HONG KONG",
  "adr_tc": "\u9999\u6e2f\u9999\u6e2f\u4ed4\u4e2d\u5fc3\u6210\u90fd\u905338\u865f\u5229\u6e2f\u4e2d\u5fc31\u6a13110\u81f3110A\u53ca 112\u865f\u92ea \u7518\u5473(\u9999\u6e2f\u4ed4)",
  "geocode_en": [
    {
      "address_components": [
        {
          "long_name": "Aberdeen",
          "short_name": "Aberdeen",
          "types": [
            "locality",
            "political"
          ]
        },
        {
          "long_name": "Aberdeen City",
          "short_name": "Aberdeen City",
          "types": [
            "administrative_area_level_2",
            "political"
          ]
        },
        {
          "long_name": "Scotland",
          "short_name": "Scotland",
          "types": [
            "administrative_area_level_1",
            "political"
          ]
        },
        {
          "long_name": "United Kingdom",
          "short_name": "GB",
          "types": [
            "country",
            "political"
          ]
        }
      ],
      "formatted_address": "Aberdeen, UK",
      "geometry": {
        "bounds": {
          "northeast": {
            "lat": 57.19565069999999,
            "lng": -2.0441627
          },
          "southwest": {
            "lat": 57.1041518,
            "lng": -2.2058926
          }
        },
        "location": {
          "lat": 57.149717,
          "lng": -2.094278
        },
        "location_type": "APPROXIMATE",
        "viewport": {
          "northeast": {
            "lat": 57.19565069999999,
            "lng": -2.0441627
          },
          "southwest": {
            "lat": 57.1041518,
            "lng": -2.2058926
          }
        }
      },
      "partial_match": true,
      "place_id": "ChIJSXXXH0wFhEgRcsT0XNoFu-g",
      "types": [
        "locality",
        "political"
      ]
    },
    {
      "address_components": [
        {
          "long_name": "Port Centre",
          "short_name": "Port Centre",
          "types": [
            "premise"
          ]
        },
        {
          "long_name": "38",
          "short_name": "38",
          "types": [
            "street_number"
          ]
        },
        {
          "long_name": "Chengtu Road",
          "short_name": "Chengtu Rd",
          "types": [
            "route"
          ]
        },
        {
          "long_name": "Aberdeen",
          "short_name": "Aberdeen",
          "types": [
            "neighborhood",
            "political"
          ]
        },
        {
          "long_name": "Hong Kong Island",
          "short_name": "Hong Kong Island",
          "types": [
            "administrative_area_level_1",
            "political"
          ]
        },
        {
          "long_name": "Hong Kong",
          "short_name": "HK",
          "types": [
            "country",
            "political"
          ]
        }
      ],
      "formatted_address": "Port Centre, 38 Chengtu Rd, Aberdeen, Hong Kong",
      "geometry": {
        "bounds": {
          "northeast": {
            "lat": 22.2491729,
            "lng": 114.1551689
          },
          "southwest": {
            "lat": 22.248873,
            "lng": 114.1548329
          }
        },
        "location": {
          "lat": 22.2490583,
          "lng": 114.1550362
        },
        "location_type": "ROOFTOP",
        "viewport": {
          "northeast": {
            "lat": 22.2503719302915,
            "lng": 114.1563498802915
          },
          "southwest": {
            "lat": 22.2476739697085,
            "lng": 114.1536519197085
          }
        }
      },
      "partial_match": true,
      "place_id": "ChIJi3d1RQMABDQRmJQz6yWc9CA",
      "types": [
        "premise"
      ]
    }
  ],
  "geocode_tc": [
    {
      "address_components": [
        {
          "long_name": "\u5229\u6e2f\u4e2d\u5fc3",
          "short_name": "\u5229\u6e2f\u4e2d\u5fc3",
          "types": [
            "premise"
          ]
        },
        {
          "long_name": "38",
          "short_name": "38",
          "types": [
            "street_number"
          ]
        },
        {
          "long_name": "\u6210\u90fd\u9053",
          "short_name": "\u6210\u90fd\u9053",
          "types": [
            "route"
          ]
        },
        {
          "long_name": "\u9999\u6e2f\u4ed4",
          "short_name": "\u9999\u6e2f\u4ed4",
          "types": [
            "neighborhood",
            "political"
          ]
        },
        {
          "long_name": "\u9999\u6e2f\u5cf6",
          "short_name": "\u9999\u6e2f\u5cf6",
          "types": [
            "administrative_area_level_1",
            "political"
          ]
        },
        {
          "long_name": "\u9999\u6e2f",
          "short_name": "HK",
          "types": [
            "country",
            "political"
          ]
        }
      ],
      "formatted_address": "\u9999\u6e2f\u9999\u6e2f\u4ed4\u6210\u90fd\u905338\u865f\u5229\u6e2f\u4e2d\u5fc3\u865f \u5229 \u6e2f \u4e2d\u5fc3 1 \u6a13 110 \u81f3 110A \u53ca 112 \u865f \u92ea",
      "geometry": {
        "location": {
          "lat": 22.2491306,
          "lng": 114.1551261
        },
        "location_type": "ROOFTOP",
        "viewport": {
          "northeast": {
            "lat": 22.2504795802915,
            "lng": 114.1564750802915
          },
          "southwest": {
            "lat": 22.24778161970849,
            "lng": 114.1537771197085
          }
        }
      },
      "place_id": "ChIJi3d1RQMABDQRS3hREdCpuLE",
      "plus_code": {
        "compound_code": "65X4+M3 \u9999\u6e2f",
        "global_code": "7PJP65X4+M3"
      },
      "types": [
        "establishment",
        "food",
        "point_of_interest",
        "restaurant"
      ]
    }
  ],
  "licno": "2215801331",
  "timestamp": 1564968756,
  "version": "1564966095"
}
