{
  "adr_en": "\u552f\u4e00\u9eb5\u5bb6, SHOP 2A, 1/F., FOU WAH CENTRE, 210 CASTLE PEAK ROAD, TSUEN WAN, NEW TERRITORIES",
  "adr_tc": "\u65b0\u754c\u8343\u7063\u9752\u5c71\u516c\u8def210\u865f\u5bcc\u83ef\u4e2d\u5fc31\u6a132A\u8216 \u552f\u4e00\u9eb5\u5bb6",
  "geocode_en": [
    {
      "address_components": [
        {
          "long_name": "\u9eb5\u5bb6, SHOP",
          "short_name": "\u9eb5\u5bb6, SHOP",
          "types": [
            "subpremise"
          ]
        },
        {
          "long_name": "Fou Wah Centre",
          "short_name": "Fou Wah Centre",
          "types": [
            "premise"
          ]
        },
        {
          "long_name": "210",
          "short_name": "210",
          "types": [
            "street_number"
          ]
        },
        {
          "long_name": "Castle Peak Road (Tsuen Wan)",
          "short_name": "Castle Peak Rd (Tsuen Wan)",
          "types": [
            "route"
          ]
        },
        {
          "long_name": "Tsuen Wan",
          "short_name": "Tsuen Wan",
          "types": [
            "neighborhood",
            "political"
          ]
        },
        {
          "long_name": "New Territories",
          "short_name": "New Territories",
          "types": [
            "administrative_area_level_1",
            "political"
          ]
        },
        {
          "long_name": "Hong Kong",
          "short_name": "HK",
          "types": [
            "country",
            "political"
          ]
        }
      ],
      "formatted_address": "\u9eb5\u5bb6, SHOP, Fou Wah Centre, 210 Castle Peak Rd (Tsuen Wan), Tsuen Wan, Hong Kong",
      "geometry": {
        "bounds": {
          "northeast": {
            "lat": 22.373108,
            "lng": 114.1185159
          },
          "southwest": {
            "lat": 22.3726989,
            "lng": 114.1181189
          }
        },
        "location": {
          "lat": 22.3729197,
          "lng": 114.118342
        },
        "location_type": "ROOFTOP",
        "viewport": {
          "northeast": {
            "lat": 22.3742524302915,
            "lng": 114.1196663802915
          },
          "southwest": {
            "lat": 22.3715544697085,
            "lng": 114.1169684197085
          }
        }
      },
      "partial_match": true,
      "place_id": "ElLpurXlrrYsIFNIT1AsIEZvdSBXYWggQ2VudHJlLCAyMTAgQ2FzdGxlIFBlYWsgUmQgKFRzdWVuIFdhbiksIFRzdWVuIFdhbiwgSG9uZyBLb25nIigaJgoWChQKEgk3qQae8vgDNBEciOfvr9dEfBIM6bq15a62LCBTSE9Q",
      "types": [
        "subpremise"
      ]
    }
  ],
  "geocode_tc": [
    {
      "address_components": [
        {
          "long_name": "\u9999\u6e2f",
          "short_name": "HK",
          "types": [
            "country",
            "political"
          ]
        }
      ],
      "formatted_address": "\u9999\u6e2f\u8343\u7063\u9752\u5c71\u516c\u8def\u8343\u7063\u6bb5210\u865f\u5bcc\u83ef\u4e2d\u5fc31\u6a132A\u8216",
      "geometry": {
        "location": {
          "lat": 22.3730619,
          "lng": 114.1184052
        },
        "location_type": "GEOMETRIC_CENTER",
        "viewport": {
          "northeast": {
            "lat": 22.3744108802915,
            "lng": 114.1197541802915
          },
          "southwest": {
            "lat": 22.3717129197085,
            "lng": 114.1170562197085
          }
        }
      },
      "place_id": "ChIJKYMGnvL4AzQRaSxWuBVUHhI",
      "plus_code": {
        "compound_code": "94F9+69 \u9999\u6e2f",
        "global_code": "7PJP94F9+69"
      },
      "types": [
        "establishment",
        "food",
        "point_of_interest",
        "restaurant"
      ]
    }
  ],
  "licno": "2292001581",
  "timestamp": 1564968756,
  "version": "1564966095"
}
