{
  "adr_en": "\u9f8d\u767c\u8336\u9910\u5ef3, G/F., DD 3 LOT 2473, MA WAN VILLAGE, PA MEI ROAD, TUNG CHUNG, LANTAU ISLAND, NEW TERRITORIES",
  "adr_tc": "\u5927\u5dbc\u5c71\u6771\u6d8c\u58e9\u5c3e\u8def\u99ac\u7063\u67513\u7d042473\u6bb5\u5730\u4e0b \u9f8d\u767c\u8336\u9910\u5ef3",
  "geocode_en": [
    {
      "address_components": [
        {
          "long_name": "Ma Wan",
          "short_name": "Ma Wan",
          "types": [
            "establishment",
            "natural_feature"
          ]
        },
        {
          "long_name": "Ma Wan",
          "short_name": "Ma Wan",
          "types": [
            "neighborhood",
            "political"
          ]
        },
        {
          "long_name": "New Territories",
          "short_name": "New Territories",
          "types": [
            "administrative_area_level_1",
            "political"
          ]
        },
        {
          "long_name": "Hong Kong",
          "short_name": "HK",
          "types": [
            "country",
            "political"
          ]
        }
      ],
      "formatted_address": "Ma Wan, Hong Kong",
      "geometry": {
        "bounds": {
          "northeast": {
            "lat": 22.3559259,
            "lng": 114.0662681
          },
          "southwest": {
            "lat": 22.3423909,
            "lng": 114.0540541
          }
        },
        "location": {
          "lat": 22.3500753,
          "lng": 114.059207
        },
        "location_type": "APPROXIMATE",
        "viewport": {
          "northeast": {
            "lat": 22.3559259,
            "lng": 114.0662681
          },
          "southwest": {
            "lat": 22.3423909,
            "lng": 114.0540541
          }
        }
      },
      "partial_match": true,
      "place_id": "ChIJL_Fzr1L5AzQR1is_ixrt3iI",
      "types": [
        "establishment",
        "natural_feature"
      ]
    },
    {
      "address_components": [
        {
          "long_name": "Pa Mei Road",
          "short_name": "Pa Mei Rd",
          "types": [
            "route"
          ]
        },
        {
          "long_name": "Tung Chung",
          "short_name": "Tung Chung",
          "types": [
            "neighborhood",
            "political"
          ]
        },
        {
          "long_name": "New Territories",
          "short_name": "New Territories",
          "types": [
            "administrative_area_level_1",
            "political"
          ]
        },
        {
          "long_name": "Hong Kong",
          "short_name": "HK",
          "types": [
            "country",
            "political"
          ]
        }
      ],
      "formatted_address": "Pa Mei Rd, Tung Chung, Hong Kong",
      "geometry": {
        "bounds": {
          "northeast": {
            "lat": 22.2801614,
            "lng": 113.941658
          },
          "southwest": {
            "lat": 22.2794781,
            "lng": 113.9409146
          }
        },
        "location": {
          "lat": 22.2799414,
          "lng": 113.941313
        },
        "location_type": "GEOMETRIC_CENTER",
        "viewport": {
          "northeast": {
            "lat": 22.2811687302915,
            "lng": 113.9426352802915
          },
          "southwest": {
            "lat": 22.2784707697085,
            "lng": 113.9399373197085
          }
        }
      },
      "partial_match": true,
      "place_id": "ChIJMWtz2qfiAzQRb2FY5pfP_jE",
      "types": [
        "route"
      ]
    }
  ],
  "geocode_tc": [
    {
      "address_components": [
        {
          "long_name": "1\u865f",
          "short_name": "1\u865f",
          "types": [
            "street_number"
          ]
        },
        {
          "long_name": "\u99ac\u7063\u65b0\u6751",
          "short_name": "\u99ac\u7063\u65b0\u6751",
          "types": [
            "route"
          ]
        },
        {
          "long_name": "\u5927\u5dbc\u5c71\u6771\u6d8c",
          "short_name": "\u5927\u5dbc\u5c71\u6771\u6d8c",
          "types": [
            "neighborhood",
            "political"
          ]
        },
        {
          "long_name": "\u65b0\u754c",
          "short_name": "\u65b0\u754c",
          "types": [
            "administrative_area_level_1",
            "political"
          ]
        },
        {
          "long_name": "\u9999\u6e2f",
          "short_name": "HK",
          "types": [
            "country",
            "political"
          ]
        }
      ],
      "formatted_address": "\u9999\u6e2f\u5927\u5dbc\u5c71\u6771\u6d8c\u99ac\u7063\u65b0\u67511\u865f",
      "geometry": {
        "location": {
          "lat": 22.279982,
          "lng": 113.941073
        },
        "location_type": "ROOFTOP",
        "viewport": {
          "northeast": {
            "lat": 22.2813309802915,
            "lng": 113.9424219802915
          },
          "southwest": {
            "lat": 22.2786330197085,
            "lng": 113.9397240197085
          }
        }
      },
      "partial_match": true,
      "place_id": "ChIJhQ480KfiAzQRrYKcG71awWE",
      "plus_code": {
        "compound_code": "7WHR+XC \u9999\u6e2f",
        "global_code": "7PJM7WHR+XC"
      },
      "types": [
        "establishment",
        "point_of_interest"
      ]
    },
    {
      "address_components": [
        {
          "long_name": "\u6771\u6d8c",
          "short_name": "\u6771\u6d8c",
          "types": [
            "neighborhood",
            "political"
          ]
        },
        {
          "long_name": "\u65b0\u754c",
          "short_name": "\u65b0\u754c",
          "types": [
            "administrative_area_level_1",
            "political"
          ]
        },
        {
          "long_name": "\u9999\u6e2f",
          "short_name": "HK",
          "types": [
            "country",
            "political"
          ]
        }
      ],
      "formatted_address": "\u9999\u6e2f\u6771\u6d8c",
      "geometry": {
        "location": {
          "lat": 22.2798,
          "lng": 113.940848
        },
        "location_type": "GEOMETRIC_CENTER",
        "viewport": {
          "northeast": {
            "lat": 22.2811489802915,
            "lng": 113.9421969802915
          },
          "southwest": {
            "lat": 22.27845101970849,
            "lng": 113.9394990197085
          }
        }
      },
      "partial_match": true,
      "place_id": "ChIJM6YOxafiAzQR479zIs584u0",
      "plus_code": {
        "compound_code": "7WHR+W8 \u9999\u6e2f",
        "global_code": "7PJM7WHR+W8"
      },
      "types": [
        "establishment",
        "food",
        "point_of_interest",
        "restaurant"
      ]
    }
  ],
  "licno": "2217001652",
  "timestamp": 1564968756,
  "version": "1564966095"
}
