{
  "adr_en": "\u516b\u65b9\u96f2\u96c6, SHOP 20 & 21A1, G/F, WAH LOK MANSION, 2 TSING SHAN SQUARE, TUEN MUN, NEW TERRITORIES",
  "adr_tc": "\u65b0\u754c\u5c6f\u9580\u9752\u5c71\u574a2\u865f\u83ef\u6a02\u5927\u5ec8\u5730\u4e0b20\u53ca21A1\u92ea \u516b\u65b9\u96f2\u96c6",
  "geocode_en": [
    {
      "address_components": [
        {
          "long_name": "Wah Lok Mansion",
          "short_name": "Wah Lok Mansion",
          "types": [
            "premise"
          ]
        },
        {
          "long_name": "2",
          "short_name": "2",
          "types": [
            "street_number"
          ]
        },
        {
          "long_name": "Tsing Shan Square",
          "short_name": "Tsing Shan Square",
          "types": [
            "route"
          ]
        },
        {
          "long_name": "Tuen Mun",
          "short_name": "Tuen Mun",
          "types": [
            "neighborhood",
            "political"
          ]
        },
        {
          "long_name": "New Territories",
          "short_name": "New Territories",
          "types": [
            "administrative_area_level_1",
            "political"
          ]
        },
        {
          "long_name": "Hong Kong",
          "short_name": "HK",
          "types": [
            "country",
            "political"
          ]
        }
      ],
      "formatted_address": "Wah Lok Mansion, 2 Tsing Shan Square, Tuen Mun, Hong Kong",
      "geometry": {
        "bounds": {
          "northeast": {
            "lat": 22.3889191,
            "lng": 113.97946
          },
          "southwest": {
            "lat": 22.388658,
            "lng": 113.9792019
          }
        },
        "location": {
          "lat": 22.3888073,
          "lng": 113.9793187
        },
        "location_type": "ROOFTOP",
        "viewport": {
          "northeast": {
            "lat": 22.3901375302915,
            "lng": 113.9806799302915
          },
          "southwest": {
            "lat": 22.3874395697085,
            "lng": 113.9779819697085
          }
        }
      },
      "partial_match": true,
      "place_id": "ChIJ-cpX2RX7AzQRxoKDKV4Gac8",
      "types": [
        "premise"
      ]
    }
  ],
  "geocode_tc": [
    {
      "address_components": [
        {
          "long_name": "\u9752\u5c71\u574a",
          "short_name": "\u9752\u5c71\u574a",
          "types": [
            "route"
          ]
        },
        {
          "long_name": "\u5c6f\u9580",
          "short_name": "\u5c6f\u9580",
          "types": [
            "neighborhood",
            "political"
          ]
        },
        {
          "long_name": "\u65b0\u754c",
          "short_name": "\u65b0\u754c",
          "types": [
            "administrative_area_level_1",
            "political"
          ]
        },
        {
          "long_name": "\u9999\u6e2f",
          "short_name": "HK",
          "types": [
            "country",
            "political"
          ]
        }
      ],
      "formatted_address": "\u9999\u6e2f\u5c6f\u9580\u9752\u5c71\u574a",
      "geometry": {
        "location": {
          "lat": 22.3891843,
          "lng": 113.9793662
        },
        "location_type": "GEOMETRIC_CENTER",
        "viewport": {
          "northeast": {
            "lat": 22.39053328029151,
            "lng": 113.9807151802915
          },
          "southwest": {
            "lat": 22.3878353197085,
            "lng": 113.9780172197085
          }
        }
      },
      "place_id": "ChIJISM52hX7AzQRJDEs4JRld8w",
      "plus_code": {
        "compound_code": "9XQH+MP \u9999\u6e2f",
        "global_code": "7PJM9XQH+MP"
      },
      "types": [
        "establishment",
        "food",
        "point_of_interest",
        "restaurant"
      ]
    }
  ],
  "licno": "3193801418",
  "timestamp": 1564975666,
  "version": "1564966095"
}
