{
  "adr_en": "MUSIC CAFE, SHOP B ( MAJOR PORTION), G/F, HANG FAT MANSION, 12 CASTLE PEAK ROAD, YUEN LONG, NEW TERRITORIES",
  "adr_tc": "\u65b0\u754c\u5143\u6717\u9752\u5c71\u516c\u8def\u5143\u6717\u6bb512\u865f\u6052\u767c\u6a13\u5730\u4e0bB\u865f\u92ea(\u4e3b\u8981\u90e8\u4efd) MUSIC CAFE",
  "geocode_en": [
    {
      "address_components": [
        {
          "long_name": "Hang Fat Mansion",
          "short_name": "Hang Fat Mansion",
          "types": [
            "premise"
          ]
        },
        {
          "long_name": "12",
          "short_name": "12",
          "types": [
            "street_number"
          ]
        },
        {
          "long_name": "Castle Peak Road (Yuen Long)",
          "short_name": "Castle Peak Road (Yuen Long)",
          "types": [
            "route"
          ]
        },
        {
          "long_name": "Yuen Long",
          "short_name": "Yuen Long",
          "types": [
            "neighborhood",
            "political"
          ]
        },
        {
          "long_name": "New Territories",
          "short_name": "New Territories",
          "types": [
            "administrative_area_level_1",
            "political"
          ]
        },
        {
          "long_name": "Hong Kong",
          "short_name": "HK",
          "types": [
            "country",
            "political"
          ]
        }
      ],
      "formatted_address": "Hang Fat Mansion, 12 Castle Peak Road (Yuen Long), Yuen Long, Hong Kong",
      "geometry": {
        "bounds": {
          "northeast": {
            "lat": 22.44427,
            "lng": 114.031701
          },
          "southwest": {
            "lat": 22.4441299,
            "lng": 114.031503
          }
        },
        "location": {
          "lat": 22.4441819,
          "lng": 114.031588
        },
        "location_type": "ROOFTOP",
        "viewport": {
          "northeast": {
            "lat": 22.4455489302915,
            "lng": 114.0329509802915
          },
          "southwest": {
            "lat": 22.4428509697085,
            "lng": 114.0302530197085
          }
        }
      },
      "partial_match": true,
      "place_id": "ChIJMS_AMKfwAzQRDBG9AjoA1ZE",
      "types": [
        "premise"
      ]
    }
  ],
  "geocode_tc": [
    {
      "address_components": [
        {
          "long_name": "\u6046\u767c\u6a13",
          "short_name": "\u6046\u767c\u6a13",
          "types": [
            "premise"
          ]
        },
        {
          "long_name": "12",
          "short_name": "12",
          "types": [
            "street_number"
          ]
        },
        {
          "long_name": "\u9752\u5c71\u516c\u8def\u5143\u6717\u6bb5",
          "short_name": "\u9752\u5c71\u516c\u8def\u5143\u6717\u6bb5",
          "types": [
            "route"
          ]
        },
        {
          "long_name": "\u5143\u6717",
          "short_name": "\u5143\u6717",
          "types": [
            "neighborhood",
            "political"
          ]
        },
        {
          "long_name": "\u65b0\u754c",
          "short_name": "\u65b0\u754c",
          "types": [
            "administrative_area_level_1",
            "political"
          ]
        },
        {
          "long_name": "\u9999\u6e2f",
          "short_name": "HK",
          "types": [
            "country",
            "political"
          ]
        }
      ],
      "formatted_address": "\u9999\u6e2f\u5143\u6717\u9752\u5c71\u516c\u8def\u5143\u6717\u6bb512\u865f\u6046\u767c\u6a13",
      "geometry": {
        "bounds": {
          "northeast": {
            "lat": 22.44427,
            "lng": 114.031701
          },
          "southwest": {
            "lat": 22.4441299,
            "lng": 114.031503
          }
        },
        "location": {
          "lat": 22.4441819,
          "lng": 114.031588
        },
        "location_type": "ROOFTOP",
        "viewport": {
          "northeast": {
            "lat": 22.4455489302915,
            "lng": 114.0329509802915
          },
          "southwest": {
            "lat": 22.4428509697085,
            "lng": 114.0302530197085
          }
        }
      },
      "partial_match": true,
      "place_id": "ChIJMS_AMKfwAzQRDBG9AjoA1ZE",
      "types": [
        "premise"
      ]
    }
  ],
  "licno": "3194802968",
  "timestamp": 1564975666,
  "version": "1564966095"
}
