{
  "adr_en": "ESPRESSO MARTINI, SHOP H ON UPPER G/F., HANG HING COURT, NOS. 123-125 THIRD STREET, HONG KONG",
  "adr_tc": "\u9999\u6e2f\u7b2c\u4e09\u8857123-125\u865f\u6052\u8208\u6a13\u5730\u4e0b\u4e0a\u90e8\u4efdH\u92ea ESPRESSO MARTINI",
  "geocode_en": [
    {
      "address_components": [
        {
          "long_name": "Hang Hing Court",
          "short_name": "Hang Hing Court",
          "types": [
            "premise"
          ]
        },
        {
          "long_name": "123-125",
          "short_name": "123-125",
          "types": [
            "street_number"
          ]
        },
        {
          "long_name": "Third Street",
          "short_name": "Third St",
          "types": [
            "route"
          ]
        },
        {
          "long_name": "Sai Ying Pun",
          "short_name": "Sai Ying Pun",
          "types": [
            "neighborhood",
            "political"
          ]
        },
        {
          "long_name": "Hong Kong Island",
          "short_name": "Hong Kong Island",
          "types": [
            "administrative_area_level_1",
            "political"
          ]
        },
        {
          "long_name": "Hong Kong",
          "short_name": "HK",
          "types": [
            "country",
            "political"
          ]
        }
      ],
      "formatted_address": "Hang Hing Court, 123-125 Third St, Sai Ying Pun, Hong Kong",
      "geometry": {
        "bounds": {
          "northeast": {
            "lat": 22.2860089,
            "lng": 114.140521
          },
          "southwest": {
            "lat": 22.285788,
            "lng": 114.140396
          }
        },
        "location": {
          "lat": 22.2858856,
          "lng": 114.1404518
        },
        "location_type": "ROOFTOP",
        "viewport": {
          "northeast": {
            "lat": 22.2872474302915,
            "lng": 114.1418074802915
          },
          "southwest": {
            "lat": 22.2845494697085,
            "lng": 114.1391095197085
          }
        }
      },
      "partial_match": true,
      "place_id": "ChIJ57xFLIH_AzQRaMsZ8ncRY0M",
      "types": [
        "premise"
      ]
    }
  ],
  "geocode_tc": [
    {
      "address_components": [
        {
          "long_name": "\u5730\u4e0b\u4e0a\u90e8\u4efd",
          "short_name": "\u5730\u4e0b\u4e0a\u90e8\u4efd",
          "types": [
            "subpremise"
          ]
        },
        {
          "long_name": "\u6046\u8208\u6a13",
          "short_name": "\u6046\u8208\u6a13",
          "types": [
            "premise"
          ]
        },
        {
          "long_name": "123-125",
          "short_name": "123-125",
          "types": [
            "street_number"
          ]
        },
        {
          "long_name": "\u7b2c\u4e09\u8857",
          "short_name": "\u7b2c\u4e09\u8857",
          "types": [
            "route"
          ]
        },
        {
          "long_name": "\u897f\u71df\u76e4",
          "short_name": "\u897f\u71df\u76e4",
          "types": [
            "neighborhood",
            "political"
          ]
        },
        {
          "long_name": "\u9999\u6e2f\u5cf6",
          "short_name": "\u9999\u6e2f\u5cf6",
          "types": [
            "administrative_area_level_1",
            "political"
          ]
        },
        {
          "long_name": "\u9999\u6e2f",
          "short_name": "HK",
          "types": [
            "country",
            "political"
          ]
        }
      ],
      "formatted_address": "\u9999\u6e2f\u897f\u71df\u76e4\u7b2c\u4e09\u8857123-125\u865f\u6046\u8208\u6a13\u5730\u4e0b\u4e0a\u90e8\u4efd",
      "geometry": {
        "bounds": {
          "northeast": {
            "lat": 22.2860089,
            "lng": 114.140521
          },
          "southwest": {
            "lat": 22.285788,
            "lng": 114.140396
          }
        },
        "location": {
          "lat": 22.2858856,
          "lng": 114.1404518
        },
        "location_type": "ROOFTOP",
        "viewport": {
          "northeast": {
            "lat": 22.2872474302915,
            "lng": 114.1418074802915
          },
          "southwest": {
            "lat": 22.2845494697085,
            "lng": 114.1391095197085
          }
        }
      },
      "partial_match": true,
      "place_id": "EkvlnLDkuIvkuIrpg6jku70sIEhhbmcgSGluZyBDb3VydCwgMTIzLTEyNSBUaGlyZCBTdCwgU2FpIFlpbmcgUHVuLCBIb25nIEtvbmciKxopChYKFAoSCee8RSyB_wM0EWjLGfJ3EWNDEg_lnLDkuIvkuIrpg6jku70",
      "types": [
        "subpremise"
      ]
    }
  ],
  "licno": "3918809174",
  "timestamp": 1564975666,
  "version": "1564966095"
}
