{
  "adr_en": "POINT, SHOP B, G/F, LAI MING BUILDING, 223 TUNG CHOI STREET, MONG KOK, KOWLOON",
  "adr_tc": "\u4e5d\u9f8d\u65fa\u89d2\u901a\u83dc\u8857223\u865f\u9e97\u660e\u5927\u5ec8\u5730\u4e0bB\u8216 POINT",
  "geocode_en": [
    {
      "address_components": [
        {
          "long_name": "Lai Ming Building",
          "short_name": "Lai Ming Building",
          "types": [
            "premise"
          ]
        },
        {
          "long_name": "217-223",
          "short_name": "217-223",
          "types": [
            "street_number"
          ]
        },
        {
          "long_name": "Tung Choi Street",
          "short_name": "Tung Choi St",
          "types": [
            "route"
          ]
        },
        {
          "long_name": "Prince Edward",
          "short_name": "Prince Edward",
          "types": [
            "neighborhood",
            "political"
          ]
        },
        {
          "long_name": "Kowloon",
          "short_name": "Kowloon",
          "types": [
            "administrative_area_level_1",
            "political"
          ]
        },
        {
          "long_name": "Hong Kong",
          "short_name": "HK",
          "types": [
            "country",
            "political"
          ]
        }
      ],
      "formatted_address": "Lai Ming Building, 217-223 Tung Choi St, Prince Edward, Hong Kong",
      "geometry": {
        "bounds": {
          "northeast": {
            "lat": 22.326132,
            "lng": 114.169144
          },
          "southwest": {
            "lat": 22.3257729,
            "lng": 114.168902
          }
        },
        "location": {
          "lat": 22.3258542,
          "lng": 114.1690628
        },
        "location_type": "ROOFTOP",
        "viewport": {
          "northeast": {
            "lat": 22.3273014302915,
            "lng": 114.1703719802915
          },
          "southwest": {
            "lat": 22.3246034697085,
            "lng": 114.1676740197085
          }
        }
      },
      "partial_match": true,
      "place_id": "ChIJB2utH8oABDQR6mgDQlx8cb8",
      "types": [
        "premise"
      ]
    }
  ],
  "geocode_tc": [
    {
      "address_components": [
        {
          "long_name": "\u9e97\u660e\u5927\u5ec8",
          "short_name": "\u9e97\u660e\u5927\u5ec8",
          "types": [
            "premise"
          ]
        },
        {
          "long_name": "217-223",
          "short_name": "217-223",
          "types": [
            "street_number"
          ]
        },
        {
          "long_name": "\u901a\u83dc\u8857",
          "short_name": "\u901a\u83dc\u8857",
          "types": [
            "route"
          ]
        },
        {
          "long_name": "\u592a\u5b50",
          "short_name": "\u592a\u5b50",
          "types": [
            "neighborhood",
            "political"
          ]
        },
        {
          "long_name": "\u4e5d\u9f8d",
          "short_name": "\u4e5d\u9f8d",
          "types": [
            "administrative_area_level_1",
            "political"
          ]
        },
        {
          "long_name": "\u9999\u6e2f",
          "short_name": "HK",
          "types": [
            "country",
            "political"
          ]
        }
      ],
      "formatted_address": "\u9999\u6e2f\u592a\u5b50\u901a\u83dc\u8857217-223\u865f\u9e97\u660e\u5927\u5ec8",
      "geometry": {
        "bounds": {
          "northeast": {
            "lat": 22.326132,
            "lng": 114.169144
          },
          "southwest": {
            "lat": 22.3257729,
            "lng": 114.168902
          }
        },
        "location": {
          "lat": 22.3258542,
          "lng": 114.1690628
        },
        "location_type": "ROOFTOP",
        "viewport": {
          "northeast": {
            "lat": 22.3273014302915,
            "lng": 114.1703719802915
          },
          "southwest": {
            "lat": 22.3246034697085,
            "lng": 114.1676740197085
          }
        }
      },
      "partial_match": true,
      "place_id": "ChIJB2utH8oABDQR6mgDQlx8cb8",
      "types": [
        "premise"
      ]
    }
  ],
  "licno": "3162803126",
  "timestamp": 1564975666,
  "version": "1564966095"
}
