{
  "adr_en": "\u9d3b\u8208\u6e05\u6e6f\u8169\u7c89\u9eb5\u5c08\u5bb6, SHOP NO, 12, G/F., COMMERCIAL COMPLEX, FU NING GARDEN, 25 PO NING ROAD, TSEUNG KWAN O, SAI KUNG, NEW TERRITORIES",
  "adr_tc": "\u65b0\u754c\u897f\u8ca2 \u5c07\u8ecd\u6fb3\u5bf6\u5be7\u905325\u865f \u5bcc\u5be7\u82b1\u5712\u5546\u5834\u5730\u4e0b 12\u865f\u92ea \u9d3b\u8208\u6e05\u6e6f\u8169\u7c89\u9eb5\u5c08\u5bb6",
  "geocode_en": [
    {
      "address_components": [
        {
          "long_name": "Hong Kong",
          "short_name": "HK",
          "types": [
            "country",
            "political"
          ]
        }
      ],
      "formatted_address": "Hong Kong, \u5c07\u8ecd\u6fb3\u5bf6\u5be7\u8def25\u865f\u5bcc\u5be7\u82b1\u5712\u5bcc\u5be7\u5546\u5834\u4e0b12\u865f\u8216",
      "geometry": {
        "location": {
          "lat": 22.3188922,
          "lng": 114.2674872
        },
        "location_type": "GEOMETRIC_CENTER",
        "viewport": {
          "northeast": {
            "lat": 22.3202411802915,
            "lng": 114.2688361802915
          },
          "southwest": {
            "lat": 22.3175432197085,
            "lng": 114.2661382197085
          }
        }
      },
      "partial_match": true,
      "place_id": "ChIJUwSwM3QEBDQRkW7IACL2Vhc",
      "plus_code": {
        "compound_code": "8798+HX Hong Kong",
        "global_code": "7PJP8798+HX"
      },
      "types": [
        "establishment",
        "food",
        "point_of_interest",
        "restaurant"
      ]
    },
    {
      "address_components": [
        {
          "long_name": "Fu Ning Garden Commercial Complex",
          "short_name": "Fu Ning Garden Commercial Complex",
          "types": [
            "premise"
          ]
        },
        {
          "long_name": "25",
          "short_name": "25",
          "types": [
            "street_number"
          ]
        },
        {
          "long_name": "Po Ning Road",
          "short_name": "Po Ning Rd",
          "types": [
            "route"
          ]
        },
        {
          "long_name": "Tseung Kwan O",
          "short_name": "Tseung Kwan O",
          "types": [
            "neighborhood",
            "political"
          ]
        },
        {
          "long_name": "New Territories",
          "short_name": "New Territories",
          "types": [
            "administrative_area_level_1",
            "political"
          ]
        },
        {
          "long_name": "Hong Kong",
          "short_name": "HK",
          "types": [
            "country",
            "political"
          ]
        }
      ],
      "formatted_address": "Fu Ning Garden Commercial Complex, 25 Po Ning Rd, Tseung Kwan O, Hong Kong",
      "geometry": {
        "bounds": {
          "northeast": {
            "lat": 22.3192222,
            "lng": 114.2684621
          },
          "southwest": {
            "lat": 22.3183066,
            "lng": 114.2668541
          }
        },
        "location": {
          "lat": 22.3188084,
          "lng": 114.2677008
        },
        "location_type": "ROOFTOP",
        "viewport": {
          "northeast": {
            "lat": 22.3201133802915,
            "lng": 114.2690070802915
          },
          "southwest": {
            "lat": 22.3174154197085,
            "lng": 114.2663091197085
          }
        }
      },
      "partial_match": true,
      "place_id": "ChIJf0F8M3QEBDQRioEHMIYWj4U",
      "types": [
        "premise"
      ]
    }
  ],
  "geocode_tc": [
    {
      "address_components": [
        {
          "long_name": "\u5bcc\u5be7\u82b1\u5712\u5546\u5834",
          "short_name": "\u5bcc\u5be7\u82b1\u5712\u5546\u5834",
          "types": [
            "premise"
          ]
        },
        {
          "long_name": "25",
          "short_name": "25",
          "types": [
            "street_number"
          ]
        },
        {
          "long_name": "\u5bf6\u5be7\u8def",
          "short_name": "\u5bf6\u5be7\u8def",
          "types": [
            "route"
          ]
        },
        {
          "long_name": "\u5c07\u8ecd\u6fb3",
          "short_name": "\u5c07\u8ecd\u6fb3",
          "types": [
            "neighborhood",
            "political"
          ]
        },
        {
          "long_name": "\u65b0\u754c",
          "short_name": "\u65b0\u754c",
          "types": [
            "administrative_area_level_1",
            "political"
          ]
        },
        {
          "long_name": "\u9999\u6e2f",
          "short_name": "HK",
          "types": [
            "country",
            "political"
          ]
        }
      ],
      "formatted_address": "\u9999\u6e2f\u5c07\u8ecd\u6fb3\u5bf6\u5be7\u8def25\u865f\u5bcc\u5be7\u82b1\u5712\u5546\u5834",
      "geometry": {
        "bounds": {
          "northeast": {
            "lat": 22.3192222,
            "lng": 114.2684621
          },
          "southwest": {
            "lat": 22.3183066,
            "lng": 114.2668541
          }
        },
        "location": {
          "lat": 22.3188084,
          "lng": 114.2677008
        },
        "location_type": "ROOFTOP",
        "viewport": {
          "northeast": {
            "lat": 22.3201133802915,
            "lng": 114.2690070802915
          },
          "southwest": {
            "lat": 22.3174154197085,
            "lng": 114.2663091197085
          }
        }
      },
      "partial_match": true,
      "place_id": "ChIJf0F8M3QEBDQRioEHMIYWj4U",
      "types": [
        "premise"
      ]
    },
    {
      "address_components": [
        {
          "long_name": "\u9999\u6e2f",
          "short_name": "HK",
          "types": [
            "country",
            "political"
          ]
        }
      ],
      "formatted_address": "\u9999\u6e2f\u5c07\u8ecd\u6fb3\u5bf6\u5be7\u8def25\u865f\u5bcc\u5be7\u82b1\u5712\u5bcc\u5be7\u5546\u5834\u4e0b12\u865f\u8216",
      "geometry": {
        "location": {
          "lat": 22.3188922,
          "lng": 114.2674872
        },
        "location_type": "GEOMETRIC_CENTER",
        "viewport": {
          "northeast": {
            "lat": 22.3202411802915,
            "lng": 114.2688361802915
          },
          "southwest": {
            "lat": 22.3175432197085,
            "lng": 114.2661382197085
          }
        }
      },
      "partial_match": true,
      "place_id": "ChIJUwSwM3QEBDQRkW7IACL2Vhc",
      "plus_code": {
        "compound_code": "8798+HX \u9999\u6e2f",
        "global_code": "7PJP8798+HX"
      },
      "types": [
        "establishment",
        "food",
        "point_of_interest",
        "restaurant"
      ]
    }
  ],
  "licno": "3198000481",
  "timestamp": 1564975666,
  "version": "1564966095"
}
