{
  "adr_en": "Wah Yuen Restaurant, SHOP D, G/F & SHOP E, C/L, KAM TIN THEATRE BUILDING, KAM TIN MAIN ROAD, YUEN LONG, NEW TERRITORIES",
  "adr_tc": "\u65b0\u754c\u5143\u6717\u9326\u7530\u516c\u8def\u9326\u7530\u4e2d\u5fc3\u5730\u4e0bD\u92ea\u53ca\u95a3\u6a13E\u92ea \u83ef\u82d1\u9910\u5ef3",
  "geocode_en": [
    {
      "address_components": [
        {
          "long_name": "Kam Tin",
          "short_name": "Kam Tin",
          "types": [
            "neighborhood",
            "political"
          ]
        },
        {
          "long_name": "New Territories",
          "short_name": "New Territories",
          "types": [
            "administrative_area_level_1",
            "political"
          ]
        },
        {
          "long_name": "Hong Kong",
          "short_name": "HK",
          "types": [
            "country",
            "political"
          ]
        }
      ],
      "formatted_address": "Kam Tin, Hong Kong",
      "geometry": {
        "bounds": {
          "northeast": {
            "lat": 22.4716219,
            "lng": 114.080961
          },
          "southwest": {
            "lat": 22.4267591,
            "lng": 114.0393151
          }
        },
        "location": {
          "lat": 22.440058,
          "lng": 114.0650077
        },
        "location_type": "APPROXIMATE",
        "viewport": {
          "northeast": {
            "lat": 22.4716219,
            "lng": 114.080961
          },
          "southwest": {
            "lat": 22.4267591,
            "lng": 114.0393151
          }
        }
      },
      "partial_match": true,
      "place_id": "ChIJi9up_U_3AzQRip9-it_iDrc",
      "types": [
        "neighborhood",
        "political"
      ]
    }
  ],
  "geocode_tc": [
    {
      "address_components": [
        {
          "long_name": "\u9999\u6e2f",
          "short_name": "HK",
          "types": [
            "country",
            "political"
          ]
        }
      ],
      "formatted_address": "Salvation Army Kam Tin Corps & Bradbury Community Centre, \u9999\u6e2f",
      "geometry": {
        "location": {
          "lat": 22.440343,
          "lng": 114.062519
        },
        "location_type": "GEOMETRIC_CENTER",
        "viewport": {
          "northeast": {
            "lat": 22.4416919802915,
            "lng": 114.0638679802915
          },
          "southwest": {
            "lat": 22.4389940197085,
            "lng": 114.0611700197085
          }
        }
      },
      "partial_match": true,
      "place_id": "ChIJb6KltFn3AzQR3TjwyYMnyko",
      "plus_code": {
        "compound_code": "C3R7+42 \u9999\u6e2f",
        "global_code": "7PJPC3R7+42"
      },
      "types": [
        "establishment",
        "point_of_interest"
      ]
    },
    {
      "address_components": [
        {
          "long_name": "456",
          "short_name": "456",
          "types": [
            "street_number"
          ]
        },
        {
          "long_name": "Kam Tin Road",
          "short_name": "Kam Tin Rd",
          "types": [
            "route"
          ]
        },
        {
          "long_name": "Kam Tin",
          "short_name": "Kam Tin",
          "types": [
            "neighborhood",
            "political"
          ]
        },
        {
          "long_name": "New Territories",
          "short_name": "New Territories",
          "types": [
            "administrative_area_level_1",
            "political"
          ]
        },
        {
          "long_name": "\u9999\u6e2f",
          "short_name": "HK",
          "types": [
            "country",
            "political"
          ]
        }
      ],
      "formatted_address": "\u865f, 456 Kam Tin Rd, Kam Tin, \u9999\u6e2f",
      "geometry": {
        "location": {
          "lat": 22.4401877,
          "lng": 114.0647377
        },
        "location_type": "ROOFTOP",
        "viewport": {
          "northeast": {
            "lat": 22.4415366802915,
            "lng": 114.0660866802915
          },
          "southwest": {
            "lat": 22.4388387197085,
            "lng": 114.0633887197085
          }
        }
      },
      "partial_match": true,
      "place_id": "ChIJ6-J6IVn3AzQR3tt0vI97w-w",
      "plus_code": {
        "compound_code": "C3R7+3V \u9999\u6e2f",
        "global_code": "7PJPC3R7+3V"
      },
      "types": [
        "establishment",
        "food",
        "point_of_interest",
        "restaurant"
      ]
    }
  ],
  "licno": "2294804133",
  "timestamp": 1564975666,
  "version": "1564966095"
}
