{
  "adr_en": "\u9806\u806f\u8588, 6/F., KWAN CHART TOWER, NO. 6 TONNOCHY ROAD, WAN CHAI, HONG KONG",
  "adr_tc": "\u9999\u6e2f\u7063\u4ed4\u675c\u8001\u8a8c\u90536\u865f\u7fa4\u7b56\u5927\u5ec8\u516d\u6a13 \u9806\u806f\u8588",
  "geocode_en": [
    {
      "address_components": [
        {
          "long_name": "Kwan Chart Tower",
          "short_name": "Kwan Chart Tower",
          "types": [
            "premise"
          ]
        },
        {
          "long_name": "6",
          "short_name": "6",
          "types": [
            "street_number"
          ]
        },
        {
          "long_name": "Tonnochy Road",
          "short_name": "Tonnochy Rd",
          "types": [
            "route"
          ]
        },
        {
          "long_name": "Wan Chai",
          "short_name": "Wan Chai",
          "types": [
            "neighborhood",
            "political"
          ]
        },
        {
          "long_name": "Hong Kong Island",
          "short_name": "Hong Kong Island",
          "types": [
            "administrative_area_level_1",
            "political"
          ]
        },
        {
          "long_name": "Hong Kong",
          "short_name": "HK",
          "types": [
            "country",
            "political"
          ]
        }
      ],
      "formatted_address": "Kwan Chart Tower, 6 Tonnochy Rd, Wan Chai, Hong Kong",
      "geometry": {
        "bounds": {
          "northeast": {
            "lat": 22.279396,
            "lng": 114.1782611
          },
          "southwest": {
            "lat": 22.2791841,
            "lng": 114.177859
          }
        },
        "location": {
          "lat": 22.2792924,
          "lng": 114.1780498
        },
        "location_type": "ROOFTOP",
        "viewport": {
          "northeast": {
            "lat": 22.2806390302915,
            "lng": 114.1794090302915
          },
          "southwest": {
            "lat": 22.2779410697085,
            "lng": 114.1767110697085
          }
        }
      },
      "partial_match": true,
      "place_id": "ChIJfYFuIloABDQRxvzVyttoC_w",
      "types": [
        "premise"
      ]
    }
  ],
  "geocode_tc": [],
  "licno": "2212813683",
  "timestamp": 1564966180,
  "version": "1564966095"
}
