{
  "adr_en": "ROYAL WEDDING, SHOP NO. 5, 2/F, EXCHANGE TOWER, 33 WANG CHIU ROAD, KOWLOON BAY, KOWLOON",
  "adr_tc": "\u4e5d\u9f8d\u4e5d\u9f8d\u7063\u5b8f\u7167\u905333\u865f\u570b\u969b\u4ea4\u6613\u4e2d\u5fc32\u6a135\u865f\u8216 \u7687\u5ba4\u5a5a\u5bb4",
  "geocode_en": [
    {
      "address_components": [
        {
          "long_name": "Kowloon Bay",
          "short_name": "Kowloon Bay",
          "types": [
            "neighborhood",
            "political"
          ]
        },
        {
          "long_name": "Kowloon",
          "short_name": "Kowloon",
          "types": [
            "administrative_area_level_1",
            "political"
          ]
        },
        {
          "long_name": "Hong Kong",
          "short_name": "HK",
          "types": [
            "country",
            "political"
          ]
        }
      ],
      "formatted_address": "Shop 206, 2/F Podium Garden, Exchange Tower, 33 Wang Chiu Road,, Kowloon Bay, Hong Kong",
      "geometry": {
        "location": {
          "lat": 22.321063,
          "lng": 114.209396
        },
        "location_type": "GEOMETRIC_CENTER",
        "viewport": {
          "northeast": {
            "lat": 22.3224119802915,
            "lng": 114.2107449802915
          },
          "southwest": {
            "lat": 22.3197140197085,
            "lng": 114.2080470197085
          }
        }
      },
      "place_id": "ChIJW7GWdTQBBDQRUII18XyQ43w",
      "types": [
        "establishment",
        "food",
        "point_of_interest",
        "restaurant"
      ]
    }
  ],
  "geocode_tc": [
    {
      "address_components": [
        {
          "long_name": "\u9999\u6e2f",
          "short_name": "HK",
          "types": [
            "country",
            "political"
          ]
        }
      ],
      "formatted_address": "\u9999\u6e2f\u4e5d\u9f8d\u7063\u5b8f\u7167\u905333\u865f\u570b\u969b\u4ea4\u6613\u4e2d\u5fc32\u6a135\u865f\u8216",
      "geometry": {
        "location": {
          "lat": 22.321075,
          "lng": 114.2094
        },
        "location_type": "GEOMETRIC_CENTER",
        "viewport": {
          "northeast": {
            "lat": 22.3224239802915,
            "lng": 114.2107489802915
          },
          "southwest": {
            "lat": 22.3197260197085,
            "lng": 114.2080510197085
          }
        }
      },
      "place_id": "ChIJW7GWdTQBBDQRt8Rj5nmKiv0",
      "types": [
        "establishment",
        "food",
        "point_of_interest",
        "restaurant"
      ]
    }
  ],
  "licno": "2251802152",
  "timestamp": 1564968756,
  "version": "1564966095"
}
