{
  "adr_en": "\u4e5d\u9f8d\u57ce\u5be8\u9910\u5ba4, G/F., 56 JARDINE'S CRESCENT, CAUSEWAY BAY, HONG KONG",
  "adr_tc": "\u9999\u6e2f\u9285\u947c\u7063\u6e23\u7538\u574a56\u865f\u5730\u4e0b \u4e5d\u9f8d\u57ce\u5be8\u9910\u5ba4",
  "geocode_en": [
    {
      "address_components": [
        {
          "long_name": "Kowloon",
          "short_name": "Kowloon",
          "types": [
            "administrative_area_level_1",
            "political"
          ]
        },
        {
          "long_name": "Hong Kong",
          "short_name": "HK",
          "types": [
            "country",
            "political"
          ]
        }
      ],
      "formatted_address": "Kowloon, Hong Kong",
      "geometry": {
        "bounds": {
          "northeast": {
            "lat": 22.3726529,
            "lng": 114.2455041
          },
          "southwest": {
            "lat": 22.2858651,
            "lng": 114.121388
          }
        },
        "location": {
          "lat": 22.3185673,
          "lng": 114.1796057
        },
        "location_type": "APPROXIMATE",
        "viewport": {
          "northeast": {
            "lat": 22.3726529,
            "lng": 114.2455041
          },
          "southwest": {
            "lat": 22.2858651,
            "lng": 114.121388
          }
        }
      },
      "partial_match": true,
      "place_id": "ChIJY08J76z4AzQRxALvQEcjed8",
      "types": [
        "administrative_area_level_1",
        "political"
      ]
    },
    {
      "address_components": [
        {
          "long_name": "\u5ba4, G",
          "short_name": "\u5ba4, G",
          "types": [
            "subpremise"
          ]
        },
        {
          "long_name": "56",
          "short_name": "56",
          "types": [
            "street_number"
          ]
        },
        {
          "long_name": "Jardine's Crescent",
          "short_name": "Jardine's Cres",
          "types": [
            "route"
          ]
        },
        {
          "long_name": "Causeway Bay",
          "short_name": "Causeway Bay",
          "types": [
            "neighborhood",
            "political"
          ]
        },
        {
          "long_name": "Hong Kong Island",
          "short_name": "Hong Kong Island",
          "types": [
            "administrative_area_level_1",
            "political"
          ]
        },
        {
          "long_name": "Hong Kong",
          "short_name": "HK",
          "types": [
            "country",
            "political"
          ]
        }
      ],
      "formatted_address": "\u5ba4, G, 56 Jardine's Cres, Causeway Bay, Hong Kong",
      "geometry": {
        "location": {
          "lat": 22.2790684,
          "lng": 114.1853548
        },
        "location_type": "RANGE_INTERPOLATED",
        "viewport": {
          "northeast": {
            "lat": 22.2804173802915,
            "lng": 114.1867037802915
          },
          "southwest": {
            "lat": 22.2777194197085,
            "lng": 114.1840058197085
          }
        }
      },
      "partial_match": true,
      "place_id": "EjLlrqQsIEcsIDU2IEphcmRpbmUncyBDcmVzLCBDYXVzZXdheSBCYXksIEhvbmcgS29uZyImGiQKGhIYChQKEgm5Rc6uVgAENBGyEJOCyzdP6hA4EgblrqQsIEc",
      "types": [
        "subpremise"
      ]
    }
  ],
  "geocode_tc": [
    {
      "address_components": [
        {
          "long_name": "\u865f\u5730\u4e0b",
          "short_name": "\u865f\u5730\u4e0b",
          "types": [
            "subpremise"
          ]
        },
        {
          "long_name": "56",
          "short_name": "56",
          "types": [
            "street_number"
          ]
        },
        {
          "long_name": "\u6e23\u7538\u574a",
          "short_name": "\u6e23\u7538\u574a",
          "types": [
            "route"
          ]
        },
        {
          "long_name": "\u9285\u947c\u7063",
          "short_name": "\u9285\u947c\u7063",
          "types": [
            "neighborhood",
            "political"
          ]
        },
        {
          "long_name": "\u9999\u6e2f\u5cf6",
          "short_name": "\u9999\u6e2f\u5cf6",
          "types": [
            "administrative_area_level_1",
            "political"
          ]
        },
        {
          "long_name": "\u9999\u6e2f",
          "short_name": "HK",
          "types": [
            "country",
            "political"
          ]
        }
      ],
      "formatted_address": "\u9999\u6e2f\u9285\u947c\u7063\u6e23\u7538\u574a56\u865f\u865f\u5730\u4e0b",
      "geometry": {
        "location": {
          "lat": 22.2790684,
          "lng": 114.1853548
        },
        "location_type": "RANGE_INTERPOLATED",
        "viewport": {
          "northeast": {
            "lat": 22.2804173802915,
            "lng": 114.1867037802915
          },
          "southwest": {
            "lat": 22.2777194197085,
            "lng": 114.1840058197085
          }
        }
      },
      "partial_match": true,
      "place_id": "EjXomZ_lnLDkuIssIDU2IEphcmRpbmUncyBDcmVzLCBDYXVzZXdheSBCYXksIEhvbmcgS29uZyIpGicKGhIYChQKEgm5Rc6uVgAENBGyEJOCyzdP6hA4EgnomZ_lnLDkuIs",
      "types": [
        "subpremise"
      ]
    },
    {
      "address_components": [
        {
          "long_name": "\u4e5d\u9f8d",
          "short_name": "\u4e5d\u9f8d",
          "types": [
            "administrative_area_level_1",
            "political"
          ]
        },
        {
          "long_name": "\u9999\u6e2f",
          "short_name": "HK",
          "types": [
            "country",
            "political"
          ]
        }
      ],
      "formatted_address": "\u9999\u6e2f\u4e5d\u9f8d",
      "geometry": {
        "bounds": {
          "northeast": {
            "lat": 22.3726529,
            "lng": 114.2455041
          },
          "southwest": {
            "lat": 22.2858651,
            "lng": 114.121388
          }
        },
        "location": {
          "lat": 22.3185673,
          "lng": 114.1796057
        },
        "location_type": "APPROXIMATE",
        "viewport": {
          "northeast": {
            "lat": 22.3726529,
            "lng": 114.2455041
          },
          "southwest": {
            "lat": 22.2858651,
            "lng": 114.121388
          }
        }
      },
      "partial_match": true,
      "place_id": "ChIJY08J76z4AzQRxALvQEcjed8",
      "types": [
        "administrative_area_level_1",
        "political"
      ]
    }
  ],
  "licno": "2212816637",
  "timestamp": 1564968756,
  "version": "1564966095"
}
