{
  "adr_en": "\u80a5MO\u8eca\u4ed4\u9eb5, SHOP 5, G/F., YIU FAI BUILDING, 2-8 TSAP FAI STREET, SHAM SHUI PO, KOWLOON",
  "adr_tc": "\u4e5d\u9f8d\u6df1\u6c34\u57d7\u96c6\u8f1d\u88572-8\u865f\u8000\u8f1d\u5927\u5ec8\u5730\u4e0b5\u865f\u92ea \u80a5MO\u8eca\u4ed4\u9eb5",
  "geocode_en": [
    {
      "address_components": [
        {
          "long_name": "5\u865f",
          "short_name": "5\u865f",
          "types": [
            "street_number"
          ]
        },
        {
          "long_name": "Tsap Fai Street",
          "short_name": "Tsap Fai St",
          "types": [
            "route"
          ]
        },
        {
          "long_name": "Cheung Sha Wan",
          "short_name": "Cheung Sha Wan",
          "types": [
            "neighborhood",
            "political"
          ]
        },
        {
          "long_name": "Kowloon",
          "short_name": "Kowloon",
          "types": [
            "administrative_area_level_1",
            "political"
          ]
        },
        {
          "long_name": "Hong Kong",
          "short_name": "HK",
          "types": [
            "country",
            "political"
          ]
        }
      ],
      "formatted_address": "5\u865f Tsap Fai St, Cheung Sha Wan, Hong Kong",
      "geometry": {
        "location": {
          "lat": 22.3404351,
          "lng": 114.1527423
        },
        "location_type": "ROOFTOP",
        "viewport": {
          "northeast": {
            "lat": 22.3417840802915,
            "lng": 114.1540912802915
          },
          "southwest": {
            "lat": 22.3390861197085,
            "lng": 114.1513933197085
          }
        }
      },
      "partial_match": true,
      "place_id": "ChIJTWskauAHBDQRPvoac3cEjKc",
      "plus_code": {
        "compound_code": "85R3+53 Hong Kong",
        "global_code": "7PJP85R3+53"
      },
      "types": [
        "establishment",
        "food",
        "point_of_interest",
        "restaurant"
      ]
    }
  ],
  "geocode_tc": [
    {
      "address_components": [
        {
          "long_name": "\u6df1\u6c34\u57d7",
          "short_name": "\u6df1\u6c34\u57d7",
          "types": [
            "neighborhood",
            "political"
          ]
        },
        {
          "long_name": "\u4e5d\u9f8d",
          "short_name": "\u4e5d\u9f8d",
          "types": [
            "administrative_area_level_1",
            "political"
          ]
        },
        {
          "long_name": "\u9999\u6e2f",
          "short_name": "HK",
          "types": [
            "country",
            "political"
          ]
        }
      ],
      "formatted_address": "\u9999\u6e2f\u6df1\u6c34\u57d7",
      "geometry": {
        "bounds": {
          "northeast": {
            "lat": 22.3363634,
            "lng": 114.1645006
          },
          "southwest": {
            "lat": 22.321758,
            "lng": 114.148766
          }
        },
        "location": {
          "lat": 22.3285899,
          "lng": 114.1602846
        },
        "location_type": "APPROXIMATE",
        "viewport": {
          "northeast": {
            "lat": 22.3363634,
            "lng": 114.1645006
          },
          "southwest": {
            "lat": 22.321758,
            "lng": 114.148766
          }
        }
      },
      "partial_match": true,
      "place_id": "ChIJC6pfobQABDQRTn_pueERhuM",
      "types": [
        "neighborhood",
        "political"
      ]
    },
    {
      "address_components": [
        {
          "long_name": "5\u865f",
          "short_name": "5\u865f",
          "types": [
            "street_number"
          ]
        },
        {
          "long_name": "\u96c6\u8f1d\u8857",
          "short_name": "\u96c6\u8f1d\u8857",
          "types": [
            "route"
          ]
        },
        {
          "long_name": "\u9577\u6c99\u7063",
          "short_name": "\u9577\u6c99\u7063",
          "types": [
            "neighborhood",
            "political"
          ]
        },
        {
          "long_name": "\u4e5d\u9f8d",
          "short_name": "\u4e5d\u9f8d",
          "types": [
            "administrative_area_level_1",
            "political"
          ]
        },
        {
          "long_name": "\u9999\u6e2f",
          "short_name": "HK",
          "types": [
            "country",
            "political"
          ]
        }
      ],
      "formatted_address": "\u9999\u6e2f\u9577\u6c99\u7063\u96c6\u8f1d\u88575\u865f",
      "geometry": {
        "location": {
          "lat": 22.3404351,
          "lng": 114.1527423
        },
        "location_type": "ROOFTOP",
        "viewport": {
          "northeast": {
            "lat": 22.3417840802915,
            "lng": 114.1540912802915
          },
          "southwest": {
            "lat": 22.3390861197085,
            "lng": 114.1513933197085
          }
        }
      },
      "partial_match": true,
      "place_id": "ChIJTWskauAHBDQRPvoac3cEjKc",
      "plus_code": {
        "compound_code": "85R3+53 \u9999\u6e2f",
        "global_code": "7PJP85R3+53"
      },
      "types": [
        "establishment",
        "food",
        "point_of_interest",
        "restaurant"
      ]
    },
    {
      "address_components": [
        {
          "long_name": "\u8000\u8f1d\u5927\u5ec8",
          "short_name": "\u8000\u8f1d\u5927\u5ec8",
          "types": [
            "premise"
          ]
        },
        {
          "long_name": "2-12A",
          "short_name": "2-12A",
          "types": [
            "street_number"
          ]
        },
        {
          "long_name": "\u96c6\u8f1d\u8857",
          "short_name": "\u96c6\u8f1d\u8857",
          "types": [
            "route"
          ]
        },
        {
          "long_name": "\u9577\u6c99\u7063",
          "short_name": "\u9577\u6c99\u7063",
          "types": [
            "neighborhood",
            "political"
          ]
        },
        {
          "long_name": "\u4e5d\u9f8d",
          "short_name": "\u4e5d\u9f8d",
          "types": [
            "administrative_area_level_1",
            "political"
          ]
        },
        {
          "long_name": "\u9999\u6e2f",
          "short_name": "HK",
          "types": [
            "country",
            "political"
          ]
        }
      ],
      "formatted_address": "\u9999\u6e2f\u9577\u6c99\u7063\u96c6\u8f1d\u88572-12A\u865f\u8000\u8f1d\u5927\u5ec8",
      "geometry": {
        "bounds": {
          "northeast": {
            "lat": 22.340484,
            "lng": 114.1529261
          },
          "southwest": {
            "lat": 22.340257,
            "lng": 114.152714
          }
        },
        "location": {
          "lat": 22.340364,
          "lng": 114.1528068
        },
        "location_type": "ROOFTOP",
        "viewport": {
          "northeast": {
            "lat": 22.3417194802915,
            "lng": 114.1541690302915
          },
          "southwest": {
            "lat": 22.3390215197085,
            "lng": 114.1514710697085
          }
        }
      },
      "partial_match": true,
      "place_id": "ChIJJfrQd1EHBDQROHhG11DL-4M",
      "types": [
        "premise"
      ]
    }
  ],
  "licno": "3163802014",
  "timestamp": 1564975666,
  "version": "1564966095"
}
