{
  "adr_en": "BACKYARD BAR, 2/F, RICH TOWERS, 2 BLENHEIM AVE, TSIM SHA TSUI, KOWLOON",
  "adr_tc": "\u4e5d\u9f8d\u5c16\u6c99\u5480\u767d\u862d\u8ed2\u90532\u865f\u5bcc\u5cf0\u884c2\u6a13 BACKYARD BAR",
  "geocode_en": [
    {
      "address_components": [
        {
          "long_name": "2/F",
          "short_name": "2/F",
          "types": [
            "subpremise"
          ]
        },
        {
          "long_name": "\u5bcc\u5cf0\u884c",
          "short_name": "\u5bcc\u5cf0\u884c",
          "types": [
            "premise"
          ]
        },
        {
          "long_name": "\u5c16\u6c99\u5480",
          "short_name": "\u5c16\u6c99\u5480",
          "types": [
            "neighborhood",
            "political"
          ]
        },
        {
          "long_name": "\u4e5d\u9f8d",
          "short_name": "\u4e5d\u9f8d",
          "types": [
            "administrative_area_level_1",
            "political"
          ]
        },
        {
          "long_name": "Hong Kong",
          "short_name": "HK",
          "types": [
            "country",
            "political"
          ]
        }
      ],
      "formatted_address": "Hong Kong, \u5c16\u6c99\u5480\u5bcc\u5cf0\u884c2/F",
      "geometry": {
        "location": {
          "lat": 22.2969436,
          "lng": 114.174444
        },
        "location_type": "ROOFTOP",
        "viewport": {
          "northeast": {
            "lat": 22.2982925802915,
            "lng": 114.1757929802915
          },
          "southwest": {
            "lat": 22.2955946197085,
            "lng": 114.1730950197085
          }
        }
      },
      "partial_match": true,
      "place_id": "ChIJJVBhiEMBBDQRGWiJCLdcK1A",
      "plus_code": {
        "compound_code": "75WF+QQ Tsim Sha Tsui, Hong Kong",
        "global_code": "7PJP75WF+QQ"
      },
      "types": [
        "bar",
        "establishment",
        "point_of_interest"
      ]
    },
    {
      "address_components": [
        {
          "long_name": "Rich Towers",
          "short_name": "Rich Towers",
          "types": [
            "premise"
          ]
        },
        {
          "long_name": "2",
          "short_name": "2",
          "types": [
            "street_number"
          ]
        },
        {
          "long_name": "Blenheim Avenue",
          "short_name": "Blenheim Ave",
          "types": [
            "route"
          ]
        },
        {
          "long_name": "Tsim Sha Tsui",
          "short_name": "Tsim Sha Tsui",
          "types": [
            "neighborhood",
            "political"
          ]
        },
        {
          "long_name": "Kowloon",
          "short_name": "Kowloon",
          "types": [
            "administrative_area_level_1",
            "political"
          ]
        },
        {
          "long_name": "Hong Kong",
          "short_name": "HK",
          "types": [
            "country",
            "political"
          ]
        }
      ],
      "formatted_address": "Rich Towers, 2 Blenheim Ave, Tsim Sha Tsui, Hong Kong",
      "geometry": {
        "bounds": {
          "northeast": {
            "lat": 22.297024,
            "lng": 114.1744969
          },
          "southwest": {
            "lat": 22.296967,
            "lng": 114.174399
          }
        },
        "location": {
          "lat": 22.2970022,
          "lng": 114.174462
        },
        "location_type": "ROOFTOP",
        "viewport": {
          "northeast": {
            "lat": 22.2983444802915,
            "lng": 114.1757969302915
          },
          "southwest": {
            "lat": 22.2956465197085,
            "lng": 114.1730989697085
          }
        }
      },
      "partial_match": true,
      "place_id": "ChIJTa6w4vEABDQRWGqCqoEU0kc",
      "types": [
        "premise"
      ]
    }
  ],
  "geocode_tc": [
    {
      "address_components": [
        {
          "long_name": "\u5bcc\u5cf0\u884c",
          "short_name": "\u5bcc\u5cf0\u884c",
          "types": [
            "premise"
          ]
        },
        {
          "long_name": "2",
          "short_name": "2",
          "types": [
            "street_number"
          ]
        },
        {
          "long_name": "\u767d\u862d\u8ed2\u9053",
          "short_name": "\u767d\u862d\u8ed2\u9053",
          "types": [
            "route"
          ]
        },
        {
          "long_name": "\u5c16\u6c99\u5480",
          "short_name": "\u5c16\u6c99\u5480",
          "types": [
            "neighborhood",
            "political"
          ]
        },
        {
          "long_name": "\u4e5d\u9f8d",
          "short_name": "\u4e5d\u9f8d",
          "types": [
            "administrative_area_level_1",
            "political"
          ]
        },
        {
          "long_name": "\u9999\u6e2f",
          "short_name": "HK",
          "types": [
            "country",
            "political"
          ]
        }
      ],
      "formatted_address": "\u9999\u6e2f\u5c16\u6c99\u5480\u767d\u862d\u8ed2\u90532\u865f\u5bcc\u5cf0\u884c",
      "geometry": {
        "bounds": {
          "northeast": {
            "lat": 22.297024,
            "lng": 114.1744969
          },
          "southwest": {
            "lat": 22.296967,
            "lng": 114.174399
          }
        },
        "location": {
          "lat": 22.2970022,
          "lng": 114.174462
        },
        "location_type": "ROOFTOP",
        "viewport": {
          "northeast": {
            "lat": 22.2983444802915,
            "lng": 114.1757969302915
          },
          "southwest": {
            "lat": 22.2956465197085,
            "lng": 114.1730989697085
          }
        }
      },
      "partial_match": true,
      "place_id": "ChIJTa6w4vEABDQRWGqCqoEU0kc",
      "types": [
        "premise"
      ]
    },
    {
      "address_components": [
        {
          "long_name": "2/F",
          "short_name": "2/F",
          "types": [
            "subpremise"
          ]
        },
        {
          "long_name": "\u5bcc\u5cf0\u884c",
          "short_name": "\u5bcc\u5cf0\u884c",
          "types": [
            "premise"
          ]
        },
        {
          "long_name": "\u5c16\u6c99\u5480",
          "short_name": "\u5c16\u6c99\u5480",
          "types": [
            "neighborhood",
            "political"
          ]
        },
        {
          "long_name": "\u4e5d\u9f8d",
          "short_name": "\u4e5d\u9f8d",
          "types": [
            "administrative_area_level_1",
            "political"
          ]
        },
        {
          "long_name": "\u9999\u6e2f",
          "short_name": "HK",
          "types": [
            "country",
            "political"
          ]
        }
      ],
      "formatted_address": "\u9999\u6e2f\u5c16\u6c99\u5480\u5bcc\u5cf0\u884c2/F",
      "geometry": {
        "location": {
          "lat": 22.2969436,
          "lng": 114.174444
        },
        "location_type": "ROOFTOP",
        "viewport": {
          "northeast": {
            "lat": 22.2982925802915,
            "lng": 114.1757929802915
          },
          "southwest": {
            "lat": 22.2955946197085,
            "lng": 114.1730950197085
          }
        }
      },
      "partial_match": true,
      "place_id": "ChIJJVBhiEMBBDQRGWiJCLdcK1A",
      "plus_code": {
        "compound_code": "75WF+QQ \u9999\u6e2f\u5c16\u6c99\u5480",
        "global_code": "7PJP75WF+QQ"
      },
      "types": [
        "bar",
        "establishment",
        "point_of_interest"
      ]
    }
  ],
  "licno": "3161125072",
  "timestamp": 1564975666,
  "version": "1564966095"
}
