{
  "adr_en": "PICI, SHOP 251, LEVEL 2, NEW TOWN PLAZA PHASE 1, SHA TIN, NEW TERRITORIES",
  "adr_tc": "\u65b0\u754c\u6c99\u7530\u65b0\u57ce\u5e02\u5ee3\u5834\u7b2c\u4e00\u671f2\u6a13251\u865f\u92ea PICI",
  "geocode_en": [
    {
      "address_components": [
        {
          "long_name": "New Territories",
          "short_name": "New Territories",
          "types": [
            "administrative_area_level_1",
            "political"
          ]
        },
        {
          "long_name": "Hong Kong",
          "short_name": "HK",
          "types": [
            "country",
            "political"
          ]
        }
      ],
      "formatted_address": "Shop 251, L2, Phase I, New Town Plaza, Hong Kong",
      "geometry": {
        "location": {
          "lat": 22.3811207,
          "lng": 114.1881369
        },
        "location_type": "GEOMETRIC_CENTER",
        "viewport": {
          "northeast": {
            "lat": 22.3824696802915,
            "lng": 114.1894858802915
          },
          "southwest": {
            "lat": 22.3797717197085,
            "lng": 114.1867879197085
          }
        }
      },
      "partial_match": true,
      "place_id": "ChIJH2fNOQsHBDQROLmMB62iTCo",
      "plus_code": {
        "compound_code": "95JQ+C7 Hong Kong",
        "global_code": "7PJP95JQ+C7"
      },
      "types": [
        "establishment",
        "food",
        "point_of_interest",
        "restaurant"
      ]
    },
    {
      "address_components": [
        {
          "long_name": "18",
          "short_name": "18",
          "types": [
            "street_number"
          ]
        },
        {
          "long_name": "Sha Tin Centre Street",
          "short_name": "Sha Tin Centre St",
          "types": [
            "route"
          ]
        },
        {
          "long_name": "Sha Tin",
          "short_name": "Sha Tin",
          "types": [
            "neighborhood",
            "political"
          ]
        },
        {
          "long_name": "New Territories",
          "short_name": "New Territories",
          "types": [
            "administrative_area_level_1",
            "political"
          ]
        },
        {
          "long_name": "Hong Kong",
          "short_name": "HK",
          "types": [
            "country",
            "political"
          ]
        }
      ],
      "formatted_address": "18 Sha Tin Centre St, Sha Tin, Hong Kong",
      "geometry": {
        "location": {
          "lat": 22.3816318,
          "lng": 114.1887637
        },
        "location_type": "ROOFTOP",
        "viewport": {
          "northeast": {
            "lat": 22.3829807802915,
            "lng": 114.1901126802915
          },
          "southwest": {
            "lat": 22.3802828197085,
            "lng": 114.1874147197085
          }
        }
      },
      "partial_match": true,
      "place_id": "ChIJL6qUpa0HBDQRigrIAwiiQqQ",
      "plus_code": {
        "compound_code": "95JQ+MG Hong Kong",
        "global_code": "7PJP95JQ+MG"
      },
      "types": [
        "establishment",
        "point_of_interest",
        "shopping_mall"
      ]
    }
  ],
  "geocode_tc": [
    {
      "address_components": [
        {
          "long_name": "New Territories",
          "short_name": "New Territories",
          "types": [
            "administrative_area_level_1",
            "political"
          ]
        },
        {
          "long_name": "\u9999\u6e2f",
          "short_name": "HK",
          "types": [
            "country",
            "political"
          ]
        }
      ],
      "formatted_address": "Shop 251, L2, Phase I, New Town Plaza, \u9999\u6e2f",
      "geometry": {
        "location": {
          "lat": 22.3811207,
          "lng": 114.1881369
        },
        "location_type": "GEOMETRIC_CENTER",
        "viewport": {
          "northeast": {
            "lat": 22.3824696802915,
            "lng": 114.1894858802915
          },
          "southwest": {
            "lat": 22.3797717197085,
            "lng": 114.1867879197085
          }
        }
      },
      "place_id": "ChIJH2fNOQsHBDQROLmMB62iTCo",
      "plus_code": {
        "compound_code": "95JQ+C7 \u9999\u6e2f",
        "global_code": "7PJP95JQ+C7"
      },
      "types": [
        "establishment",
        "food",
        "point_of_interest",
        "restaurant"
      ]
    }
  ],
  "licno": "2297806778",
  "timestamp": 1564975666,
  "version": "1564966095"
}
