{
  "adr_en": "\u767c\u8a18\u8178\u7c89, SHOP 4, G/F, CHE WAH BUILDING, 18 YUK WAH CRESCENT, TSZ WAN SHAN, WONG TAI SIN, KOWLOON",
  "adr_tc": "\u4e5d\u9f8d\u9ec3\u5927\u4ed9\u6148\u96f2\u5c71\u6bd3\u83ef\u91cc18\u865f\u6148\u83ef\u5927\u5ec8\u5730\u4e0b4\u865f\u92ea \u767c\u8a18\u8178\u7c89",
  "geocode_en": [
    {
      "address_components": [
        {
          "long_name": "18\u865f",
          "short_name": "18\u865f",
          "types": [
            "street_number"
          ]
        },
        {
          "long_name": "Yuk Wah Crescent",
          "short_name": "Yuk Wah Cres",
          "types": [
            "route"
          ]
        },
        {
          "long_name": "Tsz Wan Shan",
          "short_name": "Tsz Wan Shan",
          "types": [
            "neighborhood",
            "political"
          ]
        },
        {
          "long_name": "Kowloon",
          "short_name": "Kowloon",
          "types": [
            "administrative_area_level_1",
            "political"
          ]
        },
        {
          "long_name": "Hong Kong",
          "short_name": "HK",
          "types": [
            "country",
            "political"
          ]
        }
      ],
      "formatted_address": "18\u865f Yuk Wah Cres, Tsz Wan Shan, Hong Kong",
      "geometry": {
        "location": {
          "lat": 22.34668,
          "lng": 114.2020809
        },
        "location_type": "ROOFTOP",
        "viewport": {
          "northeast": {
            "lat": 22.3480289802915,
            "lng": 114.2034298802915
          },
          "southwest": {
            "lat": 22.3453310197085,
            "lng": 114.2007319197085
          }
        }
      },
      "partial_match": true,
      "place_id": "ChIJ8yXLPd0GBDQR2fwCZYmfS00",
      "plus_code": {
        "compound_code": "86W2+MR Hong Kong",
        "global_code": "7PJP86W2+MR"
      },
      "types": [
        "establishment",
        "food",
        "point_of_interest",
        "restaurant"
      ]
    },
    {
      "address_components": [
        {
          "long_name": "Che Wah Building",
          "short_name": "Che Wah Building",
          "types": [
            "premise"
          ]
        },
        {
          "long_name": "2-8",
          "short_name": "2-8",
          "types": [
            "street_number"
          ]
        },
        {
          "long_name": "Po Ying Lane",
          "short_name": "Po Ying Ln",
          "types": [
            "route"
          ]
        },
        {
          "long_name": "Tsz Wan Shan",
          "short_name": "Tsz Wan Shan",
          "types": [
            "neighborhood",
            "political"
          ]
        },
        {
          "long_name": "Kowloon",
          "short_name": "Kowloon",
          "types": [
            "administrative_area_level_1",
            "political"
          ]
        },
        {
          "long_name": "Hong Kong",
          "short_name": "HK",
          "types": [
            "country",
            "political"
          ]
        }
      ],
      "formatted_address": "Che Wah Building, 2-8 Po Ying Ln, Tsz Wan Shan, Hong Kong",
      "geometry": {
        "bounds": {
          "northeast": {
            "lat": 22.3466989,
            "lng": 114.2023021
          },
          "southwest": {
            "lat": 22.34636,
            "lng": 114.2019989
          }
        },
        "location": {
          "lat": 22.3465288,
          "lng": 114.2021304
        },
        "location_type": "ROOFTOP",
        "viewport": {
          "northeast": {
            "lat": 22.34787843029151,
            "lng": 114.2034994802915
          },
          "southwest": {
            "lat": 22.3451804697085,
            "lng": 114.2008015197085
          }
        }
      },
      "partial_match": true,
      "place_id": "ChIJEe7xPN0GBDQRXndYS4qXEGY",
      "types": [
        "premise"
      ]
    }
  ],
  "geocode_tc": [
    {
      "address_components": [
        {
          "long_name": "\u865f\u92ea",
          "short_name": "\u865f\u92ea",
          "types": [
            "subpremise"
          ]
        },
        {
          "long_name": "\u6148\u83ef\u5927\u5ec8",
          "short_name": "\u6148\u83ef\u5927\u5ec8",
          "types": [
            "premise"
          ]
        },
        {
          "long_name": "2-8",
          "short_name": "2-8",
          "types": [
            "street_number"
          ]
        },
        {
          "long_name": "\u84b2\u82f1\u91cc",
          "short_name": "\u84b2\u82f1\u91cc",
          "types": [
            "route"
          ]
        },
        {
          "long_name": "\u6148\u96f2\u5c71",
          "short_name": "\u6148\u96f2\u5c71",
          "types": [
            "neighborhood",
            "political"
          ]
        },
        {
          "long_name": "\u4e5d\u9f8d",
          "short_name": "\u4e5d\u9f8d",
          "types": [
            "administrative_area_level_1",
            "political"
          ]
        },
        {
          "long_name": "\u9999\u6e2f",
          "short_name": "HK",
          "types": [
            "country",
            "political"
          ]
        }
      ],
      "formatted_address": "\u9999\u6e2f\u6148\u96f2\u5c71\u84b2\u82f1\u91cc2-8\u865f\u6148\u83ef\u5927\u5ec8\u865f\u92ea",
      "geometry": {
        "bounds": {
          "northeast": {
            "lat": 22.3466989,
            "lng": 114.2023021
          },
          "southwest": {
            "lat": 22.34636,
            "lng": 114.2019989
          }
        },
        "location": {
          "lat": 22.3465288,
          "lng": 114.2021304
        },
        "location_type": "ROOFTOP",
        "viewport": {
          "northeast": {
            "lat": 22.34787843029151,
            "lng": 114.2034994802915
          },
          "southwest": {
            "lat": 22.3451804697085,
            "lng": 114.2008015197085
          }
        }
      },
      "partial_match": true,
      "place_id": "EkHomZ_pi6osIENoZSBXYWggQnVpbGRpbmcsIDItOCBQbyBZaW5nIExuLCBUc3ogV2FuIFNoYW4sIEhvbmcgS29uZyIiGiAKFgoUChIJEe7xPN0GBDQRXndYS4qXEGYSBuiZn-mLqg",
      "types": [
        "subpremise"
      ]
    },
    {
      "address_components": [
        {
          "long_name": "18\u865f",
          "short_name": "18\u865f",
          "types": [
            "street_number"
          ]
        },
        {
          "long_name": "\u6bd3\u83ef\u91cc",
          "short_name": "\u6bd3\u83ef\u91cc",
          "types": [
            "route"
          ]
        },
        {
          "long_name": "\u6148\u96f2\u5c71",
          "short_name": "\u6148\u96f2\u5c71",
          "types": [
            "neighborhood",
            "political"
          ]
        },
        {
          "long_name": "\u4e5d\u9f8d",
          "short_name": "\u4e5d\u9f8d",
          "types": [
            "administrative_area_level_1",
            "political"
          ]
        },
        {
          "long_name": "\u9999\u6e2f",
          "short_name": "HK",
          "types": [
            "country",
            "political"
          ]
        }
      ],
      "formatted_address": "\u9999\u6e2f\u6148\u96f2\u5c71\u6bd3\u83ef\u91cc18\u865f",
      "geometry": {
        "location": {
          "lat": 22.34668,
          "lng": 114.2020809
        },
        "location_type": "ROOFTOP",
        "viewport": {
          "northeast": {
            "lat": 22.3480289802915,
            "lng": 114.2034298802915
          },
          "southwest": {
            "lat": 22.3453310197085,
            "lng": 114.2007319197085
          }
        }
      },
      "partial_match": true,
      "place_id": "ChIJ8yXLPd0GBDQR2fwCZYmfS00",
      "plus_code": {
        "compound_code": "86W2+MR \u9999\u6e2f",
        "global_code": "7PJP86W2+MR"
      },
      "types": [
        "establishment",
        "food",
        "point_of_interest",
        "restaurant"
      ]
    },
    {
      "address_components": [
        {
          "long_name": "\u6148\u83ef\u5927\u5ec8",
          "short_name": "\u6148\u83ef\u5927\u5ec8",
          "types": [
            "premise"
          ]
        },
        {
          "long_name": "2-8",
          "short_name": "2-8",
          "types": [
            "street_number"
          ]
        },
        {
          "long_name": "\u84b2\u82f1\u91cc",
          "short_name": "\u84b2\u82f1\u91cc",
          "types": [
            "route"
          ]
        },
        {
          "long_name": "\u6148\u96f2\u5c71",
          "short_name": "\u6148\u96f2\u5c71",
          "types": [
            "neighborhood",
            "political"
          ]
        },
        {
          "long_name": "\u4e5d\u9f8d",
          "short_name": "\u4e5d\u9f8d",
          "types": [
            "administrative_area_level_1",
            "political"
          ]
        },
        {
          "long_name": "\u9999\u6e2f",
          "short_name": "HK",
          "types": [
            "country",
            "political"
          ]
        }
      ],
      "formatted_address": "\u9999\u6e2f\u6148\u96f2\u5c71\u84b2\u82f1\u91cc2-8\u865f\u6148\u83ef\u5927\u5ec8",
      "geometry": {
        "bounds": {
          "northeast": {
            "lat": 22.3466989,
            "lng": 114.2023021
          },
          "southwest": {
            "lat": 22.34636,
            "lng": 114.2019989
          }
        },
        "location": {
          "lat": 22.3465288,
          "lng": 114.2021304
        },
        "location_type": "ROOFTOP",
        "viewport": {
          "northeast": {
            "lat": 22.34787843029151,
            "lng": 114.2034994802915
          },
          "southwest": {
            "lat": 22.3451804697085,
            "lng": 114.2008015197085
          }
        }
      },
      "partial_match": true,
      "place_id": "ChIJEe7xPN0GBDQRXndYS4qXEGY",
      "types": [
        "premise"
      ]
    }
  ],
  "licno": "2253803830",
  "timestamp": 1564968756,
  "version": "1564966095"
}
