{
  "adr_en": "DALAT VIENAMESE RESTAURANT, SHOP 15, G/F., MAYLUN APARTMENTS, NOS. 442-456 KING'S ROAD & NOS. 1-25 SHU KUK STREET, NORTH POINT, HONG KONG",
  "adr_tc": "\u9999\u6e2f\u5317\u89d2\u66f8\u5c40\u88571-25\u865f\u53ca\u82f1\u7687\u9053442-456\u865f \u7f8e\u8f2a\u5927\u5ec8\u5730\u4e0b15\u865f\u8216 \u5927\u53fb\u8d8a\u5357\u725b\u8089\u7c89\u9910\u5ef3",
  "geocode_en": [
    {
      "address_components": [
        {
          "long_name": "Dalat",
          "short_name": "Dalat",
          "types": [
            "locality",
            "political"
          ]
        },
        {
          "long_name": "L\u00e2m \u0110\u1ed3ng",
          "short_name": "L\u00e2m \u0110\u1ed3ng",
          "types": [
            "administrative_area_level_1",
            "political"
          ]
        },
        {
          "long_name": "Vietnam",
          "short_name": "VN",
          "types": [
            "country",
            "political"
          ]
        }
      ],
      "formatted_address": "Dalat, L\u00e2m \u0110\u1ed3ng, Vietnam",
      "geometry": {
        "bounds": {
          "northeast": {
            "lat": 12.002635,
            "lng": 108.5906696
          },
          "southwest": {
            "lat": 11.8051867,
            "lng": 108.3107758
          }
        },
        "location": {
          "lat": 11.9404192,
          "lng": 108.4583132
        },
        "location_type": "APPROXIMATE",
        "viewport": {
          "northeast": {
            "lat": 12.002635,
            "lng": 108.5906696
          },
          "southwest": {
            "lat": 11.8051867,
            "lng": 108.3107758
          }
        }
      },
      "partial_match": true,
      "place_id": "ChIJsYgJ8v4ScTERMPkrZ4siX60",
      "types": [
        "locality",
        "political"
      ]
    },
    {
      "address_components": [
        {
          "long_name": "442",
          "short_name": "442",
          "types": [
            "street_number"
          ]
        },
        {
          "long_name": "King's Road",
          "short_name": "King's Rd",
          "types": [
            "route"
          ]
        },
        {
          "long_name": "North Point",
          "short_name": "North Point",
          "types": [
            "neighborhood",
            "political"
          ]
        },
        {
          "long_name": "Hong Kong Island",
          "short_name": "Hong Kong Island",
          "types": [
            "administrative_area_level_1",
            "political"
          ]
        },
        {
          "long_name": "Hong Kong",
          "short_name": "HK",
          "types": [
            "country",
            "political"
          ]
        }
      ],
      "formatted_address": "442 King's Rd, North Point, Hong Kong",
      "geometry": {
        "location": {
          "lat": 22.290958,
          "lng": 114.200188
        },
        "location_type": "ROOFTOP",
        "viewport": {
          "northeast": {
            "lat": 22.2923069802915,
            "lng": 114.2015369802915
          },
          "southwest": {
            "lat": 22.2896090197085,
            "lng": 114.1988390197085
          }
        }
      },
      "partial_match": true,
      "place_id": "ChIJ8RIl4wQBBDQR4pfFJ_AqBnA",
      "plus_code": {
        "compound_code": "76R2+93 Hong Kong",
        "global_code": "7PJP76R2+93"
      },
      "types": [
        "establishment",
        "point_of_interest"
      ]
    },
    {
      "address_components": [
        {
          "long_name": "1-25",
          "short_name": "1-25",
          "types": [
            "street_number"
          ]
        },
        {
          "long_name": "Shu Kuk Street",
          "short_name": "Shu Kuk St",
          "types": [
            "route"
          ]
        },
        {
          "long_name": "North Point",
          "short_name": "North Point",
          "types": [
            "neighborhood",
            "political"
          ]
        },
        {
          "long_name": "Hong Kong Island",
          "short_name": "Hong Kong Island",
          "types": [
            "administrative_area_level_1",
            "political"
          ]
        },
        {
          "long_name": "Hong Kong",
          "short_name": "HK",
          "types": [
            "country",
            "political"
          ]
        }
      ],
      "formatted_address": "1-25 Shu Kuk St, North Point, Hong Kong",
      "geometry": {
        "location": {
          "lat": 22.2907643,
          "lng": 114.2002727
        },
        "location_type": "ROOFTOP",
        "viewport": {
          "northeast": {
            "lat": 22.2921132802915,
            "lng": 114.2016216802915
          },
          "southwest": {
            "lat": 22.2894153197085,
            "lng": 114.1989237197085
          }
        }
      },
      "partial_match": true,
      "place_id": "ChIJvfHx_AQBBDQRH8WhsqxWfS8",
      "plus_code": {
        "compound_code": "76R2+84 Hong Kong",
        "global_code": "7PJP76R2+84"
      },
      "types": [
        "street_address"
      ]
    }
  ],
  "geocode_tc": [
    {
      "address_components": [
        {
          "long_name": "13",
          "short_name": "13",
          "types": [
            "street_number"
          ]
        },
        {
          "long_name": "\u66f8\u5c40\u8857",
          "short_name": "\u66f8\u5c40\u8857",
          "types": [
            "route"
          ]
        },
        {
          "long_name": "\u5317\u89d2",
          "short_name": "\u5317\u89d2",
          "types": [
            "neighborhood",
            "political"
          ]
        },
        {
          "long_name": "\u9999\u6e2f\u5cf6",
          "short_name": "\u9999\u6e2f\u5cf6",
          "types": [
            "administrative_area_level_1",
            "political"
          ]
        },
        {
          "long_name": "\u9999\u6e2f",
          "short_name": "HK",
          "types": [
            "country",
            "political"
          ]
        }
      ],
      "formatted_address": "\u9999\u6e2f\u5317\u89d2\u66f8\u5c40\u885713\u865f",
      "geometry": {
        "location": {
          "lat": 22.2907598,
          "lng": 114.2003395
        },
        "location_type": "ROOFTOP",
        "viewport": {
          "northeast": {
            "lat": 22.2921087802915,
            "lng": 114.2016884802915
          },
          "southwest": {
            "lat": 22.2894108197085,
            "lng": 114.1989905197085
          }
        }
      },
      "partial_match": true,
      "place_id": "ChIJK91t_QQBBDQRuK3qFKIfHnU",
      "plus_code": {
        "compound_code": "76R2+84 \u9999\u6e2f",
        "global_code": "7PJP76R2+84"
      },
      "types": [
        "establishment",
        "food",
        "point_of_interest",
        "restaurant"
      ]
    },
    {
      "address_components": [
        {
          "long_name": "\u7f8e\u8f2a\u5927\u5ec8",
          "short_name": "\u7f8e\u8f2a\u5927\u5ec8",
          "types": [
            "premise"
          ]
        },
        {
          "long_name": "442-456",
          "short_name": "442-456",
          "types": [
            "street_number"
          ]
        },
        {
          "long_name": "\u82f1\u7687\u9053",
          "short_name": "\u82f1\u7687\u9053",
          "types": [
            "route"
          ]
        },
        {
          "long_name": "\u5317\u89d2",
          "short_name": "\u5317\u89d2",
          "types": [
            "neighborhood",
            "political"
          ]
        },
        {
          "long_name": "\u9999\u6e2f\u5cf6",
          "short_name": "\u9999\u6e2f\u5cf6",
          "types": [
            "administrative_area_level_1",
            "political"
          ]
        },
        {
          "long_name": "\u9999\u6e2f",
          "short_name": "HK",
          "types": [
            "country",
            "political"
          ]
        }
      ],
      "formatted_address": "\u9999\u6e2f\u5317\u89d2\u82f1\u7687\u9053442-456\u865f\u7f8e\u8f2a\u5927\u5ec8",
      "geometry": {
        "bounds": {
          "northeast": {
            "lat": 22.291019,
            "lng": 114.2003829
          },
          "southwest": {
            "lat": 22.290538,
            "lng": 114.199935
          }
        },
        "location": {
          "lat": 22.2907643,
          "lng": 114.2002727
        },
        "location_type": "ROOFTOP",
        "viewport": {
          "northeast": {
            "lat": 22.2921274802915,
            "lng": 114.2015079302915
          },
          "southwest": {
            "lat": 22.2894295197085,
            "lng": 114.1988099697085
          }
        }
      },
      "partial_match": true,
      "place_id": "ChIJvfHx_AQBBDQRWC5wkN5N3Ps",
      "types": [
        "premise"
      ]
    }
  ],
  "licno": "2211807696",
  "timestamp": 1564966180,
  "version": "1564966095"
}
