{
  "adr_en": "\u91d1\u6a02\u8ed2, SHOP NO. 215-216, GROUND FLOOR, LOK HIN TERRACE, 350 CHAI WAN ROAD, CHAI WAN, HONG KONG",
  "adr_tc": "\u9999\u6e2f\u67f4\u7063\u67f4\u7063\u9053350\u865f\u6a02\u8ed2\u81fa\u5730\u4e0b215-216\u865f\u8216 \u91d1\u6a02\u8ed2",
  "geocode_en": [
    {
      "address_components": [
        {
          "long_name": "Hong Kong",
          "short_name": "HK",
          "types": [
            "country",
            "political"
          ]
        }
      ],
      "formatted_address": "Hong Kong, \u67f4\u7063\u67f4\u7063\u9053350\u865f\u6a02\u8ed2\u81fa215-216\u865f\u8216",
      "geometry": {
        "location": {
          "lat": 22.2641416,
          "lng": 114.2407121
        },
        "location_type": "GEOMETRIC_CENTER",
        "viewport": {
          "northeast": {
            "lat": 22.2654905802915,
            "lng": 114.2420610802915
          },
          "southwest": {
            "lat": 22.2627926197085,
            "lng": 114.2393631197085
          }
        }
      },
      "partial_match": true,
      "place_id": "ChIJXVDg2ycCBDQRLNvNYdjM3o4",
      "plus_code": {
        "compound_code": "767R+M7 Hong Kong",
        "global_code": "7PJP767R+M7"
      },
      "types": [
        "establishment",
        "food",
        "point_of_interest",
        "restaurant"
      ]
    },
    {
      "address_components": [
        {
          "long_name": "350",
          "short_name": "350",
          "types": [
            "street_number"
          ]
        },
        {
          "long_name": "Chai Wan Road",
          "short_name": "Chai Wan Rd",
          "types": [
            "route"
          ]
        },
        {
          "long_name": "Chai Wan",
          "short_name": "Chai Wan",
          "types": [
            "neighborhood",
            "political"
          ]
        },
        {
          "long_name": "Hong Kong Island",
          "short_name": "Hong Kong Island",
          "types": [
            "administrative_area_level_1",
            "political"
          ]
        },
        {
          "long_name": "Hong Kong",
          "short_name": "HK",
          "types": [
            "country",
            "political"
          ]
        }
      ],
      "formatted_address": "350 Chai Wan Rd, Chai Wan, Hong Kong",
      "geometry": {
        "location": {
          "lat": 22.263897,
          "lng": 114.240544
        },
        "location_type": "ROOFTOP",
        "viewport": {
          "northeast": {
            "lat": 22.2652459802915,
            "lng": 114.2418929802915
          },
          "southwest": {
            "lat": 22.2625480197085,
            "lng": 114.2391950197085
          }
        }
      },
      "partial_match": true,
      "place_id": "ChIJu8f13ScCBDQRY32ur5M-yxE",
      "plus_code": {
        "compound_code": "767R+H6 Hong Kong",
        "global_code": "7PJP767R+H6"
      },
      "types": [
        "establishment",
        "point_of_interest"
      ]
    }
  ],
  "geocode_tc": [
    {
      "address_components": [
        {
          "long_name": "\u9999\u6e2f",
          "short_name": "HK",
          "types": [
            "country",
            "political"
          ]
        }
      ],
      "formatted_address": "\u9999\u6e2f\u67f4\u7063\u67f4\u7063\u9053350\u865f\u6a02\u8ed2\u81fa215-216\u865f\u8216",
      "geometry": {
        "location": {
          "lat": 22.2641416,
          "lng": 114.2407121
        },
        "location_type": "GEOMETRIC_CENTER",
        "viewport": {
          "northeast": {
            "lat": 22.2654905802915,
            "lng": 114.2420610802915
          },
          "southwest": {
            "lat": 22.2627926197085,
            "lng": 114.2393631197085
          }
        }
      },
      "place_id": "ChIJXVDg2ycCBDQRLNvNYdjM3o4",
      "plus_code": {
        "compound_code": "767R+M7 \u9999\u6e2f",
        "global_code": "7PJP767R+M7"
      },
      "types": [
        "establishment",
        "food",
        "point_of_interest",
        "restaurant"
      ]
    }
  ],
  "licno": "2211803560",
  "timestamp": 1564966180,
  "version": "1564966095"
}
