{
  "adr_en": "BAR PACIFIC, SHOP A, BLOCK B, G/F., YEN LOK BUILDING, 120 WAN TSUI ROAD, CHAI WAN, HONG KONG",
  "adr_tc": "\u9999\u6e2f\u67f4\u7063\u74b0\u7fe0\u9053120\u865f\u4ec1\u6a02\u5927\u5ec8\u5730\u4e0bB\u5ea7A\u92ea \u592a\u5e73\u6d0b\u9152\u5427",
  "geocode_en": [
    {
      "address_components": [
        {
          "long_name": "Yen Lok Building Block B",
          "short_name": "Yen Lok Building Block B",
          "types": [
            "premise"
          ]
        },
        {
          "long_name": "120",
          "short_name": "120",
          "types": [
            "street_number"
          ]
        },
        {
          "long_name": "Wan Tsui Road",
          "short_name": "Wan Tsui Rd",
          "types": [
            "route"
          ]
        },
        {
          "long_name": "Chai Wan",
          "short_name": "Chai Wan",
          "types": [
            "neighborhood",
            "political"
          ]
        },
        {
          "long_name": "Hong Kong Island",
          "short_name": "Hong Kong Island",
          "types": [
            "administrative_area_level_1",
            "political"
          ]
        },
        {
          "long_name": "Hong Kong",
          "short_name": "HK",
          "types": [
            "country",
            "political"
          ]
        }
      ],
      "formatted_address": "Yen Lok Building Block B, 120 Wan Tsui Rd, Chai Wan, Hong Kong",
      "geometry": {
        "bounds": {
          "northeast": {
            "lat": 22.261949,
            "lng": 114.2360499
          },
          "southwest": {
            "lat": 22.2615559,
            "lng": 114.235669
          }
        },
        "location": {
          "lat": 22.261789,
          "lng": 114.2358456
        },
        "location_type": "ROOFTOP",
        "viewport": {
          "northeast": {
            "lat": 22.2631014302915,
            "lng": 114.2372084302915
          },
          "southwest": {
            "lat": 22.2604034697085,
            "lng": 114.2345104697085
          }
        }
      },
      "partial_match": true,
      "place_id": "ChIJcfv4BokBBDQRWjhaHDIzgRY",
      "types": [
        "premise"
      ]
    }
  ],
  "geocode_tc": [
    {
      "address_components": [
        {
          "long_name": "\u4ec1\u6a02\u5927\u5ec8B\u5ea7",
          "short_name": "\u4ec1\u6a02\u5927\u5ec8B\u5ea7",
          "types": [
            "premise"
          ]
        },
        {
          "long_name": "120",
          "short_name": "120",
          "types": [
            "street_number"
          ]
        },
        {
          "long_name": "\u74b0\u7fe0\u9053",
          "short_name": "\u74b0\u7fe0\u9053",
          "types": [
            "route"
          ]
        },
        {
          "long_name": "\u67f4\u7063",
          "short_name": "\u67f4\u7063",
          "types": [
            "neighborhood",
            "political"
          ]
        },
        {
          "long_name": "\u9999\u6e2f\u5cf6",
          "short_name": "\u9999\u6e2f\u5cf6",
          "types": [
            "administrative_area_level_1",
            "political"
          ]
        },
        {
          "long_name": "\u9999\u6e2f",
          "short_name": "HK",
          "types": [
            "country",
            "political"
          ]
        }
      ],
      "formatted_address": "\u9999\u6e2f\u67f4\u7063\u74b0\u7fe0\u9053120\u865f\u4ec1\u6a02\u5927\u5ec8B\u5ea7",
      "geometry": {
        "bounds": {
          "northeast": {
            "lat": 22.261949,
            "lng": 114.2360499
          },
          "southwest": {
            "lat": 22.2615559,
            "lng": 114.235669
          }
        },
        "location": {
          "lat": 22.261789,
          "lng": 114.2358456
        },
        "location_type": "ROOFTOP",
        "viewport": {
          "northeast": {
            "lat": 22.2631014302915,
            "lng": 114.2372084302915
          },
          "southwest": {
            "lat": 22.2604034697085,
            "lng": 114.2345104697085
          }
        }
      },
      "partial_match": true,
      "place_id": "ChIJcfv4BokBBDQRWjhaHDIzgRY",
      "types": [
        "premise"
      ]
    }
  ],
  "licno": "3111803160",
  "timestamp": 1564975666,
  "version": "1564966095"
}
