{
  "adr_en": "Butao, G/F, FORTUNA BUILDING, 69 WELLINGTON STREET, CENTRAL, HONG KONG",
  "adr_tc": "\u9999\u6e2f\u4e2d\u74b0 \u5a01\u9748\u9813\u885769\u865f \u5bcc\u9e97\u6a13\u5730\u4e0b \u8c5a\u738b",
  "geocode_en": [
    {
      "address_components": [
        {
          "long_name": "69",
          "short_name": "69",
          "types": [
            "street_number"
          ]
        },
        {
          "long_name": "Wellington Street",
          "short_name": "Wellington St",
          "types": [
            "route"
          ]
        },
        {
          "long_name": "Central",
          "short_name": "Central",
          "types": [
            "neighborhood",
            "political"
          ]
        },
        {
          "long_name": "Hong Kong Island",
          "short_name": "Hong Kong Island",
          "types": [
            "administrative_area_level_1",
            "political"
          ]
        },
        {
          "long_name": "Hong Kong",
          "short_name": "HK",
          "types": [
            "country",
            "political"
          ]
        }
      ],
      "formatted_address": "69 Wellington St, Central, Hong Kong",
      "geometry": {
        "location": {
          "lat": 22.2828819,
          "lng": 114.1547298
        },
        "location_type": "ROOFTOP",
        "viewport": {
          "northeast": {
            "lat": 22.2842308802915,
            "lng": 114.1560787802915
          },
          "southwest": {
            "lat": 22.2815329197085,
            "lng": 114.1533808197085
          }
        }
      },
      "partial_match": true,
      "place_id": "ChIJqcB-W3sABDQRns4Ngt0WbNw",
      "plus_code": {
        "compound_code": "75M3+5V Central, Hong Kong",
        "global_code": "7PJP75M3+5V"
      },
      "types": [
        "establishment",
        "food",
        "point_of_interest",
        "restaurant"
      ]
    },
    {
      "address_components": [
        {
          "long_name": "Fortuna Building",
          "short_name": "Fortuna Building",
          "types": [
            "premise"
          ]
        },
        {
          "long_name": "63-69",
          "short_name": "63-69",
          "types": [
            "street_number"
          ]
        },
        {
          "long_name": "Wellington Street",
          "short_name": "Wellington St",
          "types": [
            "route"
          ]
        },
        {
          "long_name": "Central",
          "short_name": "Central",
          "types": [
            "neighborhood",
            "political"
          ]
        },
        {
          "long_name": "Hong Kong Island",
          "short_name": "Hong Kong Island",
          "types": [
            "administrative_area_level_1",
            "political"
          ]
        },
        {
          "long_name": "Hong Kong",
          "short_name": "HK",
          "types": [
            "country",
            "political"
          ]
        }
      ],
      "formatted_address": "Fortuna Building, 63-69 Wellington St, Central, Hong Kong",
      "geometry": {
        "bounds": {
          "northeast": {
            "lat": 22.2829519,
            "lng": 114.154887
          },
          "southwest": {
            "lat": 22.2827991,
            "lng": 114.1547349
          }
        },
        "location": {
          "lat": 22.2828611,
          "lng": 114.1548272
        },
        "location_type": "ROOFTOP",
        "viewport": {
          "northeast": {
            "lat": 22.2842244802915,
            "lng": 114.1561599302915
          },
          "southwest": {
            "lat": 22.2815265197085,
            "lng": 114.1534619697085
          }
        }
      },
      "partial_match": true,
      "place_id": "ChIJb-EKW3sABDQR5gLiZWI1A_U",
      "types": [
        "premise"
      ]
    }
  ],
  "geocode_tc": [
    {
      "address_components": [
        {
          "long_name": "\u5730\u4e0b \u8c5a\u738b",
          "short_name": "\u5730\u4e0b \u8c5a\u738b",
          "types": [
            "subpremise"
          ]
        },
        {
          "long_name": "\u5bcc\u9e97\u6a13",
          "short_name": "\u5bcc\u9e97\u6a13",
          "types": [
            "premise"
          ]
        },
        {
          "long_name": "63-69",
          "short_name": "63-69",
          "types": [
            "street_number"
          ]
        },
        {
          "long_name": "\u5a01\u9748\u9813\u8857",
          "short_name": "\u5a01\u9748\u9813\u8857",
          "types": [
            "route"
          ]
        },
        {
          "long_name": "\u4e2d\u74b0",
          "short_name": "\u4e2d\u74b0",
          "types": [
            "neighborhood",
            "political"
          ]
        },
        {
          "long_name": "\u9999\u6e2f\u5cf6",
          "short_name": "\u9999\u6e2f\u5cf6",
          "types": [
            "administrative_area_level_1",
            "political"
          ]
        },
        {
          "long_name": "\u9999\u6e2f",
          "short_name": "HK",
          "types": [
            "country",
            "political"
          ]
        }
      ],
      "formatted_address": "\u9999\u6e2f\u4e2d\u74b0\u5a01\u9748\u9813\u885763-69\u865f\u5bcc\u9e97\u6a13\u5730\u4e0b \u8c5a\u738b",
      "geometry": {
        "bounds": {
          "northeast": {
            "lat": 22.2829519,
            "lng": 114.154887
          },
          "southwest": {
            "lat": 22.2827991,
            "lng": 114.1547349
          }
        },
        "location": {
          "lat": 22.2828611,
          "lng": 114.1548272
        },
        "location_type": "ROOFTOP",
        "viewport": {
          "northeast": {
            "lat": 22.2842244802915,
            "lng": 114.1561599302915
          },
          "southwest": {
            "lat": 22.2815265197085,
            "lng": 114.1534619697085
          }
        }
      },
      "place_id": "EkjlnLDkuIsg6LGa546LLCBGb3J0dW5hIEJ1aWxkaW5nLCA2My02OSBXZWxsaW5ndG9uIFN0LCBDZW50cmFsLCBIb25nIEtvbmciKRonChYKFAoSCW_hClt7AAQ0EeYC4mViNQP1Eg3lnLDkuIsg6LGa546L",
      "types": [
        "subpremise"
      ]
    }
  ],
  "licno": "3113136242",
  "timestamp": 1564975666,
  "version": "1564966095"
}
