{
  "adr_en": "\u9280\u5ea7\u57ce\u591c\u7e3d\u6703, M/F, 78-84 LAI CHI KOK RD, MONG KOK, KOWLOON",
  "adr_tc": "\u4e5d\u9f8d\u65fa\u89d2\u8354\u679d\u89d2\u905378-84\u865f\u95a3\u6a13 \u9280\u5ea7\u57ce\u591c\u7e3d\u6703",
  "geocode_en": [
    {
      "address_components": [
        {
          "long_name": "Hong Kong",
          "short_name": "HK",
          "types": [
            "country",
            "political"
          ]
        }
      ],
      "formatted_address": "M/F, 78-84 Lai Chi Kok Rd, Mong Kok, Kowloon, Hong Kong",
      "geometry": {
        "location": {
          "lat": 22.324405,
          "lng": 114.166272
        },
        "location_type": "GEOMETRIC_CENTER",
        "viewport": {
          "northeast": {
            "lat": 22.3257539802915,
            "lng": 114.1676209802915
          },
          "southwest": {
            "lat": 22.3230560197085,
            "lng": 114.1649230197085
          }
        }
      },
      "place_id": "ChIJO8SZOLYABDQRRKWlzAc_eYg",
      "plus_code": {
        "compound_code": "85F8+QG Hong Kong",
        "global_code": "7PJP85F8+QG"
      },
      "types": [
        "establishment",
        "point_of_interest"
      ]
    }
  ],
  "geocode_tc": [
    {
      "address_components": [
        {
          "long_name": "\u52dd\u8208\u6a13",
          "short_name": "\u52dd\u8208\u6a13",
          "types": [
            "premise"
          ]
        },
        {
          "long_name": "78-84",
          "short_name": "78-84",
          "types": [
            "street_number"
          ]
        },
        {
          "long_name": "\u8354\u679d\u89d2\u9053",
          "short_name": "\u8354\u679d\u89d2\u9053",
          "types": [
            "route"
          ]
        },
        {
          "long_name": "\u592a\u5b50",
          "short_name": "\u592a\u5b50",
          "types": [
            "neighborhood",
            "political"
          ]
        },
        {
          "long_name": "\u4e5d\u9f8d",
          "short_name": "\u4e5d\u9f8d",
          "types": [
            "administrative_area_level_1",
            "political"
          ]
        },
        {
          "long_name": "\u9999\u6e2f",
          "short_name": "HK",
          "types": [
            "country",
            "political"
          ]
        }
      ],
      "formatted_address": "\u9999\u6e2f\u592a\u5b50\u8354\u679d\u89d2\u905378-84\u865f\u52dd\u8208\u6a13",
      "geometry": {
        "bounds": {
          "northeast": {
            "lat": 22.324516,
            "lng": 114.1663899
          },
          "southwest": {
            "lat": 22.324294,
            "lng": 114.1661541
          }
        },
        "location": {
          "lat": 22.3244007,
          "lng": 114.1662529
        },
        "location_type": "ROOFTOP",
        "viewport": {
          "northeast": {
            "lat": 22.3257539802915,
            "lng": 114.1676209802915
          },
          "southwest": {
            "lat": 22.3230560197085,
            "lng": 114.1649230197085
          }
        }
      },
      "partial_match": true,
      "place_id": "ChIJO8SZOLYABDQRRITqOlKajcU",
      "types": [
        "premise"
      ]
    },
    {
      "address_components": [
        {
          "long_name": "\u9999\u6e2f",
          "short_name": "HK",
          "types": [
            "country",
            "political"
          ]
        }
      ],
      "formatted_address": "M/F, 78-84 Lai Chi Kok Rd, Mong Kok, Kowloon, \u9999\u6e2f",
      "geometry": {
        "location": {
          "lat": 22.324405,
          "lng": 114.166272
        },
        "location_type": "GEOMETRIC_CENTER",
        "viewport": {
          "northeast": {
            "lat": 22.3257539802915,
            "lng": 114.1676209802915
          },
          "southwest": {
            "lat": 22.3230560197085,
            "lng": 114.1649230197085
          }
        }
      },
      "partial_match": true,
      "place_id": "ChIJO8SZOLYABDQRRKWlzAc_eYg",
      "plus_code": {
        "compound_code": "85F8+QG \u9999\u6e2f",
        "global_code": "7PJP85F8+QG"
      },
      "types": [
        "establishment",
        "point_of_interest"
      ]
    }
  ],
  "licno": "3162178240",
  "timestamp": 1564975666,
  "version": "1564966095"
}
