{
  "adr_en": "Garden Restaurant, SHOP NO. 101, KWAI HING SHOPPING CENTRE, KWAI HING ESTATE, KWAI CHUNG, NEW TERRITORIES",
  "adr_tc": "\u65b0\u754c\u8475\u6d8c\u8475\u8208\u90a8 \u8475\u8208\u5546\u5834101\u865f\u92ea \u82b1\u5712\u9152\u5bb6",
  "geocode_en": [
    {
      "address_components": [
        {
          "long_name": "2",
          "short_name": "2",
          "types": [
            "street_number"
          ]
        },
        {
          "long_name": "Wo Kwai Lane",
          "short_name": "Wo Kwai Ln",
          "types": [
            "route"
          ]
        },
        {
          "long_name": "Kwai Chung",
          "short_name": "Kwai Chung",
          "types": [
            "neighborhood",
            "political"
          ]
        },
        {
          "long_name": "Hong Kong",
          "short_name": "HK",
          "types": [
            "country",
            "political"
          ]
        }
      ],
      "formatted_address": "\u865f, 2 Wo Kwai Ln, Kwai Chung, Hong Kong",
      "geometry": {
        "location": {
          "lat": 22.3666903,
          "lng": 114.1330074
        },
        "location_type": "ROOFTOP",
        "viewport": {
          "northeast": {
            "lat": 22.3680392802915,
            "lng": 114.1343563802915
          },
          "southwest": {
            "lat": 22.3653413197085,
            "lng": 114.1316584197085
          }
        }
      },
      "partial_match": true,
      "place_id": "ChIJc0wubJr4AzQRN_vMG_LKcOQ",
      "plus_code": {
        "compound_code": "948M+M6 Hong Kong",
        "global_code": "7PJP948M+M6"
      },
      "types": [
        "establishment",
        "point_of_interest",
        "shopping_mall"
      ]
    },
    {
      "address_components": [
        {
          "long_name": "Kwai Hing Estate Market",
          "short_name": "Kwai Hing Estate Market",
          "types": [
            "premise"
          ]
        },
        {
          "long_name": "2",
          "short_name": "2",
          "types": [
            "street_number"
          ]
        },
        {
          "long_name": "Wo Kwai Lane",
          "short_name": "Wo Kwai Ln",
          "types": [
            "route"
          ]
        },
        {
          "long_name": "Kwai Chung",
          "short_name": "Kwai Chung",
          "types": [
            "neighborhood",
            "political"
          ]
        },
        {
          "long_name": "New Territories",
          "short_name": "New Territories",
          "types": [
            "administrative_area_level_1",
            "political"
          ]
        },
        {
          "long_name": "Hong Kong",
          "short_name": "HK",
          "types": [
            "country",
            "political"
          ]
        }
      ],
      "formatted_address": "Kwai Hing Estate Market, 2 Wo Kwai Ln, Kwai Chung, Hong Kong",
      "geometry": {
        "bounds": {
          "northeast": {
            "lat": 22.3668689,
            "lng": 114.1331811
          },
          "southwest": {
            "lat": 22.366434,
            "lng": 114.132746
          }
        },
        "location": {
          "lat": 22.366696,
          "lng": 114.1329272
        },
        "location_type": "ROOFTOP",
        "viewport": {
          "northeast": {
            "lat": 22.3680004302915,
            "lng": 114.1343125302915
          },
          "southwest": {
            "lat": 22.3653024697085,
            "lng": 114.1316145697085
          }
        }
      },
      "partial_match": true,
      "place_id": "ChIJgYzKbZr4AzQRYJqYMaxvhwU",
      "types": [
        "premise"
      ]
    }
  ],
  "geocode_tc": [
    {
      "address_components": [
        {
          "long_name": "\u8475\u6d8c",
          "short_name": "\u8475\u6d8c",
          "types": [
            "neighborhood",
            "political"
          ]
        },
        {
          "long_name": "\u9999\u6e2f",
          "short_name": "HK",
          "types": [
            "country",
            "political"
          ]
        }
      ],
      "formatted_address": "\u9999\u6e2f\u8475\u6d8c\u8475\u8208\u90a8\u8475\u8208\u5546\u5834\u5730\u4e0b101\u865f\u8216",
      "geometry": {
        "location": {
          "lat": 22.3667713,
          "lng": 114.1331246
        },
        "location_type": "GEOMETRIC_CENTER",
        "viewport": {
          "northeast": {
            "lat": 22.3681202802915,
            "lng": 114.1344735802915
          },
          "southwest": {
            "lat": 22.3654223197085,
            "lng": 114.1317756197085
          }
        }
      },
      "place_id": "ChIJ4-rVbZr4AzQRNmRmCVXNzKc",
      "plus_code": {
        "compound_code": "948M+P6 \u9999\u6e2f",
        "global_code": "7PJP948M+P6"
      },
      "types": [
        "establishment",
        "food",
        "point_of_interest",
        "restaurant"
      ]
    }
  ],
  "licno": "2291000989",
  "timestamp": 1564968756,
  "version": "1564966095"
}
