{
  "adr_en": "GALA VEGGIE SHOP, SHOP 335, 3/F, PIONEER CENTRE, 750 NATHAN ROAD, KOWLOON",
  "adr_tc": "\u4e5d\u9f8d\u5f4c\u6566\u9053750\u865f\u59cb\u5275\u4e2d\u5fc33\u6a13335\u865f\u8216 \u5927\u81ea\u7136\u7d20\u98df",
  "geocode_en": [
    {
      "address_components": [
        {
          "long_name": "335",
          "short_name": "335",
          "types": [
            "subpremise"
          ]
        },
        {
          "long_name": "750-758",
          "short_name": "750-758",
          "types": [
            "street_number"
          ]
        },
        {
          "long_name": "Nathan Road",
          "short_name": "Nathan Rd",
          "types": [
            "route"
          ]
        },
        {
          "long_name": "Prince Edward",
          "short_name": "Prince Edward",
          "types": [
            "neighborhood",
            "political"
          ]
        },
        {
          "long_name": "Kowloon",
          "short_name": "Kowloon",
          "types": [
            "administrative_area_level_1",
            "political"
          ]
        },
        {
          "long_name": "Hong Kong",
          "short_name": "HK",
          "types": [
            "country",
            "political"
          ]
        }
      ],
      "formatted_address": "335, 750-758 Nathan Rd, Prince Edward, Hong Kong",
      "geometry": {
        "bounds": {
          "northeast": {
            "lat": 22.3222729,
            "lng": 114.1692975
          },
          "southwest": {
            "lat": 22.3220991,
            "lng": 114.1691382
          }
        },
        "location": {
          "lat": 22.3221518,
          "lng": 114.1691789
        },
        "location_type": "ROOFTOP",
        "viewport": {
          "northeast": {
            "lat": 22.3235349802915,
            "lng": 114.1705668302915
          },
          "southwest": {
            "lat": 22.3208370197085,
            "lng": 114.1678688697085
          }
        }
      },
      "partial_match": true,
      "place_id": "ChIJjWeJR8gABDQRZ96AE4diy0M",
      "types": [
        "subpremise"
      ]
    },
    {
      "address_components": [
        {
          "long_name": "750\u865f",
          "short_name": "750\u865f",
          "types": [
            "street_number"
          ]
        },
        {
          "long_name": "Nathan Road",
          "short_name": "Nathan Rd",
          "types": [
            "route"
          ]
        },
        {
          "long_name": "Mong Kok",
          "short_name": "Mong Kok",
          "types": [
            "neighborhood",
            "political"
          ]
        },
        {
          "long_name": "Kowloon",
          "short_name": "Kowloon",
          "types": [
            "administrative_area_level_1",
            "political"
          ]
        },
        {
          "long_name": "Hong Kong",
          "short_name": "HK",
          "types": [
            "country",
            "political"
          ]
        }
      ],
      "formatted_address": "750\u865f Nathan Rd, Mong Kok, Hong Kong",
      "geometry": {
        "location": {
          "lat": 22.322552,
          "lng": 114.16911
        },
        "location_type": "ROOFTOP",
        "viewport": {
          "northeast": {
            "lat": 22.3239009802915,
            "lng": 114.1704589802915
          },
          "southwest": {
            "lat": 22.32120301970849,
            "lng": 114.1677610197085
          }
        }
      },
      "partial_match": true,
      "place_id": "ChIJe3JtN8gABDQRAECOPU4lcIw",
      "plus_code": {
        "compound_code": "85F9+2J Mong Kok, Hong Kong",
        "global_code": "7PJP85F9+2J"
      },
      "types": [
        "establishment",
        "point_of_interest",
        "shopping_mall"
      ]
    }
  ],
  "geocode_tc": [
    {
      "address_components": [
        {
          "long_name": "750\u865f",
          "short_name": "750\u865f",
          "types": [
            "street_number"
          ]
        },
        {
          "long_name": "\u5f4c\u6566\u9053",
          "short_name": "\u5f4c\u6566\u9053",
          "types": [
            "route"
          ]
        },
        {
          "long_name": "\u592a\u5b50",
          "short_name": "\u592a\u5b50",
          "types": [
            "neighborhood",
            "political"
          ]
        },
        {
          "long_name": "\u9999\u6e2f",
          "short_name": "HK",
          "types": [
            "country",
            "political"
          ]
        }
      ],
      "formatted_address": "\u9999\u6e2f\u592a\u5b50\u5f4c\u6566\u9053750\u865f\u59cb\u5275\u4e2d\u5fc33\u6a13335\u865f\u8216",
      "geometry": {
        "location": {
          "lat": 22.3221402,
          "lng": 114.1692289
        },
        "location_type": "ROOFTOP",
        "viewport": {
          "northeast": {
            "lat": 22.32348918029151,
            "lng": 114.1705778802915
          },
          "southwest": {
            "lat": 22.3207912197085,
            "lng": 114.1678799197085
          }
        }
      },
      "place_id": "ChIJu18IOMgABDQRcOwymxQv0q8",
      "plus_code": {
        "compound_code": "85C9+VM \u9999\u6e2f",
        "global_code": "7PJP85C9+VM"
      },
      "types": [
        "establishment",
        "food",
        "point_of_interest",
        "restaurant"
      ]
    }
  ],
  "licno": "2262805443",
  "timestamp": 1564968756,
  "version": "1564966095"
}
