{
  "adr_en": "\u5b8f\u5bcc\u96f2\u5357\u7c73\u7dda, SHOP STALL NO. 72-73, 1/F, CHOI MING MARKET,  CHOI MING SHOPPING CENTRE, CHOI MING COURT, TSEUNG KWAN O, SAI KUNG, NEW TERRITORIES",
  "adr_tc": "\u65b0\u754c\u897f\u8ca2\u5c07\u8ecd\u6fb3\u5f69\u660e\u82d1\u5f69\u660e\u5546\u5834\u5f69\u660e\u8857\u5e02 1\u6a1372-73\u865f\u6a94\u4f4d \u5b8f\u5bcc\u96f2\u5357\u7c73\u7dda",
  "geocode_en": [
    {
      "address_components": [
        {
          "long_name": "G\u8216",
          "short_name": "G\u8216",
          "types": [
            "subpremise"
          ]
        },
        {
          "long_name": "\u7a4d\u5bcc\u6a13",
          "short_name": "\u7a4d\u5bcc\u6a13",
          "types": [
            "premise"
          ]
        },
        {
          "long_name": "\u7a4d\u5bcc\u8857",
          "short_name": "\u7a4d\u5bcc\u8857",
          "types": [
            "route"
          ]
        },
        {
          "long_name": "\u5927\u570d",
          "short_name": "\u5927\u570d",
          "types": [
            "neighborhood",
            "political"
          ]
        },
        {
          "long_name": "\u65b0\u754c",
          "short_name": "\u65b0\u754c",
          "types": [
            "administrative_area_level_1",
            "political"
          ]
        },
        {
          "long_name": "Hong Kong",
          "short_name": "HK",
          "types": [
            "country",
            "political"
          ]
        }
      ],
      "formatted_address": "Hong Kong, \u5927\u570d\u7a4d\u5bcc\u8857\u7a4d\u5bcc\u6a13G\u8216",
      "geometry": {
        "location": {
          "lat": 22.3751445,
          "lng": 114.1782301
        },
        "location_type": "ROOFTOP",
        "viewport": {
          "northeast": {
            "lat": 22.3764934802915,
            "lng": 114.1795790802915
          },
          "southwest": {
            "lat": 22.37379551970849,
            "lng": 114.1768811197085
          }
        }
      },
      "partial_match": true,
      "place_id": "ChIJk2Dm8qcHBDQRB0d3n7zavuk",
      "plus_code": {
        "compound_code": "95GH+37 Hong Kong",
        "global_code": "7PJP95GH+37"
      },
      "types": [
        "establishment",
        "food",
        "point_of_interest",
        "restaurant"
      ]
    }
  ],
  "geocode_tc": [
    {
      "address_components": [
        {
          "long_name": "\u5751\u53e3",
          "short_name": "\u5751\u53e3",
          "types": [
            "neighborhood",
            "political"
          ]
        },
        {
          "long_name": "\u65b0\u754c",
          "short_name": "\u65b0\u754c",
          "types": [
            "administrative_area_level_1",
            "political"
          ]
        },
        {
          "long_name": "\u9999\u6e2f",
          "short_name": "HK",
          "types": [
            "country",
            "political"
          ]
        }
      ],
      "formatted_address": "\u9999\u6e2f\u5751\u53e3",
      "geometry": {
        "location": {
          "lat": 22.3074911,
          "lng": 114.2534161
        },
        "location_type": "GEOMETRIC_CENTER",
        "viewport": {
          "northeast": {
            "lat": 22.3088400802915,
            "lng": 114.2547650802915
          },
          "southwest": {
            "lat": 22.3061421197085,
            "lng": 114.2520671197085
          }
        }
      },
      "partial_match": true,
      "place_id": "ChIJJz5ELvADBDQR2XRWuaW_9gI",
      "plus_code": {
        "compound_code": "8743+X9 \u9999\u6e2f",
        "global_code": "7PJP8743+X9"
      },
      "types": [
        "establishment",
        "point_of_interest"
      ]
    },
    {
      "address_components": [
        {
          "long_name": "1",
          "short_name": "1",
          "types": [
            "street_number"
          ]
        },
        {
          "long_name": "\u5f69\u660e\u8857",
          "short_name": "\u5f69\u660e\u8857",
          "types": [
            "route"
          ]
        },
        {
          "long_name": "\u5c07\u8ecd\u6fb3",
          "short_name": "\u5c07\u8ecd\u6fb3",
          "types": [
            "neighborhood",
            "political"
          ]
        },
        {
          "long_name": "\u65b0\u754c",
          "short_name": "\u65b0\u754c",
          "types": [
            "administrative_area_level_1",
            "political"
          ]
        },
        {
          "long_name": "\u9999\u6e2f",
          "short_name": "HK",
          "types": [
            "country",
            "political"
          ]
        }
      ],
      "formatted_address": "\u9999\u6e2f\u5c07\u8ecd\u6fb3\u5f69\u660e\u88571\u865f",
      "geometry": {
        "location": {
          "lat": 22.3067341,
          "lng": 114.252298
        },
        "location_type": "ROOFTOP",
        "viewport": {
          "northeast": {
            "lat": 22.3080830802915,
            "lng": 114.2536469802915
          },
          "southwest": {
            "lat": 22.3053851197085,
            "lng": 114.2509490197085
          }
        }
      },
      "partial_match": true,
      "place_id": "ChIJB5YB7e8DBDQRk2mu7Rv4kMw",
      "plus_code": {
        "compound_code": "8742+MW \u9999\u6e2f",
        "global_code": "7PJP8742+MW"
      },
      "types": [
        "establishment",
        "point_of_interest",
        "shopping_mall"
      ]
    },
    {
      "address_components": [
        {
          "long_name": "\u96f2\u5357",
          "short_name": "\u96f2\u5357",
          "types": [
            "administrative_area_level_1",
            "political"
          ]
        },
        {
          "long_name": "\u4e2d\u570b",
          "short_name": "CN",
          "types": [
            "country",
            "political"
          ]
        }
      ],
      "formatted_address": "\u4e2d\u570b\u96f2\u5357",
      "geometry": {
        "bounds": {
          "northeast": {
            "lat": 29.2233268,
            "lng": 106.1977222
          },
          "southwest": {
            "lat": 21.1417696,
            "lng": 97.5279781
          }
        },
        "location": {
          "lat": 24.4752847,
          "lng": 101.3431058
        },
        "location_type": "APPROXIMATE",
        "viewport": {
          "northeast": {
            "lat": 29.2233268,
            "lng": 106.1977222
          },
          "southwest": {
            "lat": 21.1417696,
            "lng": 97.5279781
          }
        }
      },
      "partial_match": true,
      "place_id": "ChIJKVugMtuD0DYRKayNyrfrPKY",
      "types": [
        "administrative_area_level_1",
        "political"
      ]
    }
  ],
  "licno": "3198800942",
  "timestamp": 1564975666,
  "version": "1564966095"
}
