{
  "adr_en": "WAH KEE, SHOP 16&19, G/F, HANKOW MANSION, 43-49 HANKOW ROAD, KOWLOON",
  "adr_tc": "\u4e5d\u9f8d\u6f22\u53e3\u905343-49\u865f \u6f22\u53e3\u5927\u5ec816\u53ca19\u865f\u8216\u5730\u4e0b \u83ef\u8a18",
  "geocode_en": [
    {
      "address_components": [
        {
          "long_name": "Hankow Apartments",
          "short_name": "Hankow Apartments",
          "types": [
            "premise"
          ]
        },
        {
          "long_name": "43-49A",
          "short_name": "43-49A",
          "types": [
            "street_number"
          ]
        },
        {
          "long_name": "Hankow Road",
          "short_name": "Hankow Rd",
          "types": [
            "route"
          ]
        },
        {
          "long_name": "Tsim Sha Tsui",
          "short_name": "Tsim Sha Tsui",
          "types": [
            "neighborhood",
            "political"
          ]
        },
        {
          "long_name": "Kowloon",
          "short_name": "Kowloon",
          "types": [
            "administrative_area_level_1",
            "political"
          ]
        },
        {
          "long_name": "Hong Kong",
          "short_name": "HK",
          "types": [
            "country",
            "political"
          ]
        }
      ],
      "formatted_address": "Hankow Apartments, 43-49A Hankow Rd, Tsim Sha Tsui, Hong Kong",
      "geometry": {
        "bounds": {
          "northeast": {
            "lat": 22.297826,
            "lng": 114.170967
          },
          "southwest": {
            "lat": 22.297613,
            "lng": 114.170632
          }
        },
        "location": {
          "lat": 22.2977601,
          "lng": 114.1708277
        },
        "location_type": "ROOFTOP",
        "viewport": {
          "northeast": {
            "lat": 22.2990684802915,
            "lng": 114.1721484802915
          },
          "southwest": {
            "lat": 22.2963705197085,
            "lng": 114.1694505197085
          }
        }
      },
      "partial_match": true,
      "place_id": "ChIJewxqgO0ABDQRykqREaZ0j94",
      "types": [
        "premise"
      ]
    }
  ],
  "geocode_tc": [
    {
      "address_components": [
        {
          "long_name": "\u6f22\u53e3\u5927\u5ec8",
          "short_name": "\u6f22\u53e3\u5927\u5ec8",
          "types": [
            "premise"
          ]
        },
        {
          "long_name": "43-49A",
          "short_name": "43-49A",
          "types": [
            "street_number"
          ]
        },
        {
          "long_name": "\u6f22\u53e3\u9053",
          "short_name": "\u6f22\u53e3\u9053",
          "types": [
            "route"
          ]
        },
        {
          "long_name": "\u5c16\u6c99\u5480",
          "short_name": "\u5c16\u6c99\u5480",
          "types": [
            "neighborhood",
            "political"
          ]
        },
        {
          "long_name": "\u4e5d\u9f8d",
          "short_name": "\u4e5d\u9f8d",
          "types": [
            "administrative_area_level_1",
            "political"
          ]
        },
        {
          "long_name": "\u9999\u6e2f",
          "short_name": "HK",
          "types": [
            "country",
            "political"
          ]
        }
      ],
      "formatted_address": "\u9999\u6e2f\u5c16\u6c99\u5480\u6f22\u53e3\u905343-49A\u865f\u6f22\u53e3\u5927\u5ec8",
      "geometry": {
        "bounds": {
          "northeast": {
            "lat": 22.297826,
            "lng": 114.170967
          },
          "southwest": {
            "lat": 22.297613,
            "lng": 114.170632
          }
        },
        "location": {
          "lat": 22.2977601,
          "lng": 114.1708277
        },
        "location_type": "ROOFTOP",
        "viewport": {
          "northeast": {
            "lat": 22.2990684802915,
            "lng": 114.1721484802915
          },
          "southwest": {
            "lat": 22.2963705197085,
            "lng": 114.1694505197085
          }
        }
      },
      "partial_match": true,
      "place_id": "ChIJewxqgO0ABDQRykqREaZ0j94",
      "types": [
        "premise"
      ]
    }
  ],
  "licno": "3161266698",
  "timestamp": 1564975666,
  "version": "1564966095"
}
