{
  "adr_en": "\u862d\u5dde\u62c9\u9eb5\u9928, SHOP NO 1, G/F, PO WAI BUILDING, 59-67 BULKELEY STREET, HUNG HOM, KOWLOON CITY, KOWLOON",
  "adr_tc": "\u4e5d\u9f8d\u7d05\u78e1\u5bf6\u5176\u5229\u885759\u81f367\u865f \u5bf6\u5a01\u5927\u53a6\u5730\u4e0b 1\u865f\u8216 \u862d\u5dde\u62c9\u9eb5\u9928",
  "geocode_en": [
    {
      "address_components": [
        {
          "long_name": "Po Wai Building",
          "short_name": "Po Wai Building",
          "types": [
            "premise"
          ]
        },
        {
          "long_name": "59-67",
          "short_name": "59-67",
          "types": [
            "street_number"
          ]
        },
        {
          "long_name": "Bulkeley Street",
          "short_name": "Bulkeley St",
          "types": [
            "route"
          ]
        },
        {
          "long_name": "Hung Hom",
          "short_name": "Hung Hom",
          "types": [
            "neighborhood",
            "political"
          ]
        },
        {
          "long_name": "Kowloon",
          "short_name": "Kowloon",
          "types": [
            "administrative_area_level_1",
            "political"
          ]
        },
        {
          "long_name": "Hong Kong",
          "short_name": "HK",
          "types": [
            "country",
            "political"
          ]
        }
      ],
      "formatted_address": "Po Wai Building, 59-67 Bulkeley St, Hung Hom, Hong Kong",
      "geometry": {
        "bounds": {
          "northeast": {
            "lat": 22.306865,
            "lng": 114.186269
          },
          "southwest": {
            "lat": 22.3066589,
            "lng": 114.186027
          }
        },
        "location": {
          "lat": 22.3067483,
          "lng": 114.186131
        },
        "location_type": "ROOFTOP",
        "viewport": {
          "northeast": {
            "lat": 22.3081109302915,
            "lng": 114.1874969802915
          },
          "southwest": {
            "lat": 22.3054129697085,
            "lng": 114.1847990197085
          }
        }
      },
      "partial_match": true,
      "place_id": "ChIJy2qFBN4ABDQR5re9-i3gfi8",
      "types": [
        "premise"
      ]
    }
  ],
  "geocode_tc": [
    {
      "address_components": [
        {
          "long_name": "\u5730\u4e0b 1\u865f\u8216",
          "short_name": "\u5730\u4e0b 1\u865f\u8216",
          "types": [
            "subpremise"
          ]
        },
        {
          "long_name": "\u5bf6\u5a01\u5927\u5ec8",
          "short_name": "\u5bf6\u5a01\u5927\u5ec8",
          "types": [
            "premise"
          ]
        },
        {
          "long_name": "59-67",
          "short_name": "59-67",
          "types": [
            "street_number"
          ]
        },
        {
          "long_name": "\u5bf6\u5176\u5229\u8857",
          "short_name": "\u5bf6\u5176\u5229\u8857",
          "types": [
            "route"
          ]
        },
        {
          "long_name": "\u7d05\u78e1",
          "short_name": "\u7d05\u78e1",
          "types": [
            "neighborhood",
            "political"
          ]
        },
        {
          "long_name": "\u4e5d\u9f8d",
          "short_name": "\u4e5d\u9f8d",
          "types": [
            "administrative_area_level_1",
            "political"
          ]
        },
        {
          "long_name": "\u9999\u6e2f",
          "short_name": "HK",
          "types": [
            "country",
            "political"
          ]
        }
      ],
      "formatted_address": "\u9999\u6e2f\u7d05\u78e1\u5bf6\u5176\u5229\u885759-67\u865f\u5bf6\u5a01\u5927\u5ec8\u5730\u4e0b 1\u865f\u8216",
      "geometry": {
        "bounds": {
          "northeast": {
            "lat": 22.306865,
            "lng": 114.186269
          },
          "southwest": {
            "lat": 22.3066589,
            "lng": 114.186027
          }
        },
        "location": {
          "lat": 22.3067483,
          "lng": 114.186131
        },
        "location_type": "ROOFTOP",
        "viewport": {
          "northeast": {
            "lat": 22.3081109302915,
            "lng": 114.1874969802915
          },
          "southwest": {
            "lat": 22.3054129697085,
            "lng": 114.1847990197085
          }
        }
      },
      "partial_match": true,
      "place_id": "EkflnLDkuIsgMeiZn-iIliwgUG8gV2FpIEJ1aWxkaW5nLCA1OS02NyBCdWxrZWxleSBTdCwgSHVuZyBIb20sIEhvbmcgS29uZyIqGigKFgoUChIJy2qFBN4ABDQR5re9-i3gfi8SDuWcsOS4iyAx6Jmf6IiW",
      "types": [
        "subpremise"
      ]
    },
    {
      "address_components": [
        {
          "long_name": "\u5bf6\u5a01\u5927\u5ec8",
          "short_name": "\u5bf6\u5a01\u5927\u5ec8",
          "types": [
            "premise"
          ]
        },
        {
          "long_name": "59-67",
          "short_name": "59-67",
          "types": [
            "street_number"
          ]
        },
        {
          "long_name": "\u5bf6\u5176\u5229\u8857",
          "short_name": "\u5bf6\u5176\u5229\u8857",
          "types": [
            "route"
          ]
        },
        {
          "long_name": "\u7d05\u78e1",
          "short_name": "\u7d05\u78e1",
          "types": [
            "neighborhood",
            "political"
          ]
        },
        {
          "long_name": "\u4e5d\u9f8d",
          "short_name": "\u4e5d\u9f8d",
          "types": [
            "administrative_area_level_1",
            "political"
          ]
        },
        {
          "long_name": "\u9999\u6e2f",
          "short_name": "HK",
          "types": [
            "country",
            "political"
          ]
        }
      ],
      "formatted_address": "\u9999\u6e2f\u7d05\u78e1\u5bf6\u5176\u5229\u885759-67\u865f\u5bf6\u5a01\u5927\u5ec8",
      "geometry": {
        "bounds": {
          "northeast": {
            "lat": 22.306865,
            "lng": 114.186269
          },
          "southwest": {
            "lat": 22.3066589,
            "lng": 114.186027
          }
        },
        "location": {
          "lat": 22.3067483,
          "lng": 114.186131
        },
        "location_type": "ROOFTOP",
        "viewport": {
          "northeast": {
            "lat": 22.3081109302915,
            "lng": 114.1874969802915
          },
          "southwest": {
            "lat": 22.3054129697085,
            "lng": 114.1847990197085
          }
        }
      },
      "partial_match": true,
      "place_id": "ChIJy2qFBN4ABDQR5re9-i3gfi8",
      "types": [
        "premise"
      ]
    }
  ],
  "licno": "2252261158",
  "timestamp": 1564968756,
  "version": "1564966095"
}
