{
  "adr_en": "A Plus Restaurant, 3/F., TIFFAN TOWER, 197-199 WANCHAI ROAD, WANCHAI, HONG KONG",
  "adr_tc": "\u9999\u6e2f\u7063\u4ed4\u7063\u4ed4\u9053197\u81f3199\u865f\u5929\u8f1d\u4e2d\u5fc33\u6a13 A Plus Restaurant",
  "geocode_en": [
    {
      "address_components": [
        {
          "long_name": "Tiffan Tower",
          "short_name": "Tiffan Tower",
          "types": [
            "premise"
          ]
        },
        {
          "long_name": "199",
          "short_name": "199",
          "types": [
            "street_number"
          ]
        },
        {
          "long_name": "Wan Chai Road",
          "short_name": "Wan Chai Rd",
          "types": [
            "route"
          ]
        },
        {
          "long_name": "Wan Chai",
          "short_name": "Wan Chai",
          "types": [
            "neighborhood",
            "political"
          ]
        },
        {
          "long_name": "Hong Kong Island",
          "short_name": "Hong Kong Island",
          "types": [
            "administrative_area_level_1",
            "political"
          ]
        },
        {
          "long_name": "Hong Kong",
          "short_name": "HK",
          "types": [
            "country",
            "political"
          ]
        }
      ],
      "formatted_address": "Tiffan Tower, 199 Wan Chai Rd, Wan Chai, Hong Kong",
      "geometry": {
        "bounds": {
          "northeast": {
            "lat": 22.2777608,
            "lng": 114.1786863
          },
          "southwest": {
            "lat": 22.2775658,
            "lng": 114.1785201
          }
        },
        "location": {
          "lat": 22.2776882,
          "lng": 114.1786252
        },
        "location_type": "ROOFTOP",
        "viewport": {
          "northeast": {
            "lat": 22.2790122802915,
            "lng": 114.1799521802915
          },
          "southwest": {
            "lat": 22.2763143197085,
            "lng": 114.1772542197085
          }
        }
      },
      "partial_match": true,
      "place_id": "ChIJ3y0Vb1oABDQRJLEcHU1Pimo",
      "types": [
        "premise"
      ]
    }
  ],
  "geocode_tc": [],
  "licno": "3112803325",
  "timestamp": 1564975666,
  "version": "1564966095"
}
