{
  "adr_en": "HUNG FOOK TONG, SHOP S221, LEVEL 2, CHUK YUEN PLAZA, CHUK YUEN (SOUTH) ESTATE, CHUK YUEN, WONG TAI SIN, KOWLOON",
  "adr_tc": "\u4e5d\u9f8d\u9ec3\u5927\u4ed9\u7af9\u5712\u5357\u90a8 \u7af9\u5712\u5ee3\u58342\u6a13S221\u865f\u8216 \u9d3b\u798f\u5802\u6dbc\u8336",
  "geocode_en": [
    {
      "address_components": [
        {
          "long_name": "Hong Kong",
          "short_name": "HK",
          "types": [
            "country",
            "political"
          ]
        }
      ],
      "formatted_address": "Shop S221, Level 2, Chuk Yuen Plaza, Chuk Yuen (South) Estate, Wong Tai Sin, Kowloon, Hong Kong",
      "geometry": {
        "location": {
          "lat": 22.250862,
          "lng": 113.888239
        },
        "location_type": "GEOMETRIC_CENTER",
        "viewport": {
          "northeast": {
            "lat": 22.2522109802915,
            "lng": 113.8895879802915
          },
          "southwest": {
            "lat": 22.24951301970849,
            "lng": 113.8868900197085
          }
        }
      },
      "place_id": "ChIJK3d83-VYATQRr-fOm-bHGcY",
      "plus_code": {
        "compound_code": "7V2Q+87 Hong Kong",
        "global_code": "7PJM7V2Q+87"
      },
      "types": [
        "establishment",
        "point_of_interest"
      ]
    }
  ],
  "geocode_tc": [
    {
      "address_components": [
        {
          "long_name": "\u9999\u6e2f",
          "short_name": "HK",
          "types": [
            "country",
            "political"
          ]
        }
      ],
      "formatted_address": "\u9999\u6e2f\u9ec3\u5927\u4ed9\u7af9\u5712\u5357\u90a8\u7af9\u5712\u5546\u5834S221\u865f\u8216",
      "geometry": {
        "location": {
          "lat": 22.3454061,
          "lng": 114.1931927
        },
        "location_type": "GEOMETRIC_CENTER",
        "viewport": {
          "northeast": {
            "lat": 22.3467550802915,
            "lng": 114.1945416802915
          },
          "southwest": {
            "lat": 22.34405711970849,
            "lng": 114.1918437197085
          }
        }
      },
      "place_id": "ChIJM1x1Od8GBDQRAJToJUcUYak",
      "plus_code": {
        "compound_code": "85WV+57 \u9999\u6e2f",
        "global_code": "7PJP85WV+57"
      },
      "types": [
        "establishment",
        "food",
        "point_of_interest",
        "restaurant"
      ]
    }
  ],
  "licno": "3153236988",
  "timestamp": 1564975666,
  "version": "1564966095"
}
