{
  "adr_en": "Tomato Otamot, SHOP C, G/F, M/F AND THE OUTSIDE SEATING ACCOMMODATION AT SHOP FRONT, ON CHUEN BUILDING, 6-14 MING NGAI STREET, TUEN MUN, NEW TERRITORIES",
  "adr_tc": "\u65b0\u754c\u5c6f\u9580\u660e\u85dd\u88576-14\u865f\u5b89\u5168\u6a13\u5730\u4e0b\u53ca\u95a3\u6a13C\u865f\u8216\u53ca\u92ea\u524d\u9732\u5929\u5ea7\u4f4d Tomato Otamot",
  "geocode_en": [
    {
      "address_components": [
        {
          "long_name": "Hong Kong",
          "short_name": "HK",
          "types": [
            "country",
            "political"
          ]
        }
      ],
      "formatted_address": "Shop C, G/F & M/F, On Chuen Building, 6-14 Ming Ngai Street, Tuen Mun, New Territories, Hong Kong",
      "geometry": {
        "location": {
          "lat": 22.397657,
          "lng": 113.974576
        },
        "location_type": "GEOMETRIC_CENTER",
        "viewport": {
          "northeast": {
            "lat": 22.3990059802915,
            "lng": 113.9759249802915
          },
          "southwest": {
            "lat": 22.3963080197085,
            "lng": 113.9732270197085
          }
        }
      },
      "partial_match": true,
      "place_id": "ChIJFc0V_SL7AzQRQxgqWIJHttE",
      "plus_code": {
        "compound_code": "9XXF+3R Hong Kong",
        "global_code": "7PJM9XXF+3R"
      },
      "types": [
        "establishment",
        "food",
        "point_of_interest",
        "restaurant"
      ]
    },
    {
      "address_components": [
        {
          "long_name": "On Chuen Building",
          "short_name": "On Chuen Building",
          "types": [
            "premise"
          ]
        },
        {
          "long_name": "6",
          "short_name": "6",
          "types": [
            "street_number"
          ]
        },
        {
          "long_name": "Ming Ngai Street",
          "short_name": "Ming Ngai St",
          "types": [
            "route"
          ]
        },
        {
          "long_name": "San Hui",
          "short_name": "San Hui",
          "types": [
            "neighborhood",
            "political"
          ]
        },
        {
          "long_name": "New Territories",
          "short_name": "New Territories",
          "types": [
            "administrative_area_level_1",
            "political"
          ]
        },
        {
          "long_name": "Hong Kong",
          "short_name": "HK",
          "types": [
            "country",
            "political"
          ]
        }
      ],
      "formatted_address": "On Chuen Building, 6 Ming Ngai St, San Hui, Hong Kong",
      "geometry": {
        "bounds": {
          "northeast": {
            "lat": 22.3977271,
            "lng": 113.9746891
          },
          "southwest": {
            "lat": 22.3975861,
            "lng": 113.9744631
          }
        },
        "location": {
          "lat": 22.3976677,
          "lng": 113.9745793
        },
        "location_type": "ROOFTOP",
        "viewport": {
          "northeast": {
            "lat": 22.3990055802915,
            "lng": 113.9759250802915
          },
          "southwest": {
            "lat": 22.3963076197085,
            "lng": 113.9732271197085
          }
        }
      },
      "partial_match": true,
      "place_id": "ChIJvc0V_SL7AzQR2G14T1XWDEs",
      "types": [
        "premise"
      ]
    }
  ],
  "geocode_tc": [
    {
      "address_components": [
        {
          "long_name": "\u5730\u4e0b\u53ca",
          "short_name": "\u5730\u4e0b\u53ca",
          "types": [
            "subpremise"
          ]
        },
        {
          "long_name": "\u5b89\u5168\u6a13",
          "short_name": "\u5b89\u5168\u6a13",
          "types": [
            "premise"
          ]
        },
        {
          "long_name": "6",
          "short_name": "6",
          "types": [
            "street_number"
          ]
        },
        {
          "long_name": "\u660e\u85dd\u8857",
          "short_name": "\u660e\u85dd\u8857",
          "types": [
            "route"
          ]
        },
        {
          "long_name": "\u65b0\u589f",
          "short_name": "\u65b0\u589f",
          "types": [
            "neighborhood",
            "political"
          ]
        },
        {
          "long_name": "\u65b0\u754c",
          "short_name": "\u65b0\u754c",
          "types": [
            "administrative_area_level_1",
            "political"
          ]
        },
        {
          "long_name": "\u9999\u6e2f",
          "short_name": "HK",
          "types": [
            "country",
            "political"
          ]
        }
      ],
      "formatted_address": "\u9999\u6e2f\u65b0\u589f\u660e\u85dd\u88576\u865f\u5b89\u5168\u6a13\u5730\u4e0b\u53ca",
      "geometry": {
        "bounds": {
          "northeast": {
            "lat": 22.3977271,
            "lng": 113.9746891
          },
          "southwest": {
            "lat": 22.3975861,
            "lng": 113.9744631
          }
        },
        "location": {
          "lat": 22.3976677,
          "lng": 113.9745793
        },
        "location_type": "ROOFTOP",
        "viewport": {
          "northeast": {
            "lat": 22.3990055802915,
            "lng": 113.9759250802915
          },
          "southwest": {
            "lat": 22.3963076197085,
            "lng": 113.9732271197085
          }
        }
      },
      "partial_match": true,
      "place_id": "EkDlnLDkuIvlj4osIE9uIENodWVuIEJ1aWxkaW5nLCA2IE1pbmcgTmdhaSBTdCwgU2FuIEh1aSwgSG9uZyBLb25nIiUaIwoWChQKEgm9zRX9IvsDNBHYbXhPVdYMSxIJ5Zyw5LiL5Y-K",
      "types": [
        "subpremise"
      ]
    },
    {
      "address_components": [
        {
          "long_name": "\u9999\u6e2f",
          "short_name": "HK",
          "types": [
            "country",
            "political"
          ]
        }
      ],
      "formatted_address": "Shop C, G/F & M/F, On Chuen Building, 6-14 Ming Ngai Street, Tuen Mun, New Territories, \u9999\u6e2f",
      "geometry": {
        "location": {
          "lat": 22.397657,
          "lng": 113.974576
        },
        "location_type": "GEOMETRIC_CENTER",
        "viewport": {
          "northeast": {
            "lat": 22.3990059802915,
            "lng": 113.9759249802915
          },
          "southwest": {
            "lat": 22.3963080197085,
            "lng": 113.9732270197085
          }
        }
      },
      "partial_match": true,
      "place_id": "ChIJFc0V_SL7AzQRQxgqWIJHttE",
      "plus_code": {
        "compound_code": "9XXF+3R \u9999\u6e2f",
        "global_code": "7PJM9XXF+3R"
      },
      "types": [
        "establishment",
        "food",
        "point_of_interest",
        "restaurant"
      ]
    }
  ],
  "licno": "3193800187",
  "timestamp": 1564975666,
  "version": "1564966095"
}
