{
  "adr_en": "Yuen Kee Noodle Shop, SHOP NO. 1-2, G/F, LEE WAI COMMERCIAL BUILDING, 1-3 HART AVENUE, TSIM SHA TSUI, KOWLOON",
  "adr_tc": "\u4e5d\u9f8d\u5c16\u6c99\u5480\u8d6b\u5fb7\u90531-3\u865f\u5229\u5a01\u5546\u696d\u5927\u5ec8\u5730\u4e0b1-2\u865f\u8216 \u6e90\u8a18\u71d2\u5473\u7c89\u9eb5\u8336\u9910\u5ef3",
  "geocode_en": [
    {
      "address_components": [
        {
          "long_name": "Lee Wai Commercial Building",
          "short_name": "Lee Wai Commercial Building",
          "types": [
            "premise"
          ]
        },
        {
          "long_name": "1-3",
          "short_name": "1-3",
          "types": [
            "street_number"
          ]
        },
        {
          "long_name": "Hart Avenue",
          "short_name": "Hart Ave",
          "types": [
            "route"
          ]
        },
        {
          "long_name": "Tsim Sha Tsui",
          "short_name": "Tsim Sha Tsui",
          "types": [
            "neighborhood",
            "political"
          ]
        },
        {
          "long_name": "Kowloon",
          "short_name": "Kowloon",
          "types": [
            "administrative_area_level_1",
            "political"
          ]
        },
        {
          "long_name": "Hong Kong",
          "short_name": "HK",
          "types": [
            "country",
            "political"
          ]
        }
      ],
      "formatted_address": "Lee Wai Commercial Building, 1-3 Hart Ave, Tsim Sha Tsui, Hong Kong",
      "geometry": {
        "bounds": {
          "northeast": {
            "lat": 22.298204,
            "lng": 114.17408
          },
          "southwest": {
            "lat": 22.2980361,
            "lng": 114.1738841
          }
        },
        "location": {
          "lat": 22.2981163,
          "lng": 114.1739627
        },
        "location_type": "ROOFTOP",
        "viewport": {
          "northeast": {
            "lat": 22.2994690302915,
            "lng": 114.1753310302915
          },
          "southwest": {
            "lat": 22.29677106970849,
            "lng": 114.1726330697085
          }
        }
      },
      "partial_match": true,
      "place_id": "ChIJ3ZNFCe4ABDQRskpUMF1Ipow",
      "types": [
        "premise"
      ]
    }
  ],
  "geocode_tc": [
    {
      "address_components": [
        {
          "long_name": "\u8216 \u6e90\u8a18\u71d2",
          "short_name": "\u8216 \u6e90\u8a18\u71d2",
          "types": [
            "subpremise"
          ]
        },
        {
          "long_name": "\u5229\u5a01\u5546\u696d\u5927\u5ec8",
          "short_name": "\u5229\u5a01\u5546\u696d\u5927\u5ec8",
          "types": [
            "premise"
          ]
        },
        {
          "long_name": "1-3",
          "short_name": "1-3",
          "types": [
            "street_number"
          ]
        },
        {
          "long_name": "\u8d6b\u5fb7\u9053",
          "short_name": "\u8d6b\u5fb7\u9053",
          "types": [
            "route"
          ]
        },
        {
          "long_name": "\u5c16\u6c99\u5480",
          "short_name": "\u5c16\u6c99\u5480",
          "types": [
            "neighborhood",
            "political"
          ]
        },
        {
          "long_name": "\u4e5d\u9f8d",
          "short_name": "\u4e5d\u9f8d",
          "types": [
            "administrative_area_level_1",
            "political"
          ]
        },
        {
          "long_name": "\u9999\u6e2f",
          "short_name": "HK",
          "types": [
            "country",
            "political"
          ]
        }
      ],
      "formatted_address": "\u9999\u6e2f\u5c16\u6c99\u5480\u8d6b\u5fb7\u90531-3\u865f\u5229\u5a01\u5546\u696d\u5927\u5ec8\u8216 \u6e90\u8a18\u71d2",
      "geometry": {
        "bounds": {
          "northeast": {
            "lat": 22.298204,
            "lng": 114.17408
          },
          "southwest": {
            "lat": 22.2980361,
            "lng": 114.1738841
          }
        },
        "location": {
          "lat": 22.2981163,
          "lng": 114.1739627
        },
        "location_type": "ROOFTOP",
        "viewport": {
          "northeast": {
            "lat": 22.2994690302915,
            "lng": 114.1753310302915
          },
          "southwest": {
            "lat": 22.29677106970849,
            "lng": 114.1726330697085
          }
        }
      },
      "partial_match": true,
      "place_id": "ElLoiJYg5rqQ6KiY54eSLCBMZWUgV2FpIENvbW1lcmNpYWwgQnVpbGRpbmcsIDEtMyBIYXJ0IEF2ZSwgVHNpbSBTaGEgVHN1aSwgSG9uZyBLb25nIikaJwoWChQKEgndk0UJ7gAENBGySlQwXUimjBIN6IiWIOa6kOiomOeHkg",
      "types": [
        "subpremise"
      ]
    }
  ],
  "licno": "2261802915",
  "timestamp": 1564968756,
  "version": "1564966095"
}
