{
  "adr_en": "\u611b\u7434\u6703, G/F, MINOR PORTION OF CLUB HOUSE, AEGEAN COAST, 2 KWUN TSING ROAD, SO KWUN WAT, CASTLE PEAK ROAD, TUEN MUN, NEW TERRITORIES",
  "adr_tc": "\u65b0\u754c\u5c6f\u9580\u9752\u5c71\u516c\u8def\u6383\u7ba1\u7b0f\u7ba1\u9752\u8def2\u865f \u611b\u7434\u6d77\u5cb8\u5730\u4e0b\u4f4f\u5ba2\u6703\u6240\u5c0f\u90e8\u4efd \u611b\u7434\u6703",
  "geocode_en": [
    {
      "address_components": [
        {
          "long_name": "Guan Qing Road",
          "short_name": "Guan Qing Road",
          "types": [
            "establishment",
            "point_of_interest"
          ]
        },
        {
          "long_name": "Aegean Coast Tower 2",
          "short_name": "Aegean Coast Tower 2",
          "types": [
            "premise"
          ]
        },
        {
          "long_name": "2",
          "short_name": "2",
          "types": [
            "street_number"
          ]
        },
        {
          "long_name": "Kwun Tsing Road",
          "short_name": "Kwun Tsing Rd",
          "types": [
            "route"
          ]
        },
        {
          "long_name": "So Kwun Wat",
          "short_name": "So Kwun Wat",
          "types": [
            "neighborhood",
            "political"
          ]
        },
        {
          "long_name": "Hong Kong",
          "short_name": "HK",
          "types": [
            "country",
            "political"
          ]
        }
      ],
      "formatted_address": "HK 5, Guan Qing Road Aegean Coast Tower 2, 2 Kwun Tsing Rd, So Kwun Wat, Hong Kong",
      "geometry": {
        "location": {
          "lat": 22.372366,
          "lng": 113.9949715
        },
        "location_type": "ROOFTOP",
        "viewport": {
          "northeast": {
            "lat": 22.3737149802915,
            "lng": 113.9963204802915
          },
          "southwest": {
            "lat": 22.3710170197085,
            "lng": 113.9936225197085
          }
        }
      },
      "partial_match": true,
      "place_id": "ChIJ6xj203D7AzQRX_i8E3MOQRQ",
      "plus_code": {
        "compound_code": "9XCV+WX Hong Kong",
        "global_code": "7PJM9XCV+WX"
      },
      "types": [
        "establishment",
        "point_of_interest"
      ]
    },
    {
      "address_components": [
        {
          "long_name": "Aegean Coast Tower 2",
          "short_name": "Aegean Coast Tower 2",
          "types": [
            "premise"
          ]
        },
        {
          "long_name": "2",
          "short_name": "2",
          "types": [
            "street_number"
          ]
        },
        {
          "long_name": "Kwun Tsing Road",
          "short_name": "Kwun Tsing Rd",
          "types": [
            "route"
          ]
        },
        {
          "long_name": "So Kwun Wat",
          "short_name": "So Kwun Wat",
          "types": [
            "neighborhood",
            "political"
          ]
        },
        {
          "long_name": "New Territories",
          "short_name": "New Territories",
          "types": [
            "administrative_area_level_1",
            "political"
          ]
        },
        {
          "long_name": "Hong Kong",
          "short_name": "HK",
          "types": [
            "country",
            "political"
          ]
        }
      ],
      "formatted_address": "Aegean Coast Tower 2, 2 Kwun Tsing Rd, So Kwun Wat, Hong Kong",
      "geometry": {
        "bounds": {
          "northeast": {
            "lat": 22.372169,
            "lng": 113.995014
          },
          "southwest": {
            "lat": 22.3718541,
            "lng": 113.9946889
          }
        },
        "location": {
          "lat": 22.3720178,
          "lng": 113.9948375
        },
        "location_type": "ROOFTOP",
        "viewport": {
          "northeast": {
            "lat": 22.3733605302915,
            "lng": 113.9962004302915
          },
          "southwest": {
            "lat": 22.3706625697085,
            "lng": 113.9935024697085
          }
        }
      },
      "partial_match": true,
      "place_id": "ChIJiXEbznD7AzQR1oBt7H6Y-Do",
      "types": [
        "premise"
      ]
    },
    {
      "address_components": [
        {
          "long_name": "Castle Peak Road (Ting Kau)",
          "short_name": "Castle Peak Rd (Ting Kau)",
          "types": [
            "route"
          ]
        },
        {
          "long_name": "New Territories",
          "short_name": "New Territories",
          "types": [
            "administrative_area_level_1",
            "political"
          ]
        },
        {
          "long_name": "Hong Kong",
          "short_name": "HK",
          "types": [
            "country",
            "political"
          ]
        }
      ],
      "formatted_address": "Castle Peak Rd (Ting Kau), Hong Kong",
      "geometry": {
        "bounds": {
          "northeast": {
            "lat": 22.3712368,
            "lng": 114.097857
          },
          "southwest": {
            "lat": 22.3633289,
            "lng": 114.0681266
          }
        },
        "location": {
          "lat": 22.3681879,
          "lng": 114.0842682
        },
        "location_type": "GEOMETRIC_CENTER",
        "viewport": {
          "northeast": {
            "lat": 22.3712368,
            "lng": 114.097857
          },
          "southwest": {
            "lat": 22.3633289,
            "lng": 114.0681266
          }
        }
      },
      "partial_match": true,
      "place_id": "ChIJf_1cez35AzQRNjSNkrv4RgY",
      "types": [
        "route"
      ]
    }
  ],
  "geocode_tc": [
    {
      "address_components": [
        {
          "long_name": "Guan Qing Road",
          "short_name": "Guan Qing Road",
          "types": [
            "establishment",
            "point_of_interest"
          ]
        },
        {
          "long_name": "Aegean Coast Tower 2",
          "short_name": "Aegean Coast Tower 2",
          "types": [
            "premise"
          ]
        },
        {
          "long_name": "2",
          "short_name": "2",
          "types": [
            "street_number"
          ]
        },
        {
          "long_name": "Kwun Tsing Road",
          "short_name": "Kwun Tsing Rd",
          "types": [
            "route"
          ]
        },
        {
          "long_name": "So Kwun Wat",
          "short_name": "So Kwun Wat",
          "types": [
            "neighborhood",
            "political"
          ]
        },
        {
          "long_name": "\u9999\u6e2f",
          "short_name": "HK",
          "types": [
            "country",
            "political"
          ]
        }
      ],
      "formatted_address": "HK 5, Guan Qing Road Aegean Coast Tower 2, 2 Kwun Tsing Rd, So Kwun Wat, \u9999\u6e2f",
      "geometry": {
        "location": {
          "lat": 22.372366,
          "lng": 113.9949715
        },
        "location_type": "ROOFTOP",
        "viewport": {
          "northeast": {
            "lat": 22.3737149802915,
            "lng": 113.9963204802915
          },
          "southwest": {
            "lat": 22.3710170197085,
            "lng": 113.9936225197085
          }
        }
      },
      "partial_match": true,
      "place_id": "ChIJ6xj203D7AzQRX_i8E3MOQRQ",
      "plus_code": {
        "compound_code": "9XCV+WX \u9999\u6e2f",
        "global_code": "7PJM9XCV+WX"
      },
      "types": [
        "establishment",
        "point_of_interest"
      ]
    },
    {
      "address_components": [
        {
          "long_name": "\u9752\u5c71\u516c\u8def\u6c40\u4e5d\u6bb5",
          "short_name": "\u9752\u5c71\u516c\u8def\u6c40\u4e5d\u6bb5",
          "types": [
            "route"
          ]
        },
        {
          "long_name": "\u65b0\u754c",
          "short_name": "\u65b0\u754c",
          "types": [
            "administrative_area_level_1",
            "political"
          ]
        },
        {
          "long_name": "\u9999\u6e2f",
          "short_name": "HK",
          "types": [
            "country",
            "political"
          ]
        }
      ],
      "formatted_address": "\u9999\u6e2f\u9752\u5c71\u516c\u8def\u6c40\u4e5d\u6bb5",
      "geometry": {
        "bounds": {
          "northeast": {
            "lat": 22.3712368,
            "lng": 114.097857
          },
          "southwest": {
            "lat": 22.3633289,
            "lng": 114.0681266
          }
        },
        "location": {
          "lat": 22.3681879,
          "lng": 114.0842682
        },
        "location_type": "GEOMETRIC_CENTER",
        "viewport": {
          "northeast": {
            "lat": 22.3712368,
            "lng": 114.097857
          },
          "southwest": {
            "lat": 22.3633289,
            "lng": 114.0681266
          }
        }
      },
      "partial_match": true,
      "place_id": "ChIJf_1cez35AzQRNjSNkrv4RgY",
      "types": [
        "route"
      ]
    }
  ],
  "licno": "3193001373",
  "timestamp": 1564975666,
  "version": "1564966095"
}
