{
  "adr_en": "8 OZ, SHOP B, G/F., NO. 132 MAIN STREET AP LEI CHAU, HONG KONG",
  "adr_tc": "\u9999\u6e2f\u9d28\u8137\u6d32\u5927\u8857132\u865f\u5730\u4e0bB\u8216 8 OZ",
  "geocode_en": [
    {
      "address_components": [
        {
          "long_name": "132",
          "short_name": "132",
          "types": [
            "street_number"
          ]
        },
        {
          "long_name": "Ap Lei Chau Main Street",
          "short_name": "Ap Lei Chau Main St",
          "types": [
            "route"
          ]
        },
        {
          "long_name": "Ap Lei Chau",
          "short_name": "Ap Lei Chau",
          "types": [
            "neighborhood",
            "political"
          ]
        },
        {
          "long_name": "Hong Kong",
          "short_name": "HK",
          "types": [
            "country",
            "political"
          ]
        }
      ],
      "formatted_address": "Hong Kong, Ap Lei Chau, Ap Lei Chau Main St, 132\u865f132B",
      "geometry": {
        "location": {
          "lat": 22.2436486,
          "lng": 114.1540841
        },
        "location_type": "ROOFTOP",
        "viewport": {
          "northeast": {
            "lat": 22.2449975802915,
            "lng": 114.1554330802915
          },
          "southwest": {
            "lat": 22.2422996197085,
            "lng": 114.1527351197085
          }
        }
      },
      "place_id": "ChIJq6ruPKiqBjQRSRgnbuPvgI0",
      "plus_code": {
        "compound_code": "65V3+FJ Hong Kong",
        "global_code": "7PJP65V3+FJ"
      },
      "types": [
        "establishment",
        "food",
        "point_of_interest",
        "restaurant"
      ]
    }
  ],
  "geocode_tc": [
    {
      "address_components": [
        {
          "long_name": "132",
          "short_name": "132",
          "types": [
            "street_number"
          ]
        },
        {
          "long_name": "\u9d28\u8137\u6d32\u5927\u8857",
          "short_name": "\u9d28\u8137\u6d32\u5927\u8857",
          "types": [
            "route"
          ]
        },
        {
          "long_name": "\u9d28\u8137\u6d32",
          "short_name": "\u9d28\u8137\u6d32",
          "types": [
            "neighborhood",
            "political"
          ]
        },
        {
          "long_name": "\u9999\u6e2f",
          "short_name": "HK",
          "types": [
            "country",
            "political"
          ]
        }
      ],
      "formatted_address": "\u9999\u6e2f\u9d28\u8137\u6d32\u9d28\u8137\u6d32\u5927\u8857132\u865f132B",
      "geometry": {
        "location": {
          "lat": 22.2436486,
          "lng": 114.1540841
        },
        "location_type": "ROOFTOP",
        "viewport": {
          "northeast": {
            "lat": 22.2449975802915,
            "lng": 114.1554330802915
          },
          "southwest": {
            "lat": 22.2422996197085,
            "lng": 114.1527351197085
          }
        }
      },
      "place_id": "ChIJq6ruPKiqBjQRSRgnbuPvgI0",
      "plus_code": {
        "compound_code": "65V3+FJ \u9999\u6e2f",
        "global_code": "7PJP65V3+FJ"
      },
      "types": [
        "establishment",
        "food",
        "point_of_interest",
        "restaurant"
      ]
    },
    {
      "address_components": [
        {
          "long_name": "\u9d28\u8137\u6d32",
          "short_name": "\u9d28\u8137\u6d32",
          "types": [
            "establishment",
            "natural_feature"
          ]
        },
        {
          "long_name": "\u9999\u6e2f\u5cf6",
          "short_name": "\u9999\u6e2f\u5cf6",
          "types": [
            "administrative_area_level_1",
            "political"
          ]
        },
        {
          "long_name": "\u9999\u6e2f",
          "short_name": "HK",
          "types": [
            "country",
            "political"
          ]
        }
      ],
      "formatted_address": "\u9999\u6e2f\u9d28\u8137\u6d32",
      "geometry": {
        "bounds": {
          "northeast": {
            "lat": 22.2457869,
            "lng": 114.163185
          },
          "southwest": {
            "lat": 22.2338824,
            "lng": 114.1440607
          }
        },
        "location": {
          "lat": 22.2418581,
          "lng": 114.1528532
        },
        "location_type": "APPROXIMATE",
        "viewport": {
          "northeast": {
            "lat": 22.2457869,
            "lng": 114.163185
          },
          "southwest": {
            "lat": 22.2338824,
            "lng": 114.1440607
          }
        }
      },
      "place_id": "ChIJLXjXxKiqBjQRjFs4ben-eik",
      "types": [
        "establishment",
        "natural_feature"
      ]
    }
  ],
  "licno": "2215801395",
  "timestamp": 1564968756,
  "version": "1564966095"
}
