{
  "adr_en": "\u7f8e\u82d1, G/F, 21 SIU LEK YUEN VILLAGE, DD 194, LOT 953, SHA TIN, NEW TERRITORIES",
  "adr_tc": "\u65b0\u754c\u6c99\u7530\u5c0f\u701d\u6e90\u675121\u865f\u5730\u4e0b\u7b2c194\u7d04\u7b2c953\u5730\u6bb5 \u7f8e\u82d1",
  "geocode_en": [
    {
      "address_components": [
        {
          "long_name": "Hong Kong",
          "short_name": "HK",
          "types": [
            "country",
            "political"
          ]
        }
      ],
      "formatted_address": "Hong Kong, \u6c99\u7530\u5c0f\u701d\u6e90\u6751\u5357\u7d0421\u865f\u5730\u4e0b\uff08\u5ee3\u6e90\u6751\u5c0d\u9762\uff09",
      "geometry": {
        "location": {
          "lat": 22.3812805,
          "lng": 114.2135148
        },
        "location_type": "GEOMETRIC_CENTER",
        "viewport": {
          "northeast": {
            "lat": 22.3826294802915,
            "lng": 114.2148637802915
          },
          "southwest": {
            "lat": 22.3799315197085,
            "lng": 114.2121658197085
          }
        }
      },
      "partial_match": true,
      "place_id": "ChIJNTCtwUIGBDQRmIw6rrj1yxg",
      "plus_code": {
        "compound_code": "96J7+GC Hong Kong",
        "global_code": "7PJP96J7+GC"
      },
      "types": [
        "establishment",
        "food",
        "point_of_interest",
        "restaurant"
      ]
    },
    {
      "address_components": [
        {
          "long_name": "San Tin Yuen Long",
          "short_name": "San Tin Yuen Long",
          "types": [
            "neighborhood",
            "political"
          ]
        },
        {
          "long_name": "New Territories",
          "short_name": "New Territories",
          "types": [
            "administrative_area_level_1",
            "political"
          ]
        },
        {
          "long_name": "Hong Kong",
          "short_name": "HK",
          "types": [
            "country",
            "political"
          ]
        }
      ],
      "formatted_address": "San Tin Yuen Long, Hong Kong",
      "geometry": {
        "location": {
          "lat": 22.3812778,
          "lng": 114.2128622
        },
        "location_type": "GEOMETRIC_CENTER",
        "viewport": {
          "northeast": {
            "lat": 22.3826267802915,
            "lng": 114.2142111802915
          },
          "southwest": {
            "lat": 22.3799288197085,
            "lng": 114.2115132197085
          }
        }
      },
      "partial_match": true,
      "place_id": "ChIJP_FTJl0GBDQRnVRwAmPO3rs",
      "plus_code": {
        "compound_code": "96J7+G4 Hong Kong",
        "global_code": "7PJP96J7+G4"
      },
      "types": [
        "establishment",
        "lodging",
        "point_of_interest"
      ]
    }
  ],
  "geocode_tc": [
    {
      "address_components": [
        {
          "long_name": "\u9999\u6e2f",
          "short_name": "HK",
          "types": [
            "country",
            "political"
          ]
        }
      ],
      "formatted_address": "\u9999\u6e2f\u6c99\u7530\u5c0f\u701d\u6e90\u6751\u5357\u7d0421\u865f\u5730\u4e0b\uff08\u5ee3\u6e90\u6751\u5c0d\u9762\uff09",
      "geometry": {
        "location": {
          "lat": 22.3812805,
          "lng": 114.2135148
        },
        "location_type": "GEOMETRIC_CENTER",
        "viewport": {
          "northeast": {
            "lat": 22.3826294802915,
            "lng": 114.2148637802915
          },
          "southwest": {
            "lat": 22.3799315197085,
            "lng": 114.2121658197085
          }
        }
      },
      "partial_match": true,
      "place_id": "ChIJNTCtwUIGBDQRmIw6rrj1yxg",
      "plus_code": {
        "compound_code": "96J7+GC \u9999\u6e2f",
        "global_code": "7PJP96J7+GC"
      },
      "types": [
        "establishment",
        "food",
        "point_of_interest",
        "restaurant"
      ]
    }
  ],
  "licno": "2297804745",
  "timestamp": 1564975666,
  "version": "1564966095"
}
