{
  "adr_en": "Das Gute, G/F., FRONT PORTION AT SHOP 1 AND OPPOSITE PORTION, SHOP 1 & 3, WESTERN MARKET, 323 DES VOEUX ROAD CENTRAL, WESTERN, HONG KONG",
  "adr_tc": "\u9999\u6e2f\u897f\u74b0\u5fb7\u8f14\u9053\u4e2d323\u865f\u897f\u6e2f\u57ce\u5730\u4e0b1\u865f\u53ca3\u865f, 1\u865f\u524d\u92ea\u53ca\u5c0d \u9762\u92ea Das Gute",
  "geocode_en": [
    {
      "address_components": [
        {
          "long_name": "Western Market",
          "short_name": "Western Market",
          "types": [
            "premise"
          ]
        },
        {
          "long_name": "Des Voeux Road Central",
          "short_name": "Des Voeux Rd Central",
          "types": [
            "route"
          ]
        },
        {
          "long_name": "Sheung Wan",
          "short_name": "Sheung Wan",
          "types": [
            "neighborhood",
            "political"
          ]
        },
        {
          "long_name": "Hong Kong Island",
          "short_name": "Hong Kong Island",
          "types": [
            "administrative_area_level_1",
            "political"
          ]
        },
        {
          "long_name": "Hong Kong",
          "short_name": "HK",
          "types": [
            "country",
            "political"
          ]
        }
      ],
      "formatted_address": "Western Market, Des Voeux Rd Central, Sheung Wan, Hong Kong",
      "geometry": {
        "location": {
          "lat": 22.2870965,
          "lng": 114.1504204
        },
        "location_type": "ROOFTOP",
        "viewport": {
          "northeast": {
            "lat": 22.2884454802915,
            "lng": 114.1517693802915
          },
          "southwest": {
            "lat": 22.2857475197085,
            "lng": 114.1490714197085
          }
        }
      },
      "partial_match": true,
      "place_id": "ChIJG-pt0X0ABDQR5L0hjbhTWG8",
      "plus_code": {
        "compound_code": "75P2+R5 Hong Kong",
        "global_code": "7PJP75P2+R5"
      },
      "types": [
        "establishment",
        "food",
        "point_of_interest",
        "restaurant"
      ]
    },
    {
      "address_components": [
        {
          "long_name": "PORTION, SHOP 1 & 3",
          "short_name": "PORTION, SHOP 1 & 3",
          "types": [
            "subpremise"
          ]
        },
        {
          "long_name": "Western Market",
          "short_name": "Western Market",
          "types": [
            "premise"
          ]
        },
        {
          "long_name": "323",
          "short_name": "323",
          "types": [
            "street_number"
          ]
        },
        {
          "long_name": "Des Voeux Road Central",
          "short_name": "Des Voeux Rd Central",
          "types": [
            "route"
          ]
        },
        {
          "long_name": "Sheung Wan",
          "short_name": "Sheung Wan",
          "types": [
            "neighborhood",
            "political"
          ]
        },
        {
          "long_name": "Hong Kong Island",
          "short_name": "Hong Kong Island",
          "types": [
            "administrative_area_level_1",
            "political"
          ]
        },
        {
          "long_name": "Hong Kong",
          "short_name": "HK",
          "types": [
            "country",
            "political"
          ]
        }
      ],
      "formatted_address": "PORTION, SHOP 1 & 3, Western Market, 323 Des Voeux Rd Central, Sheung Wan, Hong Kong",
      "geometry": {
        "bounds": {
          "northeast": {
            "lat": 22.2875389,
            "lng": 114.1505529
          },
          "southwest": {
            "lat": 22.2870761,
            "lng": 114.150218
          }
        },
        "location": {
          "lat": 22.2872871,
          "lng": 114.1503915
        },
        "location_type": "ROOFTOP",
        "viewport": {
          "northeast": {
            "lat": 22.2886564802915,
            "lng": 114.1517344302915
          },
          "southwest": {
            "lat": 22.2859585197085,
            "lng": 114.1490364697085
          }
        }
      },
      "partial_match": true,
      "place_id": "ElRQT1JUSU9OLCBTSE9QIDEgJiAzLCBXZXN0ZXJuIE1hcmtldCwgMzIzIERlcyBWb2V1eCBSZCBDZW50cmFsLCBTaGV1bmcgV2FuLCBIb25nIEtvbmciLxotChYKFAoSCcdybtF9AAQ0ERaq_jbCCCHAEhNQT1JUSU9OLCBTSE9QIDEgJiAz",
      "types": [
        "subpremise"
      ]
    }
  ],
  "geocode_tc": [
    {
      "address_components": [
        {
          "long_name": "\u5730\u4e0b1\u865f\u53ca",
          "short_name": "\u5730\u4e0b1\u865f\u53ca",
          "types": [
            "subpremise"
          ]
        },
        {
          "long_name": "\u897f\u6e2f\u57ce",
          "short_name": "\u897f\u6e2f\u57ce",
          "types": [
            "premise"
          ]
        },
        {
          "long_name": "323",
          "short_name": "323",
          "types": [
            "street_number"
          ]
        },
        {
          "long_name": "\u5fb7\u8f14\u9053\u4e2d",
          "short_name": "\u5fb7\u8f14\u9053\u4e2d",
          "types": [
            "route"
          ]
        },
        {
          "long_name": "\u4e0a\u74b0",
          "short_name": "\u4e0a\u74b0",
          "types": [
            "neighborhood",
            "political"
          ]
        },
        {
          "long_name": "\u9999\u6e2f\u5cf6",
          "short_name": "\u9999\u6e2f\u5cf6",
          "types": [
            "administrative_area_level_1",
            "political"
          ]
        },
        {
          "long_name": "\u9999\u6e2f",
          "short_name": "HK",
          "types": [
            "country",
            "political"
          ]
        }
      ],
      "formatted_address": "\u9999\u6e2f\u4e0a\u74b0\u5fb7\u8f14\u9053\u4e2d323\u865f\u897f\u6e2f\u57ce\u5730\u4e0b1\u865f\u53ca",
      "geometry": {
        "bounds": {
          "northeast": {
            "lat": 22.2875389,
            "lng": 114.1505529
          },
          "southwest": {
            "lat": 22.2870761,
            "lng": 114.150218
          }
        },
        "location": {
          "lat": 22.2872871,
          "lng": 114.1503915
        },
        "location_type": "ROOFTOP",
        "viewport": {
          "northeast": {
            "lat": 22.2886564802915,
            "lng": 114.1517344302915
          },
          "southwest": {
            "lat": 22.2859585197085,
            "lng": 114.1490364697085
          }
        }
      },
      "partial_match": true,
      "place_id": "Ek7lnLDkuIsx6Jmf5Y-KLCBXZXN0ZXJuIE1hcmtldCwgMzIzIERlcyBWb2V1eCBSZCBDZW50cmFsLCBTaGV1bmcgV2FuLCBIb25nIEtvbmciKRonChYKFAoSCcdybtF9AAQ0ERaq_jbCCCHAEg3lnLDkuIsx6Jmf5Y-K",
      "types": [
        "subpremise"
      ]
    },
    {
      "address_components": [
        {
          "long_name": "\u897f\u74b0",
          "short_name": "\u897f\u74b0",
          "types": [
            "neighborhood",
            "political"
          ]
        },
        {
          "long_name": "\u9999\u6e2f\u5cf6",
          "short_name": "\u9999\u6e2f\u5cf6",
          "types": [
            "administrative_area_level_1",
            "political"
          ]
        },
        {
          "long_name": "\u9999\u6e2f",
          "short_name": "HK",
          "types": [
            "country",
            "political"
          ]
        }
      ],
      "formatted_address": "\u9999\u6e2f\u897f\u74b0",
      "geometry": {
        "bounds": {
          "northeast": {
            "lat": 22.290677,
            "lng": 114.147355
          },
          "southwest": {
            "lat": 22.2783778,
            "lng": 114.1183015
          }
        },
        "location": {
          "lat": 22.2876838,
          "lng": 114.1365037
        },
        "location_type": "APPROXIMATE",
        "viewport": {
          "northeast": {
            "lat": 22.290677,
            "lng": 114.147355
          },
          "southwest": {
            "lat": 22.2783778,
            "lng": 114.1183015
          }
        }
      },
      "partial_match": true,
      "place_id": "ChIJA1Sz1IT_AzQRamZs71Dwo_s",
      "types": [
        "neighborhood",
        "political"
      ]
    },
    {
      "address_components": [
        {
          "long_name": "\u897f\u6e2f\u57ce",
          "short_name": "\u897f\u6e2f\u57ce",
          "types": [
            "premise"
          ]
        },
        {
          "long_name": "\u5fb7\u8f14\u9053\u4e2d",
          "short_name": "\u5fb7\u8f14\u9053\u4e2d",
          "types": [
            "route"
          ]
        },
        {
          "long_name": "\u4e0a\u74b0",
          "short_name": "\u4e0a\u74b0",
          "types": [
            "neighborhood",
            "political"
          ]
        },
        {
          "long_name": "\u9999\u6e2f\u5cf6",
          "short_name": "\u9999\u6e2f\u5cf6",
          "types": [
            "administrative_area_level_1",
            "political"
          ]
        },
        {
          "long_name": "\u9999\u6e2f",
          "short_name": "HK",
          "types": [
            "country",
            "political"
          ]
        }
      ],
      "formatted_address": "\u9999\u6e2f\u4e0a\u74b0\u5fb7\u8f14\u9053\u4e2d\u897f\u6e2f\u57ce",
      "geometry": {
        "location": {
          "lat": 22.2870965,
          "lng": 114.1504204
        },
        "location_type": "ROOFTOP",
        "viewport": {
          "northeast": {
            "lat": 22.2884454802915,
            "lng": 114.1517693802915
          },
          "southwest": {
            "lat": 22.2857475197085,
            "lng": 114.1490714197085
          }
        }
      },
      "partial_match": true,
      "place_id": "ChIJG-pt0X0ABDQR5L0hjbhTWG8",
      "plus_code": {
        "compound_code": "75P2+R5 \u9999\u6e2f",
        "global_code": "7PJP75P2+R5"
      },
      "types": [
        "establishment",
        "food",
        "point_of_interest",
        "restaurant"
      ]
    }
  ],
  "licno": "2218802520",
  "timestamp": 1564968756,
  "version": "1564966095"
}
