{
  "adr_en": "HAN GUK GUNG, G/F, WANG FU BLDG, 5-7 CHATHAM COURT, TSIM SHA TSUI, KOWLOON",
  "adr_tc": "\u4e5d\u9f8d\u5c16\u6c99\u5480\u6f06\u54b8\u570d5-7\u865f \u5b8f\u5bcc\u5927\u5ec8\u5730\u4e0b \u97d3\u570b\u5bae",
  "geocode_en": [
    {
      "address_components": [
        {
          "long_name": "Hong Kong",
          "short_name": "HK",
          "types": [
            "country",
            "political"
          ]
        }
      ],
      "formatted_address": "Hong Kong, \u6f06\u54b8\u570d5\uff5e7",
      "geometry": {
        "location": {
          "lat": 22.301853,
          "lng": 114.175973
        },
        "location_type": "GEOMETRIC_CENTER",
        "viewport": {
          "northeast": {
            "lat": 22.3032019802915,
            "lng": 114.1773219802915
          },
          "southwest": {
            "lat": 22.30050401970849,
            "lng": 114.1746240197085
          }
        }
      },
      "partial_match": true,
      "place_id": "ChIJm_010O4ABDQRo0Y9CIM3jo4",
      "plus_code": {
        "compound_code": "852G+P9 Hong Kong",
        "global_code": "7PJP852G+P9"
      },
      "types": [
        "establishment",
        "food",
        "point_of_interest",
        "restaurant"
      ]
    },
    {
      "address_components": [
        {
          "long_name": "Wang Fu Building",
          "short_name": "Wang Fu Building",
          "types": [
            "premise"
          ]
        },
        {
          "long_name": "5-7",
          "short_name": "5-7",
          "types": [
            "street_number"
          ]
        },
        {
          "long_name": "Chatham Court",
          "short_name": "Chatham Ct",
          "types": [
            "route"
          ]
        },
        {
          "long_name": "Tsim Sha Tsui",
          "short_name": "Tsim Sha Tsui",
          "types": [
            "neighborhood",
            "political"
          ]
        },
        {
          "long_name": "Kowloon",
          "short_name": "Kowloon",
          "types": [
            "administrative_area_level_1",
            "political"
          ]
        },
        {
          "long_name": "Hong Kong",
          "short_name": "HK",
          "types": [
            "country",
            "political"
          ]
        }
      ],
      "formatted_address": "Wang Fu Building, 5-7 Chatham Ct, Tsim Sha Tsui, Hong Kong",
      "geometry": {
        "bounds": {
          "northeast": {
            "lat": 22.301991,
            "lng": 114.1761071
          },
          "southwest": {
            "lat": 22.3017801,
            "lng": 114.175873
          }
        },
        "location": {
          "lat": 22.3018924,
          "lng": 114.1760063
        },
        "location_type": "ROOFTOP",
        "viewport": {
          "northeast": {
            "lat": 22.3032345302915,
            "lng": 114.1773390302915
          },
          "southwest": {
            "lat": 22.30053656970849,
            "lng": 114.1746410697085
          }
        }
      },
      "partial_match": true,
      "place_id": "ChIJ4aO10e4ABDQRkrK7AHjyQlY",
      "types": [
        "premise"
      ]
    }
  ],
  "geocode_tc": [
    {
      "address_components": [
        {
          "long_name": "\u9999\u6e2f",
          "short_name": "HK",
          "types": [
            "country",
            "political"
          ]
        }
      ],
      "formatted_address": "\u9999\u6e2f\u6f06\u54b8\u570d5\uff5e7",
      "geometry": {
        "location": {
          "lat": 22.301853,
          "lng": 114.175973
        },
        "location_type": "GEOMETRIC_CENTER",
        "viewport": {
          "northeast": {
            "lat": 22.3032019802915,
            "lng": 114.1773219802915
          },
          "southwest": {
            "lat": 22.30050401970849,
            "lng": 114.1746240197085
          }
        }
      },
      "place_id": "ChIJm_010O4ABDQRo0Y9CIM3jo4",
      "plus_code": {
        "compound_code": "852G+P9 \u9999\u6e2f",
        "global_code": "7PJP852G+P9"
      },
      "types": [
        "establishment",
        "food",
        "point_of_interest",
        "restaurant"
      ]
    }
  ],
  "licno": "2261135075",
  "timestamp": 1564968756,
  "version": "1564966095"
}
