{
  "adr_en": "\u51f1\u96c0\u6703, 1/F, VINCENT HOUSE, 30-30A JORDAN ROAD, KOWLOON",
  "adr_tc": "\u4e5d\u9f8d\u4f50\u6566\u905330-30A\u865f\u6c38\u76db\u5927\u5ec81\u6a13 \u51f1\u96c0\u6703",
  "geocode_en": [
    {
      "address_components": [
        {
          "long_name": "Vincent House",
          "short_name": "Vincent House",
          "types": [
            "premise"
          ]
        },
        {
          "long_name": "30-30A",
          "short_name": "30-30A",
          "types": [
            "street_number"
          ]
        },
        {
          "long_name": "Jordan Road",
          "short_name": "Jordan Rd",
          "types": [
            "route"
          ]
        },
        {
          "long_name": "Yau Ma Tei",
          "short_name": "Yau Ma Tei",
          "types": [
            "neighborhood",
            "political"
          ]
        },
        {
          "long_name": "Kowloon",
          "short_name": "Kowloon",
          "types": [
            "administrative_area_level_1",
            "political"
          ]
        },
        {
          "long_name": "Hong Kong",
          "short_name": "HK",
          "types": [
            "country",
            "political"
          ]
        }
      ],
      "formatted_address": "Vincent House, 30-30A Jordan Rd, Yau Ma Tei, Hong Kong",
      "geometry": {
        "bounds": {
          "northeast": {
            "lat": 22.305364,
            "lng": 114.1691571
          },
          "southwest": {
            "lat": 22.305148,
            "lng": 114.1690241
          }
        },
        "location": {
          "lat": 22.3052501,
          "lng": 114.169086
        },
        "location_type": "ROOFTOP",
        "viewport": {
          "northeast": {
            "lat": 22.3066049802915,
            "lng": 114.1704395802915
          },
          "southwest": {
            "lat": 22.3039070197085,
            "lng": 114.1677416197085
          }
        }
      },
      "partial_match": true,
      "place_id": "ChIJ8WvcPesABDQRIuiqcgAwi6E",
      "types": [
        "premise"
      ]
    }
  ],
  "geocode_tc": [
    {
      "address_components": [
        {
          "long_name": "\u6c38\u76db\u5927\u5ec8",
          "short_name": "\u6c38\u76db\u5927\u5ec8",
          "types": [
            "premise"
          ]
        },
        {
          "long_name": "30-30A",
          "short_name": "30-30A",
          "types": [
            "street_number"
          ]
        },
        {
          "long_name": "\u4f50\u6566\u9053",
          "short_name": "\u4f50\u6566\u9053",
          "types": [
            "route"
          ]
        },
        {
          "long_name": "\u6cb9\u9ebb\u5730",
          "short_name": "\u6cb9\u9ebb\u5730",
          "types": [
            "neighborhood",
            "political"
          ]
        },
        {
          "long_name": "\u4e5d\u9f8d",
          "short_name": "\u4e5d\u9f8d",
          "types": [
            "administrative_area_level_1",
            "political"
          ]
        },
        {
          "long_name": "\u9999\u6e2f",
          "short_name": "HK",
          "types": [
            "country",
            "political"
          ]
        }
      ],
      "formatted_address": "\u9999\u6e2f\u6cb9\u9ebb\u5730\u4f50\u6566\u905330-30A\u865f\u6c38\u76db\u5927\u5ec8",
      "geometry": {
        "bounds": {
          "northeast": {
            "lat": 22.305364,
            "lng": 114.1691571
          },
          "southwest": {
            "lat": 22.305148,
            "lng": 114.1690241
          }
        },
        "location": {
          "lat": 22.3052501,
          "lng": 114.169086
        },
        "location_type": "ROOFTOP",
        "viewport": {
          "northeast": {
            "lat": 22.3066049802915,
            "lng": 114.1704395802915
          },
          "southwest": {
            "lat": 22.3039070197085,
            "lng": 114.1677416197085
          }
        }
      },
      "partial_match": true,
      "place_id": "ChIJ8WvcPesABDQRIuiqcgAwi6E",
      "types": [
        "premise"
      ]
    },
    {
      "address_components": [
        {
          "long_name": "4/F",
          "short_name": "4/F",
          "types": [
            "subpremise"
          ]
        },
        {
          "long_name": "Booman House",
          "short_name": "Booman House",
          "types": [
            "premise"
          ]
        },
        {
          "long_name": "37U",
          "short_name": "37U",
          "types": [
            "street_number"
          ]
        },
        {
          "long_name": "Jordan Road",
          "short_name": "Jordan Rd",
          "types": [
            "route"
          ]
        },
        {
          "long_name": "Jordan",
          "short_name": "Jordan",
          "types": [
            "neighborhood",
            "political"
          ]
        },
        {
          "long_name": "Kowloon",
          "short_name": "Kowloon",
          "types": [
            "administrative_area_level_1",
            "political"
          ]
        },
        {
          "long_name": "\u9999\u6e2f",
          "short_name": "HK",
          "types": [
            "country",
            "political"
          ]
        }
      ],
      "formatted_address": "4/F, Booman House, 37U Jordan Rd, Jordan, \u9999\u6e2f",
      "geometry": {
        "location": {
          "lat": 22.305861,
          "lng": 114.168678
        },
        "location_type": "ROOFTOP",
        "viewport": {
          "northeast": {
            "lat": 22.3072099802915,
            "lng": 114.1700269802915
          },
          "southwest": {
            "lat": 22.3045120197085,
            "lng": 114.1673290197085
          }
        }
      },
      "partial_match": true,
      "place_id": "ChIJuy5OJOsABDQR0vsgETE8mGY",
      "plus_code": {
        "compound_code": "8549+8F \u9999\u6e2f",
        "global_code": "7PJP8549+8F"
      },
      "types": [
        "establishment",
        "point_of_interest"
      ]
    }
  ],
  "licno": "2261813317",
  "timestamp": 1564968756,
  "version": "1564966095"
}
