{
  "adr_en": "ODONYA SHOKUDO, SHOP 3, G/F., I. UNIQ RESIDENCE, 295, 297, 299, 301 & 303 SHAU KEI WAN ROAD, SHAU KEI WAN, HONG KONG",
  "adr_tc": "\u9999\u6e2f\u7b72\u7b95\u7063 \u7b72\u7b95\u7063\u9053295,297,299,301\u53ca303\u865f\u8b7d\u90fd \u5730\u4e0b3\u865f\u92ea \u5927\u4e3c\u5bb6",
  "geocode_en": [
    {
      "address_components": [
        {
          "long_name": "305\u865f",
          "short_name": "305\u865f",
          "types": [
            "street_number"
          ]
        },
        {
          "long_name": "Shau Kei Wan Road",
          "short_name": "Shau Kei Wan Rd",
          "types": [
            "route"
          ]
        },
        {
          "long_name": "Shau Kei Wan",
          "short_name": "Shau Kei Wan",
          "types": [
            "neighborhood",
            "political"
          ]
        },
        {
          "long_name": "Hong Kong Island",
          "short_name": "Hong Kong Island",
          "types": [
            "administrative_area_level_1",
            "political"
          ]
        },
        {
          "long_name": "Hong Kong",
          "short_name": "HK",
          "types": [
            "country",
            "political"
          ]
        }
      ],
      "formatted_address": "305\u865f Shau Kei Wan Rd, Shau Kei Wan, Hong Kong",
      "geometry": {
        "location": {
          "lat": 22.2784662,
          "lng": 114.2266301
        },
        "location_type": "ROOFTOP",
        "viewport": {
          "northeast": {
            "lat": 22.2798151802915,
            "lng": 114.2279790802915
          },
          "southwest": {
            "lat": 22.2771172197085,
            "lng": 114.2252811197085
          }
        }
      },
      "partial_match": true,
      "place_id": "ChIJdfTyAksBBDQRgpQGJLXgMZE",
      "plus_code": {
        "compound_code": "76HG+9M Hong Kong",
        "global_code": "7PJP76HG+9M"
      },
      "types": [
        "establishment",
        "food",
        "point_of_interest",
        "restaurant"
      ]
    },
    {
      "address_components": [
        {
          "long_name": "301",
          "short_name": "301",
          "types": [
            "subpremise"
          ]
        },
        {
          "long_name": "I.uniq Residence",
          "short_name": "I.uniq Residence",
          "types": [
            "premise"
          ]
        },
        {
          "long_name": "305",
          "short_name": "305",
          "types": [
            "street_number"
          ]
        },
        {
          "long_name": "Shau Kei Wan Road",
          "short_name": "Shau Kei Wan Rd",
          "types": [
            "route"
          ]
        },
        {
          "long_name": "Shau Kei Wan",
          "short_name": "Shau Kei Wan",
          "types": [
            "neighborhood",
            "political"
          ]
        },
        {
          "long_name": "Hong Kong Island",
          "short_name": "Hong Kong Island",
          "types": [
            "administrative_area_level_1",
            "political"
          ]
        },
        {
          "long_name": "Hong Kong",
          "short_name": "HK",
          "types": [
            "country",
            "political"
          ]
        }
      ],
      "formatted_address": "301, I.uniq Residence, 305 Shau Kei Wan Rd, Shau Kei Wan, Hong Kong",
      "geometry": {
        "bounds": {
          "northeast": {
            "lat": 22.2786,
            "lng": 114.2267729
          },
          "southwest": {
            "lat": 22.2783851,
            "lng": 114.2265819
          }
        },
        "location": {
          "lat": 22.2784691,
          "lng": 114.226674
        },
        "location_type": "ROOFTOP",
        "viewport": {
          "northeast": {
            "lat": 22.2798415302915,
            "lng": 114.2280263802915
          },
          "southwest": {
            "lat": 22.2771435697085,
            "lng": 114.2253284197085
          }
        }
      },
      "partial_match": true,
      "place_id": "EkMzMDEsIEkudW5pcSBSZXNpZGVuY2UsIDMwNSBTaGF1IEtlaSBXYW4gUmQsIFNoYXUgS2VpIFdhbiwgSG9uZyBLb25nIh8aHQoWChQKEgn9GubwdwEENBFKQVagtRdFGBIDMzAx",
      "types": [
        "subpremise"
      ]
    },
    {
      "address_components": [
        {
          "long_name": "299",
          "short_name": "299",
          "types": [
            "subpremise"
          ]
        },
        {
          "long_name": "I.uniq Residence",
          "short_name": "I.uniq Residence",
          "types": [
            "premise"
          ]
        },
        {
          "long_name": "305",
          "short_name": "305",
          "types": [
            "street_number"
          ]
        },
        {
          "long_name": "Shau Kei Wan Road",
          "short_name": "Shau Kei Wan Rd",
          "types": [
            "route"
          ]
        },
        {
          "long_name": "Shau Kei Wan",
          "short_name": "Shau Kei Wan",
          "types": [
            "neighborhood",
            "political"
          ]
        },
        {
          "long_name": "Hong Kong Island",
          "short_name": "Hong Kong Island",
          "types": [
            "administrative_area_level_1",
            "political"
          ]
        },
        {
          "long_name": "Hong Kong",
          "short_name": "HK",
          "types": [
            "country",
            "political"
          ]
        }
      ],
      "formatted_address": "299, I.uniq Residence, 305 Shau Kei Wan Rd, Shau Kei Wan, Hong Kong",
      "geometry": {
        "bounds": {
          "northeast": {
            "lat": 22.2786,
            "lng": 114.2267729
          },
          "southwest": {
            "lat": 22.2783851,
            "lng": 114.2265819
          }
        },
        "location": {
          "lat": 22.2784691,
          "lng": 114.226674
        },
        "location_type": "ROOFTOP",
        "viewport": {
          "northeast": {
            "lat": 22.2798415302915,
            "lng": 114.2280263802915
          },
          "southwest": {
            "lat": 22.2771435697085,
            "lng": 114.2253284197085
          }
        }
      },
      "partial_match": true,
      "place_id": "EkMyOTksIEkudW5pcSBSZXNpZGVuY2UsIDMwNSBTaGF1IEtlaSBXYW4gUmQsIFNoYXUgS2VpIFdhbiwgSG9uZyBLb25nIh8aHQoWChQKEgn9GubwdwEENBFKQVagtRdFGBIDMjk5",
      "types": [
        "subpremise"
      ]
    },
    {
      "address_components": [
        {
          "long_name": "297",
          "short_name": "297",
          "types": [
            "subpremise"
          ]
        },
        {
          "long_name": "I.uniq Residence",
          "short_name": "I.uniq Residence",
          "types": [
            "premise"
          ]
        },
        {
          "long_name": "305",
          "short_name": "305",
          "types": [
            "street_number"
          ]
        },
        {
          "long_name": "Shau Kei Wan Road",
          "short_name": "Shau Kei Wan Rd",
          "types": [
            "route"
          ]
        },
        {
          "long_name": "Shau Kei Wan",
          "short_name": "Shau Kei Wan",
          "types": [
            "neighborhood",
            "political"
          ]
        },
        {
          "long_name": "Hong Kong Island",
          "short_name": "Hong Kong Island",
          "types": [
            "administrative_area_level_1",
            "political"
          ]
        },
        {
          "long_name": "Hong Kong",
          "short_name": "HK",
          "types": [
            "country",
            "political"
          ]
        }
      ],
      "formatted_address": "297, I.uniq Residence, 305 Shau Kei Wan Rd, Shau Kei Wan, Hong Kong",
      "geometry": {
        "bounds": {
          "northeast": {
            "lat": 22.2786,
            "lng": 114.2267729
          },
          "southwest": {
            "lat": 22.2783851,
            "lng": 114.2265819
          }
        },
        "location": {
          "lat": 22.2784691,
          "lng": 114.226674
        },
        "location_type": "ROOFTOP",
        "viewport": {
          "northeast": {
            "lat": 22.2798415302915,
            "lng": 114.2280263802915
          },
          "southwest": {
            "lat": 22.2771435697085,
            "lng": 114.2253284197085
          }
        }
      },
      "partial_match": true,
      "place_id": "EkMyOTcsIEkudW5pcSBSZXNpZGVuY2UsIDMwNSBTaGF1IEtlaSBXYW4gUmQsIFNoYXUgS2VpIFdhbiwgSG9uZyBLb25nIh8aHQoWChQKEgn9GubwdwEENBFKQVagtRdFGBIDMjk3",
      "types": [
        "subpremise"
      ]
    }
  ],
  "geocode_tc": [
    {
      "address_components": [
        {
          "long_name": "305\u865f",
          "short_name": "305\u865f",
          "types": [
            "street_number"
          ]
        },
        {
          "long_name": "\u7b72\u7b95\u7063\u9053",
          "short_name": "\u7b72\u7b95\u7063\u9053",
          "types": [
            "route"
          ]
        },
        {
          "long_name": "\u7b72\u7b95\u7063",
          "short_name": "\u7b72\u7b95\u7063",
          "types": [
            "neighborhood",
            "political"
          ]
        },
        {
          "long_name": "\u9999\u6e2f\u5cf6",
          "short_name": "\u9999\u6e2f\u5cf6",
          "types": [
            "administrative_area_level_1",
            "political"
          ]
        },
        {
          "long_name": "\u9999\u6e2f",
          "short_name": "HK",
          "types": [
            "country",
            "political"
          ]
        }
      ],
      "formatted_address": "\u9999\u6e2f\u7b72\u7b95\u7063\u7b72\u7b95\u7063\u9053305\u865f",
      "geometry": {
        "location": {
          "lat": 22.2784662,
          "lng": 114.2266301
        },
        "location_type": "ROOFTOP",
        "viewport": {
          "northeast": {
            "lat": 22.2798151802915,
            "lng": 114.2279790802915
          },
          "southwest": {
            "lat": 22.2771172197085,
            "lng": 114.2252811197085
          }
        }
      },
      "partial_match": true,
      "place_id": "ChIJdfTyAksBBDQRgpQGJLXgMZE",
      "plus_code": {
        "compound_code": "76HG+9M \u9999\u6e2f",
        "global_code": "7PJP76HG+9M"
      },
      "types": [
        "establishment",
        "food",
        "point_of_interest",
        "restaurant"
      ]
    }
  ],
  "licno": "2211808431",
  "timestamp": 1564966180,
  "version": "1564966095"
}
