{
  "adr_en": "\u7279\u9910\uff0e\u756a\u8304\u6e6f\u5c08\u9580\u5e97, SHOP NO 2, G/F, THE CORNWALL, 63 LUEN WO ROAD, FANLING, NEW TERRITORIES",
  "adr_tc": "\u65b0\u754c\u7c89\u5dba \u806f\u548c\u905363\u865f\u5609\u548c\u8ed2 \u5730\u4e0b2\u865f\u92ea \u7279\u9910\uff0e\u756a\u8304\u6e6f\u5c08\u9580\u5e97",
  "geocode_en": [
    {
      "address_components": [
        {
          "long_name": "Hong Kong",
          "short_name": "HK",
          "types": [
            "country",
            "political"
          ]
        }
      ],
      "formatted_address": "Hong Kong, \u7c89\u5dba\u806f\u548c\u589f\u806f\u548c\u905363\u865f\u5609\u548c\u8ed2\u5730\u4e0b\uff08\u7531\u806f\u660c\u8857\u5165\uff09",
      "geometry": {
        "location": {
          "lat": 22.4988927,
          "lng": 114.1437016
        },
        "location_type": "GEOMETRIC_CENTER",
        "viewport": {
          "northeast": {
            "lat": 22.5002416802915,
            "lng": 114.1450505802915
          },
          "southwest": {
            "lat": 22.4975437197085,
            "lng": 114.1423526197085
          }
        }
      },
      "partial_match": true,
      "place_id": "ChIJF04DKSD2AzQR673qYyQyxCY",
      "plus_code": {
        "compound_code": "F4XV+HF Hong Kong",
        "global_code": "7PJPF4XV+HF"
      },
      "types": [
        "establishment",
        "food",
        "point_of_interest",
        "restaurant"
      ]
    },
    {
      "address_components": [
        {
          "long_name": "The Cornwall",
          "short_name": "The Cornwall",
          "types": [
            "premise"
          ]
        },
        {
          "long_name": "57-63",
          "short_name": "57-63",
          "types": [
            "street_number"
          ]
        },
        {
          "long_name": "Luen Wo Road",
          "short_name": "Luen Wo Rd",
          "types": [
            "route"
          ]
        },
        {
          "long_name": "Fanling",
          "short_name": "Fanling",
          "types": [
            "neighborhood",
            "political"
          ]
        },
        {
          "long_name": "New Territories",
          "short_name": "New Territories",
          "types": [
            "administrative_area_level_1",
            "political"
          ]
        },
        {
          "long_name": "Hong Kong",
          "short_name": "HK",
          "types": [
            "country",
            "political"
          ]
        }
      ],
      "formatted_address": "The Cornwall, 57-63 Luen Wo Rd, Fanling, Hong Kong",
      "geometry": {
        "bounds": {
          "northeast": {
            "lat": 22.4988729,
            "lng": 114.143744
          },
          "southwest": {
            "lat": 22.498632,
            "lng": 114.1434801
          }
        },
        "location": {
          "lat": 22.498764,
          "lng": 114.1436335
        },
        "location_type": "ROOFTOP",
        "viewport": {
          "northeast": {
            "lat": 22.5001014302915,
            "lng": 114.1449610302915
          },
          "southwest": {
            "lat": 22.49740346970849,
            "lng": 114.1422630697085
          }
        }
      },
      "partial_match": true,
      "place_id": "ChIJXXFoix32AzQRVkkp3_VVkWg",
      "types": [
        "premise"
      ]
    }
  ],
  "geocode_tc": [
    {
      "address_components": [
        {
          "long_name": "\u9999\u6e2f",
          "short_name": "HK",
          "types": [
            "country",
            "political"
          ]
        }
      ],
      "formatted_address": "\u9999\u6e2f\u7c89\u5dba\u806f\u548c\u589f\u806f\u548c\u905363\u865f\u5609\u548c\u8ed2\u5730\u4e0b\uff08\u7531\u806f\u660c\u8857\u5165\uff09",
      "geometry": {
        "location": {
          "lat": 22.4988927,
          "lng": 114.1437016
        },
        "location_type": "GEOMETRIC_CENTER",
        "viewport": {
          "northeast": {
            "lat": 22.5002416802915,
            "lng": 114.1450505802915
          },
          "southwest": {
            "lat": 22.4975437197085,
            "lng": 114.1423526197085
          }
        }
      },
      "place_id": "ChIJF04DKSD2AzQR673qYyQyxCY",
      "plus_code": {
        "compound_code": "F4XV+HF \u9999\u6e2f",
        "global_code": "7PJPF4XV+HF"
      },
      "types": [
        "establishment",
        "food",
        "point_of_interest",
        "restaurant"
      ]
    }
  ],
  "licno": "3196000502",
  "timestamp": 1564975666,
  "version": "1564966095"
}
