{
  "adr_en": "\u5229\u8208\u9910\u5ef3, SHOP A, G/F, SUN YUE BUILDING, 44-54 FOOK TAK STREET, YUEN LONG, NEW TERRITORIES",
  "adr_tc": "\u65b0\u754c\u5143\u6717\u798f\u5fb7\u885744-54\u865f\u65b0\u88d5\u6a13\u5730\u4e0bA\u92ea \u5229\u8208\u9910\u5ef3",
  "geocode_en": [
    {
      "address_components": [
        {
          "long_name": "Hong Kong",
          "short_name": "HK",
          "types": [
            "country",
            "political"
          ]
        }
      ],
      "formatted_address": "Hong Kong, \u5143\u6717\u798f\u5fb7\u885756\u865f\u7cbe\u82f1\u5927\u5ec8\u5730\u4e0bC\u8216",
      "geometry": {
        "location": {
          "lat": 22.4457597,
          "lng": 114.0276226
        },
        "location_type": "GEOMETRIC_CENTER",
        "viewport": {
          "northeast": {
            "lat": 22.4471086802915,
            "lng": 114.0289715802915
          },
          "southwest": {
            "lat": 22.4444107197085,
            "lng": 114.0262736197085
          }
        }
      },
      "partial_match": true,
      "place_id": "ChIJz57fUqDwAzQRhSUHdtKfNO8",
      "plus_code": {
        "compound_code": "C2WH+82 Hong Kong",
        "global_code": "7PJPC2WH+82"
      },
      "types": [
        "establishment",
        "food",
        "point_of_interest",
        "restaurant"
      ]
    },
    {
      "address_components": [
        {
          "long_name": "Sun Yue Building",
          "short_name": "Sun Yue Building",
          "types": [
            "premise"
          ]
        },
        {
          "long_name": "44",
          "short_name": "44",
          "types": [
            "street_number"
          ]
        },
        {
          "long_name": "Fook Tak Street",
          "short_name": "Fook Tak St",
          "types": [
            "route"
          ]
        },
        {
          "long_name": "Yuen Long",
          "short_name": "Yuen Long",
          "types": [
            "neighborhood",
            "political"
          ]
        },
        {
          "long_name": "New Territories",
          "short_name": "New Territories",
          "types": [
            "administrative_area_level_1",
            "political"
          ]
        },
        {
          "long_name": "Hong Kong",
          "short_name": "HK",
          "types": [
            "country",
            "political"
          ]
        }
      ],
      "formatted_address": "Sun Yue Building, 44 Fook Tak St, Yuen Long, Hong Kong",
      "geometry": {
        "bounds": {
          "northeast": {
            "lat": 22.445778,
            "lng": 114.027769
          },
          "southwest": {
            "lat": 22.4456379,
            "lng": 114.0276009
          }
        },
        "location": {
          "lat": 22.4457122,
          "lng": 114.0276854
        },
        "location_type": "ROOFTOP",
        "viewport": {
          "northeast": {
            "lat": 22.4470569302915,
            "lng": 114.0290339302915
          },
          "southwest": {
            "lat": 22.4443589697085,
            "lng": 114.0263359697085
          }
        }
      },
      "partial_match": true,
      "place_id": "ChIJcx68VKDwAzQRBHxl3CCDG6g",
      "types": [
        "premise"
      ]
    }
  ],
  "geocode_tc": [
    {
      "address_components": [
        {
          "long_name": "\u5730\u4e0bC\u8216",
          "short_name": "\u5730\u4e0bC\u8216",
          "types": [
            "subpremise"
          ]
        },
        {
          "long_name": "\u7cbe\u82f1\u5927\u5ec8",
          "short_name": "\u7cbe\u82f1\u5927\u5ec8",
          "types": [
            "premise"
          ]
        },
        {
          "long_name": "56\u865f",
          "short_name": "56\u865f",
          "types": [
            "street_number"
          ]
        },
        {
          "long_name": "\u798f\u5fb7\u8857",
          "short_name": "\u798f\u5fb7\u8857",
          "types": [
            "route"
          ]
        },
        {
          "long_name": "\u5143\u6717",
          "short_name": "\u5143\u6717",
          "types": [
            "neighborhood",
            "political"
          ]
        },
        {
          "long_name": "\u65b0\u754c",
          "short_name": "\u65b0\u754c",
          "types": [
            "administrative_area_level_1",
            "political"
          ]
        },
        {
          "long_name": "\u9999\u6e2f",
          "short_name": "HK",
          "types": [
            "country",
            "political"
          ]
        }
      ],
      "formatted_address": "\u9999\u6e2f\u5143\u6717\u798f\u5fb7\u885756\u865f\u7cbe\u82f1\u5927\u5ec8\u5730\u4e0bC\u8216",
      "geometry": {
        "location": {
          "lat": 22.4456942,
          "lng": 114.0273834
        },
        "location_type": "ROOFTOP",
        "viewport": {
          "northeast": {
            "lat": 22.4470431802915,
            "lng": 114.0287323802915
          },
          "southwest": {
            "lat": 22.4443452197085,
            "lng": 114.0260344197085
          }
        }
      },
      "place_id": "ChIJX0MbU6DwAzQRVlNip5NPoMk",
      "plus_code": {
        "compound_code": "C2WG+7X \u9999\u6e2f",
        "global_code": "7PJPC2WG+7X"
      },
      "types": [
        "establishment",
        "food",
        "point_of_interest",
        "restaurant"
      ]
    }
  ],
  "licno": "2294802465",
  "timestamp": 1564975666,
  "version": "1564966095"
}
