{
  "adr_en": "HOT N SPICY, G/F, 27C PAK TAI STREET, TOKWAWAN, KOWLOON CITY, KOWLOON",
  "adr_tc": "\u4e5d\u9f8d\u4e5d\u9f8d\u57ce\u571f\u74dc\u7063\u5317\u5e1d\u885727\u865fC\u5730\u8216 \u8fa3\u4e00\u8fa3",
  "geocode_en": [
    {
      "address_components": [
        {
          "long_name": "G",
          "short_name": "G",
          "types": [
            "subpremise"
          ]
        },
        {
          "long_name": "27 Pak Tai Street",
          "short_name": "27 Pak Tai Street",
          "types": [
            "premise"
          ]
        },
        {
          "long_name": "27",
          "short_name": "27",
          "types": [
            "street_number"
          ]
        },
        {
          "long_name": "Pak Tai Street",
          "short_name": "Pak Tai St",
          "types": [
            "route"
          ]
        },
        {
          "long_name": "To Kwa Wan",
          "short_name": "To Kwa Wan",
          "types": [
            "neighborhood",
            "political"
          ]
        },
        {
          "long_name": "Kowloon",
          "short_name": "Kowloon",
          "types": [
            "administrative_area_level_1",
            "political"
          ]
        },
        {
          "long_name": "Hong Kong",
          "short_name": "HK",
          "types": [
            "country",
            "political"
          ]
        }
      ],
      "formatted_address": "G, 27 Pak Tai Street, 27 Pak Tai St, To Kwa Wan, Hong Kong",
      "geometry": {
        "bounds": {
          "northeast": {
            "lat": 22.320923,
            "lng": 114.188135
          },
          "southwest": {
            "lat": 22.320715,
            "lng": 114.187924
          }
        },
        "location": {
          "lat": 22.320834,
          "lng": 114.1880352
        },
        "location_type": "ROOFTOP",
        "viewport": {
          "northeast": {
            "lat": 22.3221679802915,
            "lng": 114.1893784802915
          },
          "southwest": {
            "lat": 22.3194700197085,
            "lng": 114.1866805197085
          }
        }
      },
      "partial_match": true,
      "place_id": "EjpHLCAyNyBQYWsgVGFpIFN0cmVldCwgMjcgUGFrIFRhaSBTdCwgVG8gS3dhIFdhbiwgSG9uZyBLb25nIh0aGwoWChQKEgkxlezw1gAENBHQ-v9Twzy-NxIBRw",
      "types": [
        "subpremise"
      ]
    },
    {
      "address_components": [
        {
          "long_name": "F",
          "short_name": "F",
          "types": [
            "subpremise"
          ]
        },
        {
          "long_name": "27 Pak Tai Street",
          "short_name": "27 Pak Tai Street",
          "types": [
            "premise"
          ]
        },
        {
          "long_name": "27",
          "short_name": "27",
          "types": [
            "street_number"
          ]
        },
        {
          "long_name": "Pak Tai Street",
          "short_name": "Pak Tai St",
          "types": [
            "route"
          ]
        },
        {
          "long_name": "To Kwa Wan",
          "short_name": "To Kwa Wan",
          "types": [
            "neighborhood",
            "political"
          ]
        },
        {
          "long_name": "Kowloon",
          "short_name": "Kowloon",
          "types": [
            "administrative_area_level_1",
            "political"
          ]
        },
        {
          "long_name": "Hong Kong",
          "short_name": "HK",
          "types": [
            "country",
            "political"
          ]
        }
      ],
      "formatted_address": "F, 27 Pak Tai Street, 27 Pak Tai St, To Kwa Wan, Hong Kong",
      "geometry": {
        "bounds": {
          "northeast": {
            "lat": 22.320923,
            "lng": 114.188135
          },
          "southwest": {
            "lat": 22.320715,
            "lng": 114.187924
          }
        },
        "location": {
          "lat": 22.320834,
          "lng": 114.1880352
        },
        "location_type": "ROOFTOP",
        "viewport": {
          "northeast": {
            "lat": 22.3221679802915,
            "lng": 114.1893784802915
          },
          "southwest": {
            "lat": 22.3194700197085,
            "lng": 114.1866805197085
          }
        }
      },
      "partial_match": true,
      "place_id": "EjpGLCAyNyBQYWsgVGFpIFN0cmVldCwgMjcgUGFrIFRhaSBTdCwgVG8gS3dhIFdhbiwgSG9uZyBLb25nIh0aGwoWChQKEgkxlezw1gAENBHQ-v9Twzy-NxIBRg",
      "types": [
        "subpremise"
      ]
    }
  ],
  "geocode_tc": [
    {
      "address_components": [
        {
          "long_name": "\u5730\u8216 \u8fa3\u4e00\u8fa3",
          "short_name": "\u5730\u8216 \u8fa3\u4e00\u8fa3",
          "types": [
            "subpremise"
          ]
        },
        {
          "long_name": "\u5317\u5e1d\u885727\u865f",
          "short_name": "\u5317\u5e1d\u885727\u865f",
          "types": [
            "premise"
          ]
        },
        {
          "long_name": "27",
          "short_name": "27",
          "types": [
            "street_number"
          ]
        },
        {
          "long_name": "\u5317\u5e1d\u8857",
          "short_name": "\u5317\u5e1d\u8857",
          "types": [
            "route"
          ]
        },
        {
          "long_name": "\u571f\u74dc\u7063",
          "short_name": "\u571f\u74dc\u7063",
          "types": [
            "neighborhood",
            "political"
          ]
        },
        {
          "long_name": "\u4e5d\u9f8d",
          "short_name": "\u4e5d\u9f8d",
          "types": [
            "administrative_area_level_1",
            "political"
          ]
        },
        {
          "long_name": "\u9999\u6e2f",
          "short_name": "HK",
          "types": [
            "country",
            "political"
          ]
        }
      ],
      "formatted_address": "\u9999\u6e2f\u571f\u74dc\u7063\u5317\u5e1d\u885727\u865f\u5317\u5e1d\u885727\u865f\u5730\u8216 \u8fa3\u4e00\u8fa3",
      "geometry": {
        "bounds": {
          "northeast": {
            "lat": 22.320923,
            "lng": 114.188135
          },
          "southwest": {
            "lat": 22.320715,
            "lng": 114.187924
          }
        },
        "location": {
          "lat": 22.320834,
          "lng": 114.1880352
        },
        "location_type": "ROOFTOP",
        "viewport": {
          "northeast": {
            "lat": 22.3221679802915,
            "lng": 114.1893784802915
          },
          "southwest": {
            "lat": 22.3194700197085,
            "lng": 114.1866805197085
          }
        }
      },
      "partial_match": true,
      "place_id": "EknlnLDoiJYg6L6j5LiA6L6jLCAyNyBQYWsgVGFpIFN0cmVldCwgMjcgUGFrIFRhaSBTdCwgVG8gS3dhIFdhbiwgSG9uZyBLb25nIiwaKgoWChQKEgkxlezw1gAENBHQ-v9Twzy-NxIQ5Zyw6IiWIOi-o-S4gOi-ow",
      "types": [
        "subpremise"
      ]
    }
  ],
  "licno": "2252303193",
  "timestamp": 1564968756,
  "version": "1564966095"
}
