{
  "adr_en": "Pepper Lunch, SHOP NOS. 2111-2111A, LEVEL 2, MA ON SHAN PLAZA, 608 SAI SHA ROAD, MA ON SHAN, SHA TIN, NEW TERRITORIES",
  "adr_tc": "\u65b0\u754c\u6c99\u7530\u99ac\u978d\u5c71\u897f\u6c99\u8def608\u865f\u99ac\u978d\u5c71\u5ee3\u5834\u7b2c\u4e8c\u5c64 2111-2111A\u865f\u92ea Pepper Lunch",
  "geocode_en": [
    {
      "address_components": [
        {
          "long_name": "2111-2111A, LEVEL",
          "short_name": "2111-2111A, LEVEL",
          "types": [
            "subpremise"
          ]
        },
        {
          "long_name": "Ma On Shan Plaza",
          "short_name": "Ma On Shan Plaza",
          "types": [
            "premise"
          ]
        },
        {
          "long_name": "608",
          "short_name": "608",
          "types": [
            "street_number"
          ]
        },
        {
          "long_name": "Sai Sha Road",
          "short_name": "Sai Sha Rd",
          "types": [
            "route"
          ]
        },
        {
          "long_name": "Ma On Shan",
          "short_name": "Ma On Shan",
          "types": [
            "neighborhood",
            "political"
          ]
        },
        {
          "long_name": "New Territories",
          "short_name": "New Territories",
          "types": [
            "administrative_area_level_1",
            "political"
          ]
        },
        {
          "long_name": "Hong Kong",
          "short_name": "HK",
          "types": [
            "country",
            "political"
          ]
        }
      ],
      "formatted_address": "2111-2111A, LEVEL, Ma On Shan Plaza, 608 Sai Sha Rd, Ma On Shan, Hong Kong",
      "geometry": {
        "bounds": {
          "northeast": {
            "lat": 22.4260492,
            "lng": 114.2323906
          },
          "southwest": {
            "lat": 22.4248319,
            "lng": 114.2302878
          }
        },
        "location": {
          "lat": 22.4253282,
          "lng": 114.2310624
        },
        "location_type": "ROOFTOP",
        "viewport": {
          "northeast": {
            "lat": 22.4267895302915,
            "lng": 114.2326881802915
          },
          "southwest": {
            "lat": 22.42409156970849,
            "lng": 114.2299902197085
          }
        }
      },
      "partial_match": true,
      "place_id": "EkoyMTExLTIxMTFBLCBMRVZFTCwgTWEgT24gU2hhbiBQbGF6YSwgNjA4IFNhaSBTaGEgUmQsIE1hIE9uIFNoYW4sIEhvbmcgS29uZyItGisKFgoUChIJxdqKDbEIBDQRckGbU7-QaScSETIxMTEtMjExMUEsIExFVkVM",
      "types": [
        "subpremise"
      ]
    },
    {
      "address_components": [
        {
          "long_name": "Ma On Shan Plaza",
          "short_name": "Ma On Shan Plaza",
          "types": [
            "premise"
          ]
        },
        {
          "long_name": "608",
          "short_name": "608",
          "types": [
            "street_number"
          ]
        },
        {
          "long_name": "Sai Sha Road",
          "short_name": "Sai Sha Rd",
          "types": [
            "route"
          ]
        },
        {
          "long_name": "Ma On Shan",
          "short_name": "Ma On Shan",
          "types": [
            "neighborhood",
            "political"
          ]
        },
        {
          "long_name": "New Territories",
          "short_name": "New Territories",
          "types": [
            "administrative_area_level_1",
            "political"
          ]
        },
        {
          "long_name": "Hong Kong",
          "short_name": "HK",
          "types": [
            "country",
            "political"
          ]
        }
      ],
      "formatted_address": "Ma On Shan Plaza, 608 Sai Sha Rd, Ma On Shan, Hong Kong",
      "geometry": {
        "bounds": {
          "northeast": {
            "lat": 22.4260492,
            "lng": 114.2323906
          },
          "southwest": {
            "lat": 22.4248319,
            "lng": 114.2302878
          }
        },
        "location": {
          "lat": 22.4253282,
          "lng": 114.2310624
        },
        "location_type": "ROOFTOP",
        "viewport": {
          "northeast": {
            "lat": 22.4267895302915,
            "lng": 114.2326881802915
          },
          "southwest": {
            "lat": 22.42409156970849,
            "lng": 114.2299902197085
          }
        }
      },
      "partial_match": true,
      "place_id": "ChIJxdqKDbEIBDQRckGbU7-QaSc",
      "types": [
        "premise"
      ]
    }
  ],
  "geocode_tc": [],
  "licno": "2297804578",
  "timestamp": 1564975666,
  "version": "1564966095"
}
