{
  "adr_en": "General Restaurant, UNIT WP01, BASEMENT 1, SITE 5, WHAMPOA GARDEN, KOWLOON CITY, KOWLOON",
  "adr_tc": "\u4e5d\u9f8d\u4e5d\u9f8d\u57ce\u9ec3\u57d4\u82b1\u5712\u7b2c5\u671f\u5730\u5eab1\u6a13WP01\u865f\u55ae\u4f4d General Restaurant",
  "geocode_en": [
    {
      "address_components": [
        {
          "long_name": "BASEMENT 1, SITE",
          "short_name": "BASEMENT 1, SITE",
          "types": [
            "subpremise"
          ]
        },
        {
          "long_name": "5",
          "short_name": "5",
          "types": [
            "street_number"
          ]
        },
        {
          "long_name": "Whampoa Street",
          "short_name": "Whampoa St",
          "types": [
            "route"
          ]
        },
        {
          "long_name": "Hung Hom",
          "short_name": "Hung Hom",
          "types": [
            "neighborhood",
            "political"
          ]
        },
        {
          "long_name": "Kowloon",
          "short_name": "Kowloon",
          "types": [
            "administrative_area_level_1",
            "political"
          ]
        },
        {
          "long_name": "Hong Kong",
          "short_name": "HK",
          "types": [
            "country",
            "political"
          ]
        }
      ],
      "formatted_address": "BASEMENT 1, SITE, 5 Whampoa St, Hung Hom, Hong Kong",
      "geometry": {
        "location": {
          "lat": 22.306041,
          "lng": 114.184393
        },
        "location_type": "ROOFTOP",
        "viewport": {
          "northeast": {
            "lat": 22.3073899802915,
            "lng": 114.1857419802915
          },
          "southwest": {
            "lat": 22.3046920197085,
            "lng": 114.1830440197085
          }
        }
      },
      "partial_match": true,
      "place_id": "EjNCQVNFTUVOVCAxLCBTSVRFLCA1IFdoYW1wb2EgU3QsIEh1bmcgSG9tLCBIb25nIEtvbmciLBoqChYKFAoSCaenolznAAQ0EV4ZbWD50GGuEhBCQVNFTUVOVCAxLCBTSVRF",
      "types": [
        "subpremise"
      ]
    }
  ],
  "geocode_tc": [
    {
      "address_components": [
        {
          "long_name": "\u7d05\u78e1",
          "short_name": "\u7d05\u78e1",
          "types": [
            "neighborhood",
            "political"
          ]
        },
        {
          "long_name": "\u4e5d\u9f8d",
          "short_name": "\u4e5d\u9f8d",
          "types": [
            "administrative_area_level_1",
            "political"
          ]
        },
        {
          "long_name": "\u9999\u6e2f",
          "short_name": "HK",
          "types": [
            "country",
            "political"
          ]
        }
      ],
      "formatted_address": "\u9999\u6e2f\u7d05\u78e1",
      "geometry": {
        "location": {
          "lat": 22.303418,
          "lng": 114.190382
        },
        "location_type": "GEOMETRIC_CENTER",
        "viewport": {
          "northeast": {
            "lat": 22.3047669802915,
            "lng": 114.1917309802915
          },
          "southwest": {
            "lat": 22.3020690197085,
            "lng": 114.1890330197085
          }
        }
      },
      "partial_match": true,
      "place_id": "ChIJh6ksMeAABDQREsc8bSp0J2A",
      "plus_code": {
        "compound_code": "853R+95 \u9999\u6e2f",
        "global_code": "7PJP853R+95"
      },
      "types": [
        "establishment",
        "parking",
        "point_of_interest"
      ]
    },
    {
      "address_components": [
        {
          "long_name": "\u4e5d\u9f8d\u57ce",
          "short_name": "\u4e5d\u9f8d\u57ce",
          "types": [
            "neighborhood",
            "political"
          ]
        },
        {
          "long_name": "\u4e5d\u9f8d",
          "short_name": "\u4e5d\u9f8d",
          "types": [
            "administrative_area_level_1",
            "political"
          ]
        },
        {
          "long_name": "\u9999\u6e2f",
          "short_name": "HK",
          "types": [
            "country",
            "political"
          ]
        }
      ],
      "formatted_address": "\u9999\u6e2f\u4e5d\u9f8d\u57ce",
      "geometry": {
        "bounds": {
          "northeast": {
            "lat": 22.334573,
            "lng": 114.1959461
          },
          "southwest": {
            "lat": 22.3273791,
            "lng": 114.1869807
          }
        },
        "location": {
          "lat": 22.3306602,
          "lng": 114.1920172
        },
        "location_type": "APPROXIMATE",
        "viewport": {
          "northeast": {
            "lat": 22.334573,
            "lng": 114.1959461
          },
          "southwest": {
            "lat": 22.3273791,
            "lng": 114.1869807
          }
        }
      },
      "partial_match": true,
      "place_id": "ChIJP3hdSykBBDQR0CKCEWs5nKs",
      "types": [
        "neighborhood",
        "political"
      ]
    }
  ],
  "licno": "2252805848",
  "timestamp": 1564968756,
  "version": "1564966095"
}
