{
  "adr_en": "L'Atelier de Joel Robuchon, PORTION OF SHOP 401& MINOR PORTION OF SHOP 315, THE LANDMARK, 15 QUEEN'S ROAD CENTRAL, CENTRAL, HONG KONG",
  "adr_tc": "\u9999\u6e2f\u7687\u540e\u5927\u9053\u4e2d15\u865f\u7f6e\u5730\u5ee3\u5834315\u865f\u92ea \u5c0f\u90e8\u4efd\u53ca401\u865f\u92ea\u90e8\u4efd L'Atelier de Joel Robuchon",
  "geocode_en": [
    {
      "address_components": [
        {
          "long_name": "Shop 401",
          "short_name": "Shop 401",
          "types": [
            "subpremise"
          ]
        },
        {
          "long_name": "15",
          "short_name": "15",
          "types": [
            "street_number"
          ]
        },
        {
          "long_name": "Queen's Road Central",
          "short_name": "Queen's Road Central",
          "types": [
            "route"
          ]
        },
        {
          "long_name": "Central",
          "short_name": "Central",
          "types": [
            "neighborhood",
            "political"
          ]
        },
        {
          "long_name": "Hong Kong Island",
          "short_name": "Hong Kong Island",
          "types": [
            "administrative_area_level_1",
            "political"
          ]
        },
        {
          "long_name": "Hong Kong",
          "short_name": "HK",
          "types": [
            "country",
            "political"
          ]
        }
      ],
      "formatted_address": "Shop 401, 15 Queen's Road Central, Central, Hong Kong",
      "geometry": {
        "location": {
          "lat": 22.2815224,
          "lng": 114.1579077
        },
        "location_type": "ROOFTOP",
        "viewport": {
          "northeast": {
            "lat": 22.2828713802915,
            "lng": 114.1592566802915
          },
          "southwest": {
            "lat": 22.2801734197085,
            "lng": 114.1565587197085
          }
        }
      },
      "partial_match": true,
      "place_id": "ChIJwVykxpIABDQR1MZ-gH1ykQk",
      "plus_code": {
        "compound_code": "75J5+J5 Hong Kong",
        "global_code": "7PJP75J5+J5"
      },
      "types": [
        "establishment",
        "food",
        "point_of_interest",
        "restaurant"
      ]
    },
    {
      "address_components": [
        {
          "long_name": "15",
          "short_name": "15",
          "types": [
            "street_number"
          ]
        },
        {
          "long_name": "Queen's Road Central",
          "short_name": "Queen's Road Central",
          "types": [
            "route"
          ]
        },
        {
          "long_name": "Central",
          "short_name": "Central",
          "types": [
            "neighborhood",
            "political"
          ]
        },
        {
          "long_name": "Hong Kong Island",
          "short_name": "Hong Kong Island",
          "types": [
            "administrative_area_level_1",
            "political"
          ]
        },
        {
          "long_name": "Hong Kong",
          "short_name": "HK",
          "types": [
            "country",
            "political"
          ]
        }
      ],
      "formatted_address": "15 Queen's Road Central, Central, Hong Kong",
      "geometry": {
        "bounds": {
          "northeast": {
            "lat": 22.2816624,
            "lng": 114.1580617
          },
          "southwest": {
            "lat": 22.2813664,
            "lng": 114.1576699
          }
        },
        "location": {
          "lat": 22.2815503,
          "lng": 114.1578927
        },
        "location_type": "ROOFTOP",
        "viewport": {
          "northeast": {
            "lat": 22.2828633802915,
            "lng": 114.1592147802915
          },
          "southwest": {
            "lat": 22.2801654197085,
            "lng": 114.1565168197085
          }
        }
      },
      "partial_match": true,
      "place_id": "ChIJcfoxk2QABDQRcoGu0BtfnFg",
      "types": [
        "establishment",
        "point_of_interest",
        "subpremise"
      ]
    },
    {
      "address_components": [
        {
          "long_name": "SHOP 315",
          "short_name": "SHOP 315",
          "types": [
            "subpremise"
          ]
        },
        {
          "long_name": "15",
          "short_name": "15",
          "types": [
            "street_number"
          ]
        },
        {
          "long_name": "Queen's Road Central",
          "short_name": "Queen's Road Central",
          "types": [
            "route"
          ]
        },
        {
          "long_name": "Central",
          "short_name": "Central",
          "types": [
            "neighborhood",
            "political"
          ]
        },
        {
          "long_name": "Hong Kong Island",
          "short_name": "Hong Kong Island",
          "types": [
            "administrative_area_level_1",
            "political"
          ]
        },
        {
          "long_name": "Hong Kong",
          "short_name": "HK",
          "types": [
            "country",
            "political"
          ]
        }
      ],
      "formatted_address": "SHOP 315, 15 Queen's Road Central, Central, Hong Kong",
      "geometry": {
        "location": {
          "lat": 22.280545,
          "lng": 114.157903
        },
        "location_type": "ROOFTOP",
        "viewport": {
          "northeast": {
            "lat": 22.2818939802915,
            "lng": 114.1592519802915
          },
          "southwest": {
            "lat": 22.2791960197085,
            "lng": 114.1565540197085
          }
        }
      },
      "partial_match": true,
      "place_id": "EjVTSE9QIDMxNSwgMTUgUXVlZW4ncyBSb2FkIENlbnRyYWwsIENlbnRyYWwsIEhvbmcgS29uZyIkGiIKFgoUChIJcYGO5GQABDQR0kbEIIrbaBoSCFNIT1AgMzE1",
      "types": [
        "subpremise"
      ]
    }
  ],
  "geocode_tc": [
    {
      "address_components": [
        {
          "long_name": "\u9999\u6e2f",
          "short_name": "HK",
          "types": [
            "country",
            "political"
          ]
        }
      ],
      "formatted_address": "\u9999\u6e2f\u4e2d\u74b0\u5fb7\u8f14\u9053\u4e2d12-16\u865f\u7f6e\u5730\u5ee3\u58343\u6a13315\u865f\u8216",
      "geometry": {
        "location": {
          "lat": 22.2813635,
          "lng": 114.1580367
        },
        "location_type": "GEOMETRIC_CENTER",
        "viewport": {
          "northeast": {
            "lat": 22.2827124802915,
            "lng": 114.1593856802915
          },
          "southwest": {
            "lat": 22.28001451970849,
            "lng": 114.1566877197085
          }
        }
      },
      "place_id": "ChIJNcei6GQABDQRO2MNXvBRaNU",
      "plus_code": {
        "compound_code": "75J5+G6 \u9999\u6e2f",
        "global_code": "7PJP75J5+G6"
      },
      "types": [
        "establishment",
        "food",
        "point_of_interest",
        "restaurant"
      ]
    }
  ],
  "licno": "2218801679",
  "timestamp": 1564968756,
  "version": "1564966095"
}
