{
  "adr_en": "\u65b0\u8c6a\u9910\u5ef3, SHOP 2A & 16B, G/F, WING FU MANSION, 2-6 FUNG YAU STREET NORTH, YUEN LONG, NEW TERRITORIES",
  "adr_tc": "\u65b0\u754c\u5143\u6717\u9cf3\u6538\u5317\u88572-6\u865f\u6c38\u5bcc\u95a3\u5730\u4e0b2A\u53ca16B\u865f\u92ea \u65b0\u8c6a\u9910\u5ef3",
  "geocode_en": [
    {
      "address_components": [
        {
          "long_name": "Hong Kong",
          "short_name": "HK",
          "types": [
            "country",
            "political"
          ]
        }
      ],
      "formatted_address": "Hong Kong, \u5143\u6717\u9cf3\u6538\u5317\u8857\u6c38\u5bcc\u95a316B\u5730\u8216",
      "geometry": {
        "location": {
          "lat": 22.4434574,
          "lng": 114.0343463
        },
        "location_type": "GEOMETRIC_CENTER",
        "viewport": {
          "northeast": {
            "lat": 22.4448063802915,
            "lng": 114.0356952802915
          },
          "southwest": {
            "lat": 22.4421084197085,
            "lng": 114.0329973197085
          }
        }
      },
      "partial_match": true,
      "place_id": "ChIJX6YMoqfwAzQRYhpZDRjJ8-0",
      "plus_code": {
        "compound_code": "C2VM+9P Hong Kong",
        "global_code": "7PJPC2VM+9P"
      },
      "types": [
        "establishment",
        "food",
        "point_of_interest",
        "restaurant"
      ]
    },
    {
      "address_components": [
        {
          "long_name": "Wing Fu Mansion",
          "short_name": "Wing Fu Mansion",
          "types": [
            "premise"
          ]
        },
        {
          "long_name": "2",
          "short_name": "2",
          "types": [
            "street_number"
          ]
        },
        {
          "long_name": "Fung Yau Street North",
          "short_name": "Fung Yau St N",
          "types": [
            "route"
          ]
        },
        {
          "long_name": "Yuen Long",
          "short_name": "Yuen Long",
          "types": [
            "neighborhood",
            "political"
          ]
        },
        {
          "long_name": "New Territories",
          "short_name": "New Territories",
          "types": [
            "administrative_area_level_1",
            "political"
          ]
        },
        {
          "long_name": "Hong Kong",
          "short_name": "HK",
          "types": [
            "country",
            "political"
          ]
        }
      ],
      "formatted_address": "Wing Fu Mansion, 2 Fung Yau St N, Yuen Long, Hong Kong",
      "geometry": {
        "bounds": {
          "northeast": {
            "lat": 22.443441,
            "lng": 114.034499
          },
          "southwest": {
            "lat": 22.443241,
            "lng": 114.0342771
          }
        },
        "location": {
          "lat": 22.4433506,
          "lng": 114.0343755
        },
        "location_type": "ROOFTOP",
        "viewport": {
          "northeast": {
            "lat": 22.4446899802915,
            "lng": 114.0357370302915
          },
          "southwest": {
            "lat": 22.4419920197085,
            "lng": 114.0330390697085
          }
        }
      },
      "partial_match": true,
      "place_id": "ChIJ-wgLoqfwAzQR7oQn-fXwSb8",
      "types": [
        "premise"
      ]
    }
  ],
  "geocode_tc": [
    {
      "address_components": [
        {
          "long_name": "\u9999\u6e2f",
          "short_name": "HK",
          "types": [
            "country",
            "political"
          ]
        }
      ],
      "formatted_address": "\u9999\u6e2f\u5143\u6717\u9cf3\u6538\u5317\u8857\u6c38\u5bcc\u95a316B\u5730\u8216",
      "geometry": {
        "location": {
          "lat": 22.4434574,
          "lng": 114.0343463
        },
        "location_type": "GEOMETRIC_CENTER",
        "viewport": {
          "northeast": {
            "lat": 22.4448063802915,
            "lng": 114.0356952802915
          },
          "southwest": {
            "lat": 22.4421084197085,
            "lng": 114.0329973197085
          }
        }
      },
      "place_id": "ChIJX6YMoqfwAzQRYhpZDRjJ8-0",
      "plus_code": {
        "compound_code": "C2VM+9P \u9999\u6e2f",
        "global_code": "7PJPC2VM+9P"
      },
      "types": [
        "establishment",
        "food",
        "point_of_interest",
        "restaurant"
      ]
    }
  ],
  "licno": "2294802137",
  "timestamp": 1564975666,
  "version": "1564966095"
}
