{
  "adr_en": "\u5927\u6a39\u5427, SHOP 1, G/F, KNUTSFORD COMMERCIAL BUILDING, 4-5 KNUTSFORD TERRACE,TSIM SHA TSUI, KOWLOON AND THE OUTSIDE SEATING ACCOMMODATION IN FRONT OF SHOP 1,  G/F, KNUTSFORD COMMERCIAL BUILDING, 4-5 KNUTSFORD TERRACE, TSIM SHA TSUI, KOWLOON",
  "adr_tc": "\u4e5d\u9f8d\u5c16\u6c99\u5480\u8afe\u58eb\u4f5b\u53f04-5\u865f \u5730\u4e0b1\u865f\u8216\u53ca\u8217\u524d\u9732\u5929\u8336\u5ea7 \u5927\u6a39\u5427",
  "geocode_en": [
    {
      "address_components": [
        {
          "long_name": "Hong Kong",
          "short_name": "HK",
          "types": [
            "country",
            "political"
          ]
        }
      ],
      "formatted_address": "Hong Kong, \u5c16\u6c99\u5480\u8afe\u58eb\u4f5b\u81fa 4 - 5\u865f",
      "geometry": {
        "location": {
          "lat": 22.301151,
          "lng": 114.173694
        },
        "location_type": "GEOMETRIC_CENTER",
        "viewport": {
          "northeast": {
            "lat": 22.3024999802915,
            "lng": 114.1750429802915
          },
          "southwest": {
            "lat": 22.29980201970849,
            "lng": 114.1723450197085
          }
        }
      },
      "partial_match": true,
      "place_id": "ChIJkQwvnu4ABDQR17FDm5s8uZ4",
      "plus_code": {
        "compound_code": "852F+FF Hong Kong",
        "global_code": "7PJP852F+FF"
      },
      "types": [
        "establishment",
        "point_of_interest"
      ]
    },
    {
      "address_components": [
        {
          "long_name": "Knutsford Commercial Building",
          "short_name": "Knutsford Commercial Building",
          "types": [
            "premise"
          ]
        },
        {
          "long_name": "4-5",
          "short_name": "4-5",
          "types": [
            "street_number"
          ]
        },
        {
          "long_name": "Knutsford Terrace",
          "short_name": "Knutsford Terrace",
          "types": [
            "route"
          ]
        },
        {
          "long_name": "Tsim Sha Tsui",
          "short_name": "Tsim Sha Tsui",
          "types": [
            "neighborhood",
            "political"
          ]
        },
        {
          "long_name": "Kowloon",
          "short_name": "Kowloon",
          "types": [
            "administrative_area_level_1",
            "political"
          ]
        },
        {
          "long_name": "Hong Kong",
          "short_name": "HK",
          "types": [
            "country",
            "political"
          ]
        }
      ],
      "formatted_address": "Knutsford Commercial Building, 4-5 Knutsford Terrace, Tsim Sha Tsui, Hong Kong",
      "geometry": {
        "bounds": {
          "northeast": {
            "lat": 22.301406,
            "lng": 114.173568
          },
          "southwest": {
            "lat": 22.301131,
            "lng": 114.173344
          }
        },
        "location": {
          "lat": 22.3012741,
          "lng": 114.1734286
        },
        "location_type": "ROOFTOP",
        "viewport": {
          "northeast": {
            "lat": 22.3026174802915,
            "lng": 114.1748049802915
          },
          "southwest": {
            "lat": 22.2999195197085,
            "lng": 114.1721070197085
          }
        }
      },
      "partial_match": true,
      "place_id": "ChIJs_atIewABDQRAkJih_1RmsQ",
      "types": [
        "premise"
      ]
    }
  ],
  "geocode_tc": [
    {
      "address_components": [
        {
          "long_name": "\u9999\u6e2f",
          "short_name": "HK",
          "types": [
            "country",
            "political"
          ]
        }
      ],
      "formatted_address": "\u9999\u6e2f\u5c16\u6c99\u5480\u8afe\u58eb\u4f5b\u81fa 4 - 5\u865f",
      "geometry": {
        "location": {
          "lat": 22.301151,
          "lng": 114.173694
        },
        "location_type": "GEOMETRIC_CENTER",
        "viewport": {
          "northeast": {
            "lat": 22.3024999802915,
            "lng": 114.1750429802915
          },
          "southwest": {
            "lat": 22.29980201970849,
            "lng": 114.1723450197085
          }
        }
      },
      "place_id": "ChIJkQwvnu4ABDQR17FDm5s8uZ4",
      "plus_code": {
        "compound_code": "852F+FF \u9999\u6e2f",
        "global_code": "7PJP852F+FF"
      },
      "types": [
        "establishment",
        "point_of_interest"
      ]
    }
  ],
  "licno": "3161169245",
  "timestamp": 1564975666,
  "version": "1564966095"
}
