{
  "adr_en": "\u9cf3\u57ce\u5c0f\u98df, SHOP 1A-B, G/F, 18 CROSS STREET, WAN CHAI, HONG KONG",
  "adr_tc": "\u9999\u6e2f\u7063\u4ed4\u4ea4\u52a0\u885718\u865f\u5146\u5a01\u95a3\u5730\u4e0bA1\u53caB1\u865f\u8216 \u9cf3\u57ce\u5c0f\u98df",
  "geocode_en": [
    {
      "address_components": [
        {
          "long_name": "Hong Kong",
          "short_name": "HK",
          "types": [
            "country",
            "political"
          ]
        }
      ],
      "formatted_address": "Hong Kong, \u7063\u4ed4\u4ea4\u52a0\u885718\u865f\u5730\u4e0bA1\u865f\u8216",
      "geometry": {
        "location": {
          "lat": 22.27568,
          "lng": 114.173409
        },
        "location_type": "GEOMETRIC_CENTER",
        "viewport": {
          "northeast": {
            "lat": 22.2770289802915,
            "lng": 114.1747579802915
          },
          "southwest": {
            "lat": 22.2743310197085,
            "lng": 114.1720600197085
          }
        }
      },
      "partial_match": true,
      "place_id": "ChIJIalzplwABDQRHiknp3-yU3M",
      "plus_code": {
        "compound_code": "75GF+79 Hong Kong",
        "global_code": "7PJP75GF+79"
      },
      "types": [
        "establishment",
        "food",
        "point_of_interest",
        "restaurant"
      ]
    },
    {
      "address_components": [
        {
          "long_name": "G",
          "short_name": "G",
          "types": [
            "subpremise"
          ]
        },
        {
          "long_name": "Silvervale Mansion",
          "short_name": "Silvervale Mansion",
          "types": [
            "premise"
          ]
        },
        {
          "long_name": "18",
          "short_name": "18",
          "types": [
            "street_number"
          ]
        },
        {
          "long_name": "Cross Street",
          "short_name": "Cross St",
          "types": [
            "route"
          ]
        },
        {
          "long_name": "Wan Chai",
          "short_name": "Wan Chai",
          "types": [
            "neighborhood",
            "political"
          ]
        },
        {
          "long_name": "Hong Kong Island",
          "short_name": "Hong Kong Island",
          "types": [
            "administrative_area_level_1",
            "political"
          ]
        },
        {
          "long_name": "Hong Kong",
          "short_name": "HK",
          "types": [
            "country",
            "political"
          ]
        }
      ],
      "formatted_address": "G, Silvervale Mansion, 18 Cross St, Wan Chai, Hong Kong",
      "geometry": {
        "bounds": {
          "northeast": {
            "lat": 22.2757331,
            "lng": 114.173482
          },
          "southwest": {
            "lat": 22.275627,
            "lng": 114.1733351
          }
        },
        "location": {
          "lat": 22.2756641,
          "lng": 114.1734054
        },
        "location_type": "ROOFTOP",
        "viewport": {
          "northeast": {
            "lat": 22.2770290302915,
            "lng": 114.1747575302915
          },
          "southwest": {
            "lat": 22.2743310697085,
            "lng": 114.1720595697085
          }
        }
      },
      "partial_match": true,
      "place_id": "EjdHLCBTaWx2ZXJ2YWxlIE1hbnNpb24sIDE4IENyb3NzIFN0LCBXYW4gQ2hhaSwgSG9uZyBLb25nIh0aGwoWChQKEgkJuDimXAAENBG6Jh_gw-QwuhIBRw",
      "types": [
        "subpremise"
      ]
    },
    {
      "address_components": [
        {
          "long_name": "F",
          "short_name": "F",
          "types": [
            "subpremise"
          ]
        },
        {
          "long_name": "Silvervale Mansion",
          "short_name": "Silvervale Mansion",
          "types": [
            "premise"
          ]
        },
        {
          "long_name": "18",
          "short_name": "18",
          "types": [
            "street_number"
          ]
        },
        {
          "long_name": "Cross Street",
          "short_name": "Cross St",
          "types": [
            "route"
          ]
        },
        {
          "long_name": "Wan Chai",
          "short_name": "Wan Chai",
          "types": [
            "neighborhood",
            "political"
          ]
        },
        {
          "long_name": "Hong Kong Island",
          "short_name": "Hong Kong Island",
          "types": [
            "administrative_area_level_1",
            "political"
          ]
        },
        {
          "long_name": "Hong Kong",
          "short_name": "HK",
          "types": [
            "country",
            "political"
          ]
        }
      ],
      "formatted_address": "F, Silvervale Mansion, 18 Cross St, Wan Chai, Hong Kong",
      "geometry": {
        "bounds": {
          "northeast": {
            "lat": 22.2757331,
            "lng": 114.173482
          },
          "southwest": {
            "lat": 22.275627,
            "lng": 114.1733351
          }
        },
        "location": {
          "lat": 22.2756641,
          "lng": 114.1734054
        },
        "location_type": "ROOFTOP",
        "viewport": {
          "northeast": {
            "lat": 22.2770290302915,
            "lng": 114.1747575302915
          },
          "southwest": {
            "lat": 22.2743310697085,
            "lng": 114.1720595697085
          }
        }
      },
      "partial_match": true,
      "place_id": "EjdGLCBTaWx2ZXJ2YWxlIE1hbnNpb24sIDE4IENyb3NzIFN0LCBXYW4gQ2hhaSwgSG9uZyBLb25nIh0aGwoWChQKEgkJuDimXAAENBG6Jh_gw-QwuhIBRg",
      "types": [
        "subpremise"
      ]
    }
  ],
  "geocode_tc": [
    {
      "address_components": [
        {
          "long_name": "\u9999\u6e2f",
          "short_name": "HK",
          "types": [
            "country",
            "political"
          ]
        }
      ],
      "formatted_address": "\u9999\u6e2f\u7063\u4ed4\u4ea4\u52a0\u885718\u865f\u5730\u4e0bA1\u865f\u8216",
      "geometry": {
        "location": {
          "lat": 22.27568,
          "lng": 114.173409
        },
        "location_type": "GEOMETRIC_CENTER",
        "viewport": {
          "northeast": {
            "lat": 22.2770289802915,
            "lng": 114.1747579802915
          },
          "southwest": {
            "lat": 22.2743310197085,
            "lng": 114.1720600197085
          }
        }
      },
      "place_id": "ChIJIalzplwABDQRHiknp3-yU3M",
      "plus_code": {
        "compound_code": "75GF+79 \u9999\u6e2f",
        "global_code": "7PJP75GF+79"
      },
      "types": [
        "establishment",
        "food",
        "point_of_interest",
        "restaurant"
      ]
    }
  ],
  "licno": "3112101706",
  "timestamp": 1564975666,
  "version": "1564966095"
}
