{
  "adr_en": "WAN NAM TRUE NOODLE, SHOP A, G/F, KAI TAK BUILDING, 11-13 CHIK TAK LANE, TAI WAI, SHA TIN, NEW TERRITORIES",
  "adr_tc": "\u65b0\u754c\u6c99\u7530\u5927\u570d\u7a4d\u5fb7\u91cc11-13\u865f\u555f\u5fb7\u5927\u6a13\u5730\u4e0bA\u92ea \u96f2\u5357\u771f\u7c73\u7dda",
  "geocode_en": [
    {
      "address_components": [
        {
          "long_name": "Hong Kong",
          "short_name": "HK",
          "types": [
            "country",
            "political"
          ]
        }
      ],
      "formatted_address": "Shop A, 11-13 Chik Tak Lane, Tai Wai, Hong Kong",
      "geometry": {
        "location": {
          "lat": 22.3757922,
          "lng": 114.1777663
        },
        "location_type": "GEOMETRIC_CENTER",
        "viewport": {
          "northeast": {
            "lat": 22.3771411802915,
            "lng": 114.1791152802915
          },
          "southwest": {
            "lat": 22.3744432197085,
            "lng": 114.1764173197085
          }
        }
      },
      "partial_match": true,
      "place_id": "ChIJl5MnlKcHBDQRCCFhrFHsZew",
      "plus_code": {
        "compound_code": "95GH+84 Hong Kong",
        "global_code": "7PJP95GH+84"
      },
      "types": [
        "establishment",
        "food",
        "point_of_interest",
        "restaurant"
      ]
    },
    {
      "address_components": [
        {
          "long_name": "Kai Tak Building",
          "short_name": "Kai Tak Building",
          "types": [
            "premise"
          ]
        },
        {
          "long_name": "11-13",
          "short_name": "11-13",
          "types": [
            "street_number"
          ]
        },
        {
          "long_name": "Chik Tak Lane",
          "short_name": "Chik Tak Ln",
          "types": [
            "route"
          ]
        },
        {
          "long_name": "Tai Wai",
          "short_name": "Tai Wai",
          "types": [
            "neighborhood",
            "political"
          ]
        },
        {
          "long_name": "New Territories",
          "short_name": "New Territories",
          "types": [
            "administrative_area_level_1",
            "political"
          ]
        },
        {
          "long_name": "Hong Kong",
          "short_name": "HK",
          "types": [
            "country",
            "political"
          ]
        }
      ],
      "formatted_address": "Kai Tak Building, 11-13 Chik Tak Ln, Tai Wai, Hong Kong",
      "geometry": {
        "bounds": {
          "northeast": {
            "lat": 22.375906,
            "lng": 114.177822
          },
          "southwest": {
            "lat": 22.3757601,
            "lng": 114.177656
          }
        },
        "location": {
          "lat": 22.3758229,
          "lng": 114.1777247
        },
        "location_type": "ROOFTOP",
        "viewport": {
          "northeast": {
            "lat": 22.3771820302915,
            "lng": 114.1790879802915
          },
          "southwest": {
            "lat": 22.3744840697085,
            "lng": 114.1763900197085
          }
        }
      },
      "partial_match": true,
      "place_id": "ChIJ5QWdlqcHBDQR8KObFx6uLKI",
      "types": [
        "premise"
      ]
    }
  ],
  "geocode_tc": [
    {
      "address_components": [
        {
          "long_name": "\u9999\u6e2f",
          "short_name": "HK",
          "types": [
            "country",
            "political"
          ]
        }
      ],
      "formatted_address": "Shop A, 11-13 Chik Tak Lane, Tai Wai, \u9999\u6e2f",
      "geometry": {
        "location": {
          "lat": 22.3757922,
          "lng": 114.1777663
        },
        "location_type": "GEOMETRIC_CENTER",
        "viewport": {
          "northeast": {
            "lat": 22.3771411802915,
            "lng": 114.1791152802915
          },
          "southwest": {
            "lat": 22.3744432197085,
            "lng": 114.1764173197085
          }
        }
      },
      "place_id": "ChIJl5MnlKcHBDQRCCFhrFHsZew",
      "plus_code": {
        "compound_code": "95GH+84 \u9999\u6e2f",
        "global_code": "7PJP95GH+84"
      },
      "types": [
        "establishment",
        "food",
        "point_of_interest",
        "restaurant"
      ]
    }
  ],
  "licno": "2297802518",
  "timestamp": 1564975666,
  "version": "1564966095"
}
