{
  "adr_en": "\u65b0\u4e0a\u6d77\u98ef\u5e97, PORTION C, PODIUM FLOOR, SHOP AT TOWER 30 & 31 STAGE III, MEI FOO SUN CHUEN, SHAM SHUI PO, KOWLOON",
  "adr_tc": "\u4e5d\u9f8d\u7f8e\u5b5a\u65b0\u6751\u7b2cIII\u671f30\u53ca31\u5ea7\u5e73\u53f0C\u8216 \u65b0\u4e0a\u6d77\u98ef\u5e97",
  "geocode_en": [
    {
      "address_components": [
        {
          "long_name": "Mei Foo Sun Chuen",
          "short_name": "Mei Foo",
          "types": [
            "neighborhood",
            "political"
          ]
        },
        {
          "long_name": "Hong Kong",
          "short_name": "HK",
          "types": [
            "country",
            "political"
          ]
        }
      ],
      "formatted_address": "Hong Kong, Mei Foo Sun Chuen, \u7f8e\u5b5a\u7b2c\u4e09\u671f\u767e\u8001\u532f\u885745\u865f\u5e73\u53f0151C\u8216",
      "geometry": {
        "location": {
          "lat": 22.335883,
          "lng": 114.139655
        },
        "location_type": "GEOMETRIC_CENTER",
        "viewport": {
          "northeast": {
            "lat": 22.3372319802915,
            "lng": 114.1410039802915
          },
          "southwest": {
            "lat": 22.3345340197085,
            "lng": 114.1383060197085
          }
        }
      },
      "partial_match": true,
      "place_id": "ChIJ6zfHylT_AzQRW7qH-33NeuA",
      "plus_code": {
        "compound_code": "84PQ+9V Hong Kong",
        "global_code": "7PJP84PQ+9V"
      },
      "types": [
        "establishment",
        "food",
        "point_of_interest",
        "restaurant"
      ]
    },
    {
      "address_components": [
        {
          "long_name": "At Tower",
          "short_name": "At Tower",
          "types": [
            "premise"
          ]
        },
        {
          "long_name": "180",
          "short_name": "180",
          "types": [
            "street_number"
          ]
        },
        {
          "long_name": "Electric Road",
          "short_name": "Electric Rd",
          "types": [
            "route"
          ]
        },
        {
          "long_name": "Causeway Bay",
          "short_name": "Causeway Bay",
          "types": [
            "neighborhood",
            "political"
          ]
        },
        {
          "long_name": "Hong Kong Island",
          "short_name": "Hong Kong Island",
          "types": [
            "administrative_area_level_1",
            "political"
          ]
        },
        {
          "long_name": "Hong Kong",
          "short_name": "HK",
          "types": [
            "country",
            "political"
          ]
        }
      ],
      "formatted_address": "At Tower, 180 Electric Rd, Causeway Bay, Hong Kong",
      "geometry": {
        "bounds": {
          "northeast": {
            "lat": 22.288127,
            "lng": 114.1927459
          },
          "southwest": {
            "lat": 22.2877411,
            "lng": 114.1923971
          }
        },
        "location": {
          "lat": 22.287944,
          "lng": 114.1925865
        },
        "location_type": "ROOFTOP",
        "viewport": {
          "northeast": {
            "lat": 22.2892830302915,
            "lng": 114.1939204802915
          },
          "southwest": {
            "lat": 22.2865850697085,
            "lng": 114.1912225197085
          }
        }
      },
      "partial_match": true,
      "place_id": "ChIJZRv98QEBBDQRzvV0rU4wqoo",
      "types": [
        "premise"
      ]
    }
  ],
  "geocode_tc": [
    {
      "address_components": [
        {
          "long_name": "\u7f8e\u5b5a\u65b0\u90a8",
          "short_name": "Mei Foo",
          "types": [
            "neighborhood",
            "political"
          ]
        },
        {
          "long_name": "\u9999\u6e2f",
          "short_name": "HK",
          "types": [
            "country",
            "political"
          ]
        }
      ],
      "formatted_address": "\u9999\u6e2f\u7f8e\u5b5a\u65b0\u90a8\u7f8e\u5b5a\u7b2c\u4e09\u671f\u767e\u8001\u532f\u885745\u865f\u5e73\u53f0151C\u8216",
      "geometry": {
        "location": {
          "lat": 22.335883,
          "lng": 114.139655
        },
        "location_type": "GEOMETRIC_CENTER",
        "viewport": {
          "northeast": {
            "lat": 22.3372319802915,
            "lng": 114.1410039802915
          },
          "southwest": {
            "lat": 22.3345340197085,
            "lng": 114.1383060197085
          }
        }
      },
      "place_id": "ChIJ6zfHylT_AzQRW7qH-33NeuA",
      "plus_code": {
        "compound_code": "84PQ+9V \u9999\u6e2f",
        "global_code": "7PJP84PQ+9V"
      },
      "types": [
        "establishment",
        "food",
        "point_of_interest",
        "restaurant"
      ]
    }
  ],
  "licno": "2263801332",
  "timestamp": 1564968756,
  "version": "1564966095"
}
