{
  "adr_en": "(no record found), COOKED FOOD STALL NOS 1, 2, 3 AND 4, NEAR ON WAH HOUSE, LOK WAH SOUTH AND NORTH ESTATE, 70 CHUN WAH ROAD, KWUN TONG, KOWLOON",
  "adr_tc": "\u4e5d\u9f8d\u89c0\u5858\u632f\u83ef\u905370\u865f\u6a02\u83ef\u5357\u5317\u90a8\u8fd1\u5b89\u83ef\u6a13 1,2,3\u53ca4\u865f\u719f\u98df\u6a94\u4f4d (\u6c92\u6709\u8a18\u9304)",
  "geocode_en": [
    {
      "address_components": [
        {
          "long_name": "Wah On House",
          "short_name": "Wah On House",
          "types": [
            "premise"
          ]
        },
        {
          "long_name": "43-53",
          "short_name": "43-53",
          "types": [
            "street_number"
          ]
        },
        {
          "long_name": "Mut Wah Street",
          "short_name": "Mut Wah St",
          "types": [
            "route"
          ]
        },
        {
          "long_name": "Kwun Tong",
          "short_name": "Kwun Tong",
          "types": [
            "neighborhood",
            "political"
          ]
        },
        {
          "long_name": "Kowloon",
          "short_name": "Kowloon",
          "types": [
            "administrative_area_level_1",
            "political"
          ]
        },
        {
          "long_name": "Hong Kong",
          "short_name": "HK",
          "types": [
            "country",
            "political"
          ]
        }
      ],
      "formatted_address": "Wah On House, 43-53 Mut Wah St, Kwun Tong, Hong Kong",
      "geometry": {
        "bounds": {
          "northeast": {
            "lat": 22.3153159,
            "lng": 114.2251559
          },
          "southwest": {
            "lat": 22.315158,
            "lng": 114.224824
          }
        },
        "location": {
          "lat": 22.3152574,
          "lng": 114.2250022
        },
        "location_type": "ROOFTOP",
        "viewport": {
          "northeast": {
            "lat": 22.3165859302915,
            "lng": 114.2263389302915
          },
          "southwest": {
            "lat": 22.3138879697085,
            "lng": 114.2236409697085
          }
        }
      },
      "partial_match": true,
      "place_id": "ChIJUYCnRE4BBDQRmrzE5wTD1Bc",
      "types": [
        "premise"
      ]
    },
    {
      "address_components": [
        {
          "long_name": "70",
          "short_name": "70",
          "types": [
            "street_number"
          ]
        },
        {
          "long_name": "Chun Wah Road",
          "short_name": "Chun Wah Rd",
          "types": [
            "route"
          ]
        },
        {
          "long_name": "Ngau Tau Kok",
          "short_name": "Ngau Tau Kok",
          "types": [
            "neighborhood",
            "political"
          ]
        },
        {
          "long_name": "Kowloon",
          "short_name": "Kowloon",
          "types": [
            "administrative_area_level_1",
            "political"
          ]
        },
        {
          "long_name": "Hong Kong",
          "short_name": "HK",
          "types": [
            "country",
            "political"
          ]
        }
      ],
      "formatted_address": "70 Chun Wah Rd, Ngau Tau Kok, Hong Kong",
      "geometry": {
        "location": {
          "lat": 22.322233,
          "lng": 114.219683
        },
        "location_type": "ROOFTOP",
        "viewport": {
          "northeast": {
            "lat": 22.3235819802915,
            "lng": 114.2210319802915
          },
          "southwest": {
            "lat": 22.3208840197085,
            "lng": 114.2183340197085
          }
        }
      },
      "partial_match": true,
      "place_id": "ChIJl3hvP0sBBDQRyrOGoHx7Oy8",
      "plus_code": {
        "compound_code": "86C9+VV Hong Kong",
        "global_code": "7PJP86C9+VV"
      },
      "types": [
        "establishment",
        "point_of_interest"
      ]
    }
  ],
  "geocode_tc": [
    {
      "address_components": [
        {
          "long_name": "\u8fd1\u5b89\u83ef\u6a13",
          "short_name": "\u8fd1\u5b89\u83ef\u6a13",
          "types": [
            "subpremise"
          ]
        },
        {
          "long_name": "\u6a02\u83ef\u5357\u90a8\u654f\u83ef\u6a13",
          "short_name": "\u6a02\u83ef\u5357\u90a8\u654f\u83ef\u6a13",
          "types": [
            "premise"
          ]
        },
        {
          "long_name": "70",
          "short_name": "70",
          "types": [
            "street_number"
          ]
        },
        {
          "long_name": "\u632f\u83ef\u9053",
          "short_name": "\u632f\u83ef\u9053",
          "types": [
            "route"
          ]
        },
        {
          "long_name": "\u725b\u982d\u89d2",
          "short_name": "\u725b\u982d\u89d2",
          "types": [
            "neighborhood",
            "political"
          ]
        },
        {
          "long_name": "\u4e5d\u9f8d",
          "short_name": "\u4e5d\u9f8d",
          "types": [
            "administrative_area_level_1",
            "political"
          ]
        },
        {
          "long_name": "\u9999\u6e2f",
          "short_name": "HK",
          "types": [
            "country",
            "political"
          ]
        }
      ],
      "formatted_address": "\u9999\u6e2f\u725b\u982d\u89d2\u632f\u83ef\u905370\u865f\u6a02\u83ef\u5357\u90a8\u654f\u83ef\u6a13\u8fd1\u5b89\u83ef\u6a13",
      "geometry": {
        "bounds": {
          "northeast": {
            "lat": 22.3199333,
            "lng": 114.2220002
          },
          "southwest": {
            "lat": 22.3194273,
            "lng": 114.2213762
          }
        },
        "location": {
          "lat": 22.3196755,
          "lng": 114.2216835
        },
        "location_type": "ROOFTOP",
        "viewport": {
          "northeast": {
            "lat": 22.3210292802915,
            "lng": 114.2230371802915
          },
          "southwest": {
            "lat": 22.31833131970849,
            "lng": 114.2203392197085
          }
        }
      },
      "partial_match": true,
      "place_id": "Elnov5Hlronoj6_mqJMsIExvayBXYWggU291dGggRXN0YXRlIE1hbiBXYWggSG91c2UsIDcwIENodW4gV2FoIFJkLCBOZ2F1IFRhdSBLb2ssIEhvbmcgS29uZyIoGiYKFgoUChIJy5w7ekwBBDQRNm-U5N2U6UYSDOi_keWuieiPr-aokw",
      "types": [
        "subpremise"
      ]
    },
    {
      "address_components": [
        {
          "long_name": "\u6a13 1,2,3",
          "short_name": "\u6a13 1,2,3",
          "types": [
            "subpremise"
          ]
        },
        {
          "long_name": "\u6a02\u83ef\u5357\u90a8\u654f\u83ef\u6a13",
          "short_name": "\u6a02\u83ef\u5357\u90a8\u654f\u83ef\u6a13",
          "types": [
            "premise"
          ]
        },
        {
          "long_name": "70",
          "short_name": "70",
          "types": [
            "street_number"
          ]
        },
        {
          "long_name": "\u632f\u83ef\u9053",
          "short_name": "\u632f\u83ef\u9053",
          "types": [
            "route"
          ]
        },
        {
          "long_name": "\u725b\u982d\u89d2",
          "short_name": "\u725b\u982d\u89d2",
          "types": [
            "neighborhood",
            "political"
          ]
        },
        {
          "long_name": "\u4e5d\u9f8d",
          "short_name": "\u4e5d\u9f8d",
          "types": [
            "administrative_area_level_1",
            "political"
          ]
        },
        {
          "long_name": "\u9999\u6e2f",
          "short_name": "HK",
          "types": [
            "country",
            "political"
          ]
        }
      ],
      "formatted_address": "\u9999\u6e2f\u725b\u982d\u89d2\u632f\u83ef\u905370\u865f\u6a02\u83ef\u5357\u90a8\u654f\u83ef\u6a13\u6a13 1,2,3",
      "geometry": {
        "bounds": {
          "northeast": {
            "lat": 22.3199333,
            "lng": 114.2220002
          },
          "southwest": {
            "lat": 22.3194273,
            "lng": 114.2213762
          }
        },
        "location": {
          "lat": 22.3196755,
          "lng": 114.2216835
        },
        "location_type": "ROOFTOP",
        "viewport": {
          "northeast": {
            "lat": 22.3210292802915,
            "lng": 114.2230371802915
          },
          "southwest": {
            "lat": 22.31833131970849,
            "lng": 114.2203392197085
          }
        }
      },
      "partial_match": true,
      "place_id": "ElbmqJMgMSwyLDMsIExvayBXYWggU291dGggRXN0YXRlIE1hbiBXYWggSG91c2UsIDcwIENodW4gV2FoIFJkLCBOZ2F1IFRhdSBLb2ssIEhvbmcgS29uZyIlGiMKFgoUChIJy5w7ekwBBDQRNm-U5N2U6UYSCeaokyAxLDIsMw",
      "types": [
        "subpremise"
      ]
    }
  ],
  "licno": "2251806941",
  "timestamp": 1564968756,
  "version": "1564966095"
}
