{
  "adr_en": "Pokka Cafe, NO. 1-6, G/F, KOLOUR TSUEN WAN II, TWTL 301, TSUEN WAN, NEW TERRITORIES",
  "adr_tc": "\u65b0\u754c\u8343\u7063\u8343\u7063\u5e02\u5730\u6bb5301 \u8343\u7063\u5343\u8272\u532fII\u5730\u4e0b1-6\u865f\u8216 \u767e\u4f73\u5496\u5561",
  "geocode_en": [
    {
      "address_components": [
        {
          "long_name": "Hong Kong",
          "short_name": "HK",
          "types": [
            "country",
            "political"
          ]
        }
      ],
      "formatted_address": "Shop 65-66, 1/F, Discovery Park Shopping Centre, 398 Castle Peak Road, Tsuen Wan, Hong Kong",
      "geometry": {
        "location": {
          "lat": 22.3758188,
          "lng": 114.1126751
        },
        "location_type": "GEOMETRIC_CENTER",
        "viewport": {
          "northeast": {
            "lat": 22.3771677802915,
            "lng": 114.1140240802915
          },
          "southwest": {
            "lat": 22.37446981970849,
            "lng": 114.1113261197085
          }
        }
      },
      "place_id": "ChIJdfJGvfH4AzQRzQ_gY5EoqyM",
      "plus_code": {
        "compound_code": "94G7+83 Hong Kong",
        "global_code": "7PJP94G7+83"
      },
      "types": [
        "establishment",
        "food",
        "point_of_interest",
        "restaurant"
      ]
    }
  ],
  "geocode_tc": [
    {
      "address_components": [
        {
          "long_name": "\u9999\u6e2f",
          "short_name": "HK",
          "types": [
            "country",
            "political"
          ]
        }
      ],
      "formatted_address": "\u9999\u6e2f\u8343\u7063\u57ce\u5e02\u5ee3\u5834\u8343\u7063\u5730\u6bb5 301\u5343\u8272\u5e97\u5730\u4e0b1-6\u865f",
      "geometry": {
        "location": {
          "lat": 22.3712221,
          "lng": 114.1187369
        },
        "location_type": "GEOMETRIC_CENTER",
        "viewport": {
          "northeast": {
            "lat": 22.3725710802915,
            "lng": 114.1200858802915
          },
          "southwest": {
            "lat": 22.3698731197085,
            "lng": 114.1173879197085
          }
        }
      },
      "place_id": "ChIJpZgtPu34AzQRLD-oLTUyHjQ",
      "plus_code": {
        "compound_code": "94C9+FF \u9999\u6e2f",
        "global_code": "7PJP94C9+FF"
      },
      "types": [
        "cafe",
        "establishment",
        "food",
        "point_of_interest"
      ]
    }
  ],
  "licno": "2292001758",
  "timestamp": 1564968756,
  "version": "1564966095"
}
