{
  "adr_en": "\u6613\u7259\u5999\u624b, R1, 5/F, ISLAND BEVERLEY, 1 GREAT GEORGE ST., CAUSEWAY BAY, WAN CHAI, HONG KONG",
  "adr_tc": "\u9999\u6e2f\u7d00\u5229\u4f50\u6cbb\u88571\u865f\u91d1\u767e\u5229\u4e2d\u5fc35\u5b57\u6a13R1\u865f\u92ea \u6613\u7259\u5999\u624b",
  "geocode_en": [
    {
      "address_components": [
        {
          "long_name": "Hong Kong",
          "short_name": "HK",
          "types": [
            "country",
            "political"
          ]
        }
      ],
      "formatted_address": "Hong Kong, \u9285\u947c\u7063\u8a18\u5229\u4f50\u6cbb\u88571\u865f\u91d1\u767e\u5229\u5ee3\u58345\u6a13R1\u865f\u8216",
      "geometry": {
        "location": {
          "lat": 22.280516,
          "lng": 114.184923
        },
        "location_type": "GEOMETRIC_CENTER",
        "viewport": {
          "northeast": {
            "lat": 22.2818649802915,
            "lng": 114.1862719802915
          },
          "southwest": {
            "lat": 22.2791670197085,
            "lng": 114.1835740197085
          }
        }
      },
      "partial_match": true,
      "place_id": "ChIJh-RAmlYABDQRDM5raYsa1KY",
      "types": [
        "establishment",
        "food",
        "point_of_interest",
        "restaurant"
      ]
    },
    {
      "address_components": [
        {
          "long_name": "1",
          "short_name": "1",
          "types": [
            "street_number"
          ]
        },
        {
          "long_name": "Great George Street",
          "short_name": "Great George St",
          "types": [
            "route"
          ]
        },
        {
          "long_name": "Causeway Bay",
          "short_name": "Causeway Bay",
          "types": [
            "neighborhood",
            "political"
          ]
        },
        {
          "long_name": "Hong Kong Island",
          "short_name": "Hong Kong Island",
          "types": [
            "administrative_area_level_1",
            "political"
          ]
        },
        {
          "long_name": "Hong Kong",
          "short_name": "HK",
          "types": [
            "country",
            "political"
          ]
        }
      ],
      "formatted_address": "1 Great George St, Causeway Bay, Hong Kong",
      "geometry": {
        "location": {
          "lat": 22.2804071,
          "lng": 114.1851082
        },
        "location_type": "ROOFTOP",
        "viewport": {
          "northeast": {
            "lat": 22.2817560802915,
            "lng": 114.1864571802915
          },
          "southwest": {
            "lat": 22.27905811970849,
            "lng": 114.1837592197085
          }
        }
      },
      "partial_match": true,
      "place_id": "ChIJb0tBmlYABDQR-ndiyy6Dxy0",
      "plus_code": {
        "compound_code": "75JP+52 Causeway Bay, Hong Kong",
        "global_code": "7PJP75JP+52"
      },
      "types": [
        "establishment",
        "point_of_interest",
        "shopping_mall"
      ]
    }
  ],
  "geocode_tc": [
    {
      "address_components": [
        {
          "long_name": "1",
          "short_name": "1",
          "types": [
            "street_number"
          ]
        },
        {
          "long_name": "\u8a18\u5229\u4f50\u6cbb\u8857",
          "short_name": "\u8a18\u5229\u4f50\u6cbb\u8857",
          "types": [
            "route"
          ]
        },
        {
          "long_name": "\u9285\u947c\u7063",
          "short_name": "\u9285\u947c\u7063",
          "types": [
            "neighborhood",
            "political"
          ]
        },
        {
          "long_name": "\u9999\u6e2f\u5cf6",
          "short_name": "\u9999\u6e2f\u5cf6",
          "types": [
            "administrative_area_level_1",
            "political"
          ]
        },
        {
          "long_name": "\u9999\u6e2f",
          "short_name": "HK",
          "types": [
            "country",
            "political"
          ]
        }
      ],
      "formatted_address": "\u9999\u6e2f\u9285\u947c\u7063\u8a18\u5229\u4f50\u6cbb\u88571\u865f",
      "geometry": {
        "location": {
          "lat": 22.2804071,
          "lng": 114.1851082
        },
        "location_type": "ROOFTOP",
        "viewport": {
          "northeast": {
            "lat": 22.2817560802915,
            "lng": 114.1864571802915
          },
          "southwest": {
            "lat": 22.27905811970849,
            "lng": 114.1837592197085
          }
        }
      },
      "partial_match": true,
      "place_id": "ChIJb0tBmlYABDQR-ndiyy6Dxy0",
      "plus_code": {
        "compound_code": "75JP+52 \u9999\u6e2f\u9285\u947c\u7063",
        "global_code": "7PJP75JP+52"
      },
      "types": [
        "establishment",
        "point_of_interest",
        "shopping_mall"
      ]
    },
    {
      "address_components": [
        {
          "long_name": "\u9999\u6e2f",
          "short_name": "HK",
          "types": [
            "country",
            "political"
          ]
        }
      ],
      "formatted_address": "\u9999\u6e2f\u9285\u947c\u7063\u8a18\u5229\u4f50\u6cbb\u88571\u865f\u91d1\u767e\u5229\u5ee3\u58345\u6a13R1\u865f\u8216",
      "geometry": {
        "location": {
          "lat": 22.280516,
          "lng": 114.184923
        },
        "location_type": "GEOMETRIC_CENTER",
        "viewport": {
          "northeast": {
            "lat": 22.2818649802915,
            "lng": 114.1862719802915
          },
          "southwest": {
            "lat": 22.2791670197085,
            "lng": 114.1835740197085
          }
        }
      },
      "partial_match": true,
      "place_id": "ChIJh-RAmlYABDQRDM5raYsa1KY",
      "types": [
        "establishment",
        "food",
        "point_of_interest",
        "restaurant"
      ]
    }
  ],
  "licno": "2212197486",
  "timestamp": 1564966180,
  "version": "1564966095"
}
