{
  "adr_en": "FUJI SEAFOOD, G/F & COCKLOFT, MANSION HOUSE, NO. 55 NAM KOK ROAD, KOWLOON CITY, KOWLOON",
  "adr_tc": "\u4e5d\u9f8d\u4e5d\u9f8d\u57ce\u5357\u89d2\u905355\u865f\u842c\u9806\u6a13\u5730\u4e0b\u53ca\u95a3\u6a13 \u5bcc\u58eb\u6c34\u7522",
  "geocode_en": [
    {
      "address_components": [
        {
          "long_name": "Mansion House",
          "short_name": "Mansion House",
          "types": [
            "premise"
          ]
        },
        {
          "long_name": "55",
          "short_name": "55",
          "types": [
            "street_number"
          ]
        },
        {
          "long_name": "Nam Kok Road",
          "short_name": "Nam Kok Rd",
          "types": [
            "route"
          ]
        },
        {
          "long_name": "Kowloon City",
          "short_name": "Kowloon City",
          "types": [
            "neighborhood",
            "political"
          ]
        },
        {
          "long_name": "Kowloon",
          "short_name": "Kowloon",
          "types": [
            "administrative_area_level_1",
            "political"
          ]
        },
        {
          "long_name": "Hong Kong",
          "short_name": "HK",
          "types": [
            "country",
            "political"
          ]
        }
      ],
      "formatted_address": "Mansion House, 55 Nam Kok Rd, Kowloon City, Hong Kong",
      "geometry": {
        "bounds": {
          "northeast": {
            "lat": 22.330083,
            "lng": 114.189799
          },
          "southwest": {
            "lat": 22.330022,
            "lng": 114.189629
          }
        },
        "location": {
          "lat": 22.3300609,
          "lng": 114.1897187
        },
        "location_type": "ROOFTOP",
        "viewport": {
          "northeast": {
            "lat": 22.3314014802915,
            "lng": 114.1910629802915
          },
          "southwest": {
            "lat": 22.3287035197085,
            "lng": 114.1883650197085
          }
        }
      },
      "partial_match": true,
      "place_id": "ChIJwzbL7SoHBDQRTMrxpaYrBz0",
      "types": [
        "premise"
      ]
    }
  ],
  "geocode_tc": [
    {
      "address_components": [
        {
          "long_name": "55\u865f",
          "short_name": "55\u865f",
          "types": [
            "street_number"
          ]
        },
        {
          "long_name": "\u57ce\u5357\u89d2\u9053",
          "short_name": "\u57ce\u5357\u89d2\u9053",
          "types": [
            "route"
          ]
        },
        {
          "long_name": "\u4e5d\u9f8d\u57ce",
          "short_name": "\u4e5d\u9f8d\u57ce",
          "types": [
            "neighborhood",
            "political"
          ]
        },
        {
          "long_name": "\u4e5d\u9f8d",
          "short_name": "\u4e5d\u9f8d",
          "types": [
            "administrative_area_level_1",
            "political"
          ]
        },
        {
          "long_name": "\u9999\u6e2f",
          "short_name": "HK",
          "types": [
            "country",
            "political"
          ]
        }
      ],
      "formatted_address": "\u9999\u6e2f\u4e5d\u9f8d\u57ce\u57ce\u5357\u89d2\u905355\u865f",
      "geometry": {
        "location": {
          "lat": 22.3299752,
          "lng": 114.189795
        },
        "location_type": "ROOFTOP",
        "viewport": {
          "northeast": {
            "lat": 22.3313241802915,
            "lng": 114.1911439802915
          },
          "southwest": {
            "lat": 22.3286262197085,
            "lng": 114.1884460197085
          }
        }
      },
      "place_id": "ChIJS1A-lE4BBDQRrX35QN5prQI",
      "plus_code": {
        "compound_code": "85HQ+XW \u9999\u6e2f",
        "global_code": "7PJP85HQ+XW"
      },
      "types": [
        "establishment",
        "food",
        "point_of_interest",
        "store"
      ]
    }
  ],
  "licno": "2252806522",
  "timestamp": 1564968756,
  "version": "1564966095"
}
