{
  "adr_en": "Solar City Night Club, 3/F, 749 NATHAN RD., MONG KOK, KOWLOON",
  "adr_tc": "\u4e5d\u9f8d\u65fa\u89d2\u5f4c\u6566\u9053749\u865f3\u6a13 \u592a\u967d\u57ce\u591c\u7e3d\u6703",
  "geocode_en": [
    {
      "address_components": [
        {
          "long_name": "Hong Kong",
          "short_name": "HK",
          "types": [
            "country",
            "political"
          ]
        }
      ],
      "formatted_address": "3/F, 749 Nathan Rd., Mong Kok, Kowloon, Hong Kong",
      "geometry": {
        "location": {
          "lat": 22.323511,
          "lng": 114.168298
        },
        "location_type": "GEOMETRIC_CENTER",
        "viewport": {
          "northeast": {
            "lat": 22.3248599802915,
            "lng": 114.1696469802915
          },
          "southwest": {
            "lat": 22.3221620197085,
            "lng": 114.1669490197085
          }
        }
      },
      "place_id": "ChIJiamG0ckABDQRz8t6WZTf0L8",
      "plus_code": {
        "compound_code": "85F9+C8 Hong Kong",
        "global_code": "7PJP85F9+C8"
      },
      "types": [
        "establishment",
        "point_of_interest"
      ]
    }
  ],
  "geocode_tc": [
    {
      "address_components": [
        {
          "long_name": "749A\u865f",
          "short_name": "749A\u865f",
          "types": [
            "premise"
          ]
        },
        {
          "long_name": "\u5f4c\u6566\u9053",
          "short_name": "\u5f4c\u6566\u9053",
          "types": [
            "route"
          ]
        },
        {
          "long_name": "\u592a\u5b50",
          "short_name": "\u592a\u5b50",
          "types": [
            "neighborhood",
            "political"
          ]
        },
        {
          "long_name": "\u4e5d\u9f8d",
          "short_name": "\u4e5d\u9f8d",
          "types": [
            "administrative_area_level_1",
            "political"
          ]
        },
        {
          "long_name": "\u9999\u6e2f",
          "short_name": "HK",
          "types": [
            "country",
            "political"
          ]
        }
      ],
      "formatted_address": "\u9999\u6e2f\u592a\u5b50\u5f4c\u6566\u9053749A\u865f",
      "geometry": {
        "location": {
          "lat": 22.323525,
          "lng": 114.168312
        },
        "location_type": "ROOFTOP",
        "viewport": {
          "northeast": {
            "lat": 22.3248739802915,
            "lng": 114.1696609802915
          },
          "southwest": {
            "lat": 22.3221760197085,
            "lng": 114.1669630197085
          }
        }
      },
      "place_id": "ChIJXxaF0ckABDQRFZF-cscE7VI",
      "plus_code": {
        "compound_code": "85F9+C8 \u9999\u6e2f",
        "global_code": "7PJP85F9+C8"
      },
      "types": [
        "establishment",
        "night_club",
        "point_of_interest"
      ]
    }
  ],
  "licno": "3162155674",
  "timestamp": 1564975666,
  "version": "1564966095"
}
