{
  "adr_en": "UPP, UNIT NO. 402D, 4/F., SHUN TAK CENTRE, 200 CONNAUGHT ROAD CENTRAL, SHEUNG WAN, HONG KONG",
  "adr_tc": "\u9999\u6e2f\u4e0a\u74b0\u5e72\u8afe\u9053\u4e2d200\u865f\u4fe1\u5fb7\u4e2d\u5fc34\u6a13402D\u92ea UPP",
  "geocode_en": [
    {
      "address_components": [
        {
          "long_name": "Sheung Wan",
          "short_name": "Sheung Wan",
          "types": [
            "neighborhood",
            "political"
          ]
        },
        {
          "long_name": "Hong Kong Island",
          "short_name": "Hong Kong Island",
          "types": [
            "administrative_area_level_1",
            "political"
          ]
        },
        {
          "long_name": "Hong Kong",
          "short_name": "HK",
          "types": [
            "country",
            "political"
          ]
        }
      ],
      "formatted_address": "Shop 402C-E, 4/F, Shun Tak Centre, 200 Connaught Road Central, Sheung Wan, Hong Kong, Sheung Wan, Hong Kong",
      "geometry": {
        "location": {
          "lat": 22.28801,
          "lng": 114.1515269
        },
        "location_type": "GEOMETRIC_CENTER",
        "viewport": {
          "northeast": {
            "lat": 22.2893589802915,
            "lng": 114.1528758802915
          },
          "southwest": {
            "lat": 22.2866610197085,
            "lng": 114.1501779197085
          }
        }
      },
      "partial_match": true,
      "place_id": "ChIJh6qLvn0ABDQRQrCSyDAkozk",
      "types": [
        "establishment",
        "point_of_interest"
      ]
    }
  ],
  "geocode_tc": [
    {
      "address_components": [
        {
          "long_name": "\u6a13402D\u92ea",
          "short_name": "\u6a13402D\u92ea",
          "types": [
            "subpremise"
          ]
        },
        {
          "long_name": "\u4fe1\u5fb7\u4e2d\u5fc3",
          "short_name": "\u4fe1\u5fb7\u4e2d\u5fc3",
          "types": [
            "premise"
          ]
        },
        {
          "long_name": "168-200",
          "short_name": "168-200",
          "types": [
            "street_number"
          ]
        },
        {
          "long_name": "\u5e72\u8afe\u9053\u4e2d",
          "short_name": "\u5e72\u8afe\u9053\u4e2d",
          "types": [
            "route"
          ]
        },
        {
          "long_name": "\u4e0a\u74b0",
          "short_name": "\u4e0a\u74b0",
          "types": [
            "neighborhood",
            "political"
          ]
        },
        {
          "long_name": "\u9999\u6e2f\u5cf6",
          "short_name": "\u9999\u6e2f\u5cf6",
          "types": [
            "administrative_area_level_1",
            "political"
          ]
        },
        {
          "long_name": "\u9999\u6e2f",
          "short_name": "HK",
          "types": [
            "country",
            "political"
          ]
        }
      ],
      "formatted_address": "\u9999\u6e2f\u4e0a\u74b0\u5e72\u8afe\u9053\u4e2d168-200\u865f\u4fe1\u5fb7\u4e2d\u5fc3\u6a13402D\u92ea",
      "geometry": {
        "bounds": {
          "northeast": {
            "lat": 22.2883143,
            "lng": 114.1528687
          },
          "southwest": {
            "lat": 22.2873915,
            "lng": 114.1508055
          }
        },
        "location": {
          "lat": 22.2879098,
          "lng": 114.1517914
        },
        "location_type": "ROOFTOP",
        "viewport": {
          "northeast": {
            "lat": 22.2892018802915,
            "lng": 114.1531860802915
          },
          "southwest": {
            "lat": 22.2865039197085,
            "lng": 114.1504881197085
          }
        }
      },
      "partial_match": true,
      "place_id": "ElDmqJM0MDJE6YuqLCBTaHVuIFRhayBDZW50cmUsIDE2OC0yMDAgQ29ubmF1Z2h0IFJkIENlbnRyYWwsIFNoZXVuZyBXYW4sIEhvbmcgS29uZyImGiQKFgoUChIJKUGRwX0ABDQRrvlfieLMpN0SCuaokzQwMkTpi6o",
      "types": [
        "subpremise"
      ]
    },
    {
      "address_components": [
        {
          "long_name": "Sheung Wan",
          "short_name": "Sheung Wan",
          "types": [
            "neighborhood",
            "political"
          ]
        },
        {
          "long_name": "Hong Kong Island",
          "short_name": "Hong Kong Island",
          "types": [
            "administrative_area_level_1",
            "political"
          ]
        },
        {
          "long_name": "\u9999\u6e2f",
          "short_name": "HK",
          "types": [
            "country",
            "political"
          ]
        }
      ],
      "formatted_address": "Shop 402C-E, 4/F, Shun Tak Centre, 200 Connaught Road Central, Sheung Wan, Hong Kong, Sheung Wan, \u9999\u6e2f",
      "geometry": {
        "location": {
          "lat": 22.28801,
          "lng": 114.1515269
        },
        "location_type": "GEOMETRIC_CENTER",
        "viewport": {
          "northeast": {
            "lat": 22.2893589802915,
            "lng": 114.1528758802915
          },
          "southwest": {
            "lat": 22.2866610197085,
            "lng": 114.1501779197085
          }
        }
      },
      "partial_match": true,
      "place_id": "ChIJh6qLvn0ABDQRQrCSyDAkozk",
      "types": [
        "establishment",
        "point_of_interest"
      ]
    }
  ],
  "licno": "3118807338",
  "timestamp": 1564975666,
  "version": "1564966095"
}
