{
  "adr_en": "\u5fc5\u767c, SHOP NO.8, G/F, AND OUTSIDE SEATING ACCOMMODATION AT SHOP FRONT, KAM CHI PATH, NGAU CHI WAN, WONG TAI SIN, KOWLOON",
  "adr_tc": "\u4e5d\u9f8d\u9ec3\u5927\u4ed9\u725b\u6c60\u7063\u91d1\u6c60\u5f91\u5730\u4e0b8\u865f\u8216 \u53ca\u8216\u524d\u9732\u5929\u8336\u5ea7 \u5fc5\u767c",
  "geocode_en": [
    {
      "address_components": [
        {
          "long_name": "\u69ae\u6c60\u5f91",
          "short_name": "\u69ae\u6c60\u5f91",
          "types": [
            "route"
          ]
        },
        {
          "long_name": "Ngau Chi Wan",
          "short_name": "Ngau Chi Wan",
          "types": [
            "neighborhood",
            "political"
          ]
        },
        {
          "long_name": "Kowloon",
          "short_name": "Kowloon",
          "types": [
            "administrative_area_level_1",
            "political"
          ]
        },
        {
          "long_name": "Hong Kong",
          "short_name": "HK",
          "types": [
            "country",
            "political"
          ]
        }
      ],
      "formatted_address": "\u69ae\u6c60\u5f91, Ngau Chi Wan, Hong Kong",
      "geometry": {
        "bounds": {
          "northeast": {
            "lat": 22.3356724,
            "lng": 114.2090965
          },
          "southwest": {
            "lat": 22.3347484,
            "lng": 114.2082142
          }
        },
        "location": {
          "lat": 22.335143,
          "lng": 114.208548
        },
        "location_type": "GEOMETRIC_CENTER",
        "viewport": {
          "northeast": {
            "lat": 22.3365593802915,
            "lng": 114.2100043302915
          },
          "southwest": {
            "lat": 22.3338614197085,
            "lng": 114.2073063697085
          }
        }
      },
      "partial_match": true,
      "place_id": "ChIJR026SM8GBDQRrFxes8sEb_A",
      "types": [
        "route"
      ]
    }
  ],
  "geocode_tc": [
    {
      "address_components": [
        {
          "long_name": "\u69ae\u6c60\u5f91",
          "short_name": "\u69ae\u6c60\u5f91",
          "types": [
            "route"
          ]
        },
        {
          "long_name": "Ngau Chi Wan",
          "short_name": "Ngau Chi Wan",
          "types": [
            "neighborhood",
            "political"
          ]
        },
        {
          "long_name": "Kowloon",
          "short_name": "Kowloon",
          "types": [
            "administrative_area_level_1",
            "political"
          ]
        },
        {
          "long_name": "\u9999\u6e2f",
          "short_name": "HK",
          "types": [
            "country",
            "political"
          ]
        }
      ],
      "formatted_address": "\u69ae\u6c60\u5f91, Ngau Chi Wan, \u9999\u6e2f",
      "geometry": {
        "bounds": {
          "northeast": {
            "lat": 22.3356724,
            "lng": 114.2090965
          },
          "southwest": {
            "lat": 22.3347484,
            "lng": 114.2082142
          }
        },
        "location": {
          "lat": 22.335143,
          "lng": 114.208548
        },
        "location_type": "GEOMETRIC_CENTER",
        "viewport": {
          "northeast": {
            "lat": 22.3365593802915,
            "lng": 114.2100043302915
          },
          "southwest": {
            "lat": 22.3338614197085,
            "lng": 114.2073063697085
          }
        }
      },
      "partial_match": true,
      "place_id": "ChIJR026SM8GBDQRrFxes8sEb_A",
      "types": [
        "route"
      ]
    }
  ],
  "licno": "3153186416",
  "timestamp": 1564975666,
  "version": "1564966095"
}
