{
  "adr_en": "Canadian Pizza, SHOP C & D, GROUND FLOOR, BLOCK B, TOWN CENTRE, FAIRVIEW PARK, YUEN LONG, NEW TERRITORIES",
  "adr_tc": "\u65b0\u754c\u5143\u6717\u9326\u7e61\u82b1\u5712\u5e02\u4e2d\u5fc3B\u5ea7\u5730\u4e0bC\u53caD\u92ea Canadian Pizza",
  "geocode_en": [
    {
      "address_components": [
        {
          "long_name": "Fairview Park",
          "short_name": "Fairview Park",
          "types": [
            "neighborhood",
            "political"
          ]
        },
        {
          "long_name": "New Territories",
          "short_name": "New Territories",
          "types": [
            "administrative_area_level_1",
            "political"
          ]
        },
        {
          "long_name": "Hong Kong",
          "short_name": "HK",
          "types": [
            "country",
            "political"
          ]
        }
      ],
      "formatted_address": "Fairview Park, Hong Kong",
      "geometry": {
        "location": {
          "lat": 22.4776395,
          "lng": 114.0454831
        },
        "location_type": "GEOMETRIC_CENTER",
        "viewport": {
          "northeast": {
            "lat": 22.4789884802915,
            "lng": 114.0468320802915
          },
          "southwest": {
            "lat": 22.4762905197085,
            "lng": 114.0441341197085
          }
        }
      },
      "partial_match": true,
      "place_id": "ChIJGwnfo9PwAzQRhqcmZnqJ5rY",
      "plus_code": {
        "compound_code": "F2HW+35 Hong Kong",
        "global_code": "7PJPF2HW+35"
      },
      "types": [
        "establishment",
        "food",
        "meal_takeaway",
        "point_of_interest",
        "restaurant"
      ]
    }
  ],
  "geocode_tc": [
    {
      "address_components": [
        {
          "long_name": "\u6021\u8c50\u82b1\u5712B\u5ea7",
          "short_name": "\u6021\u8c50\u82b1\u5712B\u5ea7",
          "types": [
            "premise"
          ]
        },
        {
          "long_name": "38",
          "short_name": "38",
          "types": [
            "street_number"
          ]
        },
        {
          "long_name": "\u99ac\u7530\u8def",
          "short_name": "\u99ac\u7530\u8def",
          "types": [
            "route"
          ]
        },
        {
          "long_name": "\u5143\u6717",
          "short_name": "\u5143\u6717",
          "types": [
            "neighborhood",
            "political"
          ]
        },
        {
          "long_name": "\u65b0\u754c",
          "short_name": "\u65b0\u754c",
          "types": [
            "administrative_area_level_1",
            "political"
          ]
        },
        {
          "long_name": "\u9999\u6e2f",
          "short_name": "HK",
          "types": [
            "country",
            "political"
          ]
        }
      ],
      "formatted_address": "\u9999\u6e2f\u5143\u6717\u99ac\u7530\u8def38\u865f\u6021\u8c50\u82b1\u5712B\u5ea7",
      "geometry": {
        "bounds": {
          "northeast": {
            "lat": 22.44177,
            "lng": 114.025091
          },
          "southwest": {
            "lat": 22.441522,
            "lng": 114.0247631
          }
        },
        "location": {
          "lat": 22.4416492,
          "lng": 114.0249443
        },
        "location_type": "ROOFTOP",
        "viewport": {
          "northeast": {
            "lat": 22.4429949802915,
            "lng": 114.0262760302915
          },
          "southwest": {
            "lat": 22.4402970197085,
            "lng": 114.0235780697085
          }
        }
      },
      "partial_match": true,
      "place_id": "ChIJ279dM3X6AzQRBsmj9nlzX0c",
      "types": [
        "premise"
      ]
    },
    {
      "address_components": [
        {
          "long_name": "\u9326\u7d89\u82b1\u5712",
          "short_name": "\u9326\u7d89\u82b1\u5712",
          "types": [
            "neighborhood",
            "political"
          ]
        },
        {
          "long_name": "\u65b0\u754c",
          "short_name": "\u65b0\u754c",
          "types": [
            "administrative_area_level_1",
            "political"
          ]
        },
        {
          "long_name": "\u9999\u6e2f",
          "short_name": "HK",
          "types": [
            "country",
            "political"
          ]
        }
      ],
      "formatted_address": "\u9999\u6e2f\u9326\u7d89\u82b1\u5712",
      "geometry": {
        "location": {
          "lat": 22.4776395,
          "lng": 114.0454831
        },
        "location_type": "GEOMETRIC_CENTER",
        "viewport": {
          "northeast": {
            "lat": 22.4789884802915,
            "lng": 114.0468320802915
          },
          "southwest": {
            "lat": 22.4762905197085,
            "lng": 114.0441341197085
          }
        }
      },
      "partial_match": true,
      "place_id": "ChIJGwnfo9PwAzQRhqcmZnqJ5rY",
      "plus_code": {
        "compound_code": "F2HW+35 \u9999\u6e2f",
        "global_code": "7PJPF2HW+35"
      },
      "types": [
        "establishment",
        "food",
        "meal_takeaway",
        "point_of_interest",
        "restaurant"
      ]
    }
  ],
  "licno": "2294806944",
  "timestamp": 1564975666,
  "version": "1564966095"
}
