{
  "adr_en": "\u5dba\u5357\u7f8e\u98df, FLAT 4, G/F, PHASE I, HING FOOK BUILDING, MA MIU ROAD, YUEN LONG, NEW TERRITORIES",
  "adr_tc": "\u65b0\u754c\u5143\u6717\u5abd\u5edf\u8def\u5e78\u798f\u6a13\u7b2c\u4e00\u671f\u5730\u4e0b4\u865f\u8216 \u5dba\u5357\u7f8e\u98df",
  "geocode_en": [
    {
      "address_components": [
        {
          "long_name": "Hong Kong",
          "short_name": "HK",
          "types": [
            "country",
            "political"
          ]
        }
      ],
      "formatted_address": "Hong Kong, \u5143\u6717\u5abd\u5edf\u8def\u5e78\u798f\u6a13\u7b2c\u4e00\u671f\u5730\u4e0b4\u865f\u8216",
      "geometry": {
        "location": {
          "lat": 22.4466621,
          "lng": 114.0212557
        },
        "location_type": "GEOMETRIC_CENTER",
        "viewport": {
          "northeast": {
            "lat": 22.4480110802915,
            "lng": 114.0226046802915
          },
          "southwest": {
            "lat": 22.4453131197085,
            "lng": 114.0199067197085
          }
        }
      },
      "partial_match": true,
      "place_id": "ChIJVc3p-J7wAzQRKZrfAfm4gRk",
      "plus_code": {
        "compound_code": "C2WC+MG Hong Kong",
        "global_code": "7PJPC2WC+MG"
      },
      "types": [
        "establishment",
        "food",
        "point_of_interest",
        "restaurant"
      ]
    },
    {
      "address_components": [
        {
          "long_name": "Hing Fook Building Phase Iv",
          "short_name": "Hing Fook Building Phase Iv",
          "types": [
            "premise"
          ]
        },
        {
          "long_name": "Ma Miu Road",
          "short_name": "Ma Miu Rd",
          "types": [
            "route"
          ]
        },
        {
          "long_name": "Yuen Long",
          "short_name": "Yuen Long",
          "types": [
            "neighborhood",
            "political"
          ]
        },
        {
          "long_name": "New Territories",
          "short_name": "New Territories",
          "types": [
            "administrative_area_level_1",
            "political"
          ]
        },
        {
          "long_name": "Hong Kong",
          "short_name": "HK",
          "types": [
            "country",
            "political"
          ]
        }
      ],
      "formatted_address": "Hing Fook Building Phase Iv, Ma Miu Rd, Yuen Long, Hong Kong",
      "geometry": {
        "location": {
          "lat": 22.446882,
          "lng": 114.021236
        },
        "location_type": "ROOFTOP",
        "viewport": {
          "northeast": {
            "lat": 22.4482309802915,
            "lng": 114.0225849802915
          },
          "southwest": {
            "lat": 22.4455330197085,
            "lng": 114.0198870197085
          }
        }
      },
      "partial_match": true,
      "place_id": "ChIJDzCT957wAzQRGZcTzxi4U0A",
      "plus_code": {
        "compound_code": "C2WC+QF Hong Kong",
        "global_code": "7PJPC2WC+QF"
      },
      "types": [
        "establishment",
        "point_of_interest"
      ]
    }
  ],
  "geocode_tc": [
    {
      "address_components": [
        {
          "long_name": "\u9999\u6e2f",
          "short_name": "HK",
          "types": [
            "country",
            "political"
          ]
        }
      ],
      "formatted_address": "\u9999\u6e2f\u5143\u6717\u5abd\u5edf\u8def\u5e78\u798f\u6a13\u7b2c\u4e00\u671f\u5730\u4e0b4\u865f\u8216",
      "geometry": {
        "location": {
          "lat": 22.4466621,
          "lng": 114.0212557
        },
        "location_type": "GEOMETRIC_CENTER",
        "viewport": {
          "northeast": {
            "lat": 22.4480110802915,
            "lng": 114.0226046802915
          },
          "southwest": {
            "lat": 22.4453131197085,
            "lng": 114.0199067197085
          }
        }
      },
      "place_id": "ChIJVc3p-J7wAzQRKZrfAfm4gRk",
      "plus_code": {
        "compound_code": "C2WC+MG \u9999\u6e2f",
        "global_code": "7PJPC2WC+MG"
      },
      "types": [
        "establishment",
        "food",
        "point_of_interest",
        "restaurant"
      ]
    }
  ],
  "licno": "2294001804",
  "timestamp": 1564975666,
  "version": "1564966095"
}
