{
  "adr_en": "PO WOO RESTAURANT, SHOP D, G/F., FUK LEE BUILDING, 1-7 SHELL STREET, FORTRESS HILL, HONG KONG",
  "adr_tc": "\u9999\u6e2f\u70ae\u53f0\u5c71\u8706\u6bbc\u88571-7\u865f\u798f\u5229\u6a13\u5730\u4e0bD\u8216 \u5bf6\u6e56\u9910\u5ef3",
  "geocode_en": [
    {
      "address_components": [
        {
          "long_name": "8\u865f",
          "short_name": "8\u865f",
          "types": [
            "street_number"
          ]
        },
        {
          "long_name": "Shell Street",
          "short_name": "Shell St",
          "types": [
            "route"
          ]
        },
        {
          "long_name": "Causeway Bay",
          "short_name": "Causeway Bay",
          "types": [
            "neighborhood",
            "political"
          ]
        },
        {
          "long_name": "Hong Kong Island",
          "short_name": "Hong Kong Island",
          "types": [
            "administrative_area_level_1",
            "political"
          ]
        },
        {
          "long_name": "Hong Kong",
          "short_name": "HK",
          "types": [
            "country",
            "political"
          ]
        }
      ],
      "formatted_address": "8\u865f Shell St, Causeway Bay, Hong Kong",
      "geometry": {
        "location": {
          "lat": 22.2868184,
          "lng": 114.192385
        },
        "location_type": "ROOFTOP",
        "viewport": {
          "northeast": {
            "lat": 22.2881673802915,
            "lng": 114.1937339802915
          },
          "southwest": {
            "lat": 22.2854694197085,
            "lng": 114.1910360197085
          }
        }
      },
      "partial_match": true,
      "place_id": "ChIJTcvqzAEBBDQRC3O_t3LiD-4",
      "plus_code": {
        "compound_code": "75PR+PX Hong Kong",
        "global_code": "7PJP75PR+PX"
      },
      "types": [
        "establishment",
        "food",
        "point_of_interest",
        "restaurant"
      ]
    },
    {
      "address_components": [
        {
          "long_name": "Fook Lee Bldg",
          "short_name": "Fook Lee Bldg",
          "types": [
            "premise"
          ]
        },
        {
          "long_name": "1-7",
          "short_name": "1-7",
          "types": [
            "street_number"
          ]
        },
        {
          "long_name": "Shell Street",
          "short_name": "Shell St",
          "types": [
            "route"
          ]
        },
        {
          "long_name": "Hong Kong",
          "short_name": "HK",
          "types": [
            "country",
            "political"
          ]
        }
      ],
      "formatted_address": "Hong Kong, Shell St, 1-7\u865f, Fook Lee Bldg, 7",
      "geometry": {
        "location": {
          "lat": 22.2867395,
          "lng": 114.192411
        },
        "location_type": "ROOFTOP",
        "viewport": {
          "northeast": {
            "lat": 22.2880884802915,
            "lng": 114.1937599802915
          },
          "southwest": {
            "lat": 22.2853905197085,
            "lng": 114.1910620197085
          }
        }
      },
      "partial_match": true,
      "place_id": "ChIJK1T-xAEBBDQRGTFQQ6vf0PU",
      "plus_code": {
        "compound_code": "75PR+MX Hong Kong",
        "global_code": "7PJP75PR+MX"
      },
      "types": [
        "establishment",
        "point_of_interest"
      ]
    },
    {
      "address_components": [
        {
          "long_name": "1-7",
          "short_name": "1-7",
          "types": [
            "street_number"
          ]
        },
        {
          "long_name": "Shell Street",
          "short_name": "Shell St",
          "types": [
            "route"
          ]
        },
        {
          "long_name": "Causeway Bay",
          "short_name": "Causeway Bay",
          "types": [
            "neighborhood",
            "political"
          ]
        },
        {
          "long_name": "Hong Kong Island",
          "short_name": "Hong Kong Island",
          "types": [
            "administrative_area_level_1",
            "political"
          ]
        },
        {
          "long_name": "Hong Kong",
          "short_name": "HK",
          "types": [
            "country",
            "political"
          ]
        }
      ],
      "formatted_address": "1-7 Shell St, Causeway Bay, Hong Kong",
      "geometry": {
        "bounds": {
          "northeast": {
            "lat": 22.286836,
            "lng": 114.1925531
          },
          "southwest": {
            "lat": 22.2866429,
            "lng": 114.192269
          }
        },
        "location": {
          "lat": 22.2867635,
          "lng": 114.1924704
        },
        "location_type": "ROOFTOP",
        "viewport": {
          "northeast": {
            "lat": 22.2880884302915,
            "lng": 114.1937600302915
          },
          "southwest": {
            "lat": 22.2853904697085,
            "lng": 114.1910620697085
          }
        }
      },
      "partial_match": true,
      "place_id": "ChIJK1T-xAEBBDQRQJNkTcBVQPU",
      "types": [
        "premise"
      ]
    }
  ],
  "geocode_tc": [
    {
      "address_components": [
        {
          "long_name": "8\u865f",
          "short_name": "8\u865f",
          "types": [
            "street_number"
          ]
        },
        {
          "long_name": "\u8706\u6bbc\u8857",
          "short_name": "\u8706\u6bbc\u8857",
          "types": [
            "route"
          ]
        },
        {
          "long_name": "\u9285\u947c\u7063",
          "short_name": "\u9285\u947c\u7063",
          "types": [
            "neighborhood",
            "political"
          ]
        },
        {
          "long_name": "\u9999\u6e2f\u5cf6",
          "short_name": "\u9999\u6e2f\u5cf6",
          "types": [
            "administrative_area_level_1",
            "political"
          ]
        },
        {
          "long_name": "\u9999\u6e2f",
          "short_name": "HK",
          "types": [
            "country",
            "political"
          ]
        }
      ],
      "formatted_address": "\u9999\u6e2f\u9285\u947c\u7063\u8706\u6bbc\u88578\u865f",
      "geometry": {
        "location": {
          "lat": 22.2868184,
          "lng": 114.192385
        },
        "location_type": "ROOFTOP",
        "viewport": {
          "northeast": {
            "lat": 22.2881673802915,
            "lng": 114.1937339802915
          },
          "southwest": {
            "lat": 22.2854694197085,
            "lng": 114.1910360197085
          }
        }
      },
      "place_id": "ChIJTcvqzAEBBDQRC3O_t3LiD-4",
      "plus_code": {
        "compound_code": "75PR+PX \u9999\u6e2f",
        "global_code": "7PJP75PR+PX"
      },
      "types": [
        "establishment",
        "food",
        "point_of_interest",
        "restaurant"
      ]
    }
  ],
  "licno": "2211805070",
  "timestamp": 1564966180,
  "version": "1564966095"
}
