{
  "adr_en": "Silver Valley Restaurant, SHOP B, G/F, 62 CASTLE PEAK ROAD, SHAM SHUI PO, KOWLOON",
  "adr_tc": "\u4e5d\u9f8d\u6df1\u6c34\u57d7\u9752\u5c71\u905362\u865f\u5730\u4e0bB\u8216 \u9280\u8c37\u8336\u9910\u5ef3",
  "geocode_en": [
    {
      "address_components": [
        {
          "long_name": "G",
          "short_name": "G",
          "types": [
            "subpremise"
          ]
        },
        {
          "long_name": "62 Castle Peak Road",
          "short_name": "62 Castle Peak Road",
          "types": [
            "premise"
          ]
        },
        {
          "long_name": "62",
          "short_name": "62",
          "types": [
            "street_number"
          ]
        },
        {
          "long_name": "Castle Peak Road",
          "short_name": "Castle Peak Rd",
          "types": [
            "route"
          ]
        },
        {
          "long_name": "Lei Cheng Uk",
          "short_name": "Lei Cheng Uk",
          "types": [
            "neighborhood",
            "political"
          ]
        },
        {
          "long_name": "Kowloon",
          "short_name": "Kowloon",
          "types": [
            "administrative_area_level_1",
            "political"
          ]
        },
        {
          "long_name": "Hong Kong",
          "short_name": "HK",
          "types": [
            "country",
            "political"
          ]
        }
      ],
      "formatted_address": "G, 62 Castle Peak Road, 62 Castle Peak Rd, Lei Cheng Uk, Hong Kong",
      "geometry": {
        "bounds": {
          "northeast": {
            "lat": 22.3343309,
            "lng": 114.1622761
          },
          "southwest": {
            "lat": 22.334066,
            "lng": 114.1619751
          }
        },
        "location": {
          "lat": 22.3341903,
          "lng": 114.162096
        },
        "location_type": "ROOFTOP",
        "viewport": {
          "northeast": {
            "lat": 22.3355474302915,
            "lng": 114.1634745802915
          },
          "southwest": {
            "lat": 22.3328494697085,
            "lng": 114.1607766197085
          }
        }
      },
      "partial_match": true,
      "place_id": "EkJHLCA2MiBDYXN0bGUgUGVhayBSb2FkLCA2MiBDYXN0bGUgUGVhayBSZCwgTGVpIENoZW5nIFVrLCBIb25nIEtvbmciHRobChYKFAoSCU-2U2FLBwQ0EbDJs0qLr-XhEgFH",
      "types": [
        "subpremise"
      ]
    },
    {
      "address_components": [
        {
          "long_name": "F",
          "short_name": "F",
          "types": [
            "subpremise"
          ]
        },
        {
          "long_name": "62 Castle Peak Road",
          "short_name": "62 Castle Peak Road",
          "types": [
            "premise"
          ]
        },
        {
          "long_name": "62",
          "short_name": "62",
          "types": [
            "street_number"
          ]
        },
        {
          "long_name": "Castle Peak Road",
          "short_name": "Castle Peak Rd",
          "types": [
            "route"
          ]
        },
        {
          "long_name": "Lei Cheng Uk",
          "short_name": "Lei Cheng Uk",
          "types": [
            "neighborhood",
            "political"
          ]
        },
        {
          "long_name": "Kowloon",
          "short_name": "Kowloon",
          "types": [
            "administrative_area_level_1",
            "political"
          ]
        },
        {
          "long_name": "Hong Kong",
          "short_name": "HK",
          "types": [
            "country",
            "political"
          ]
        }
      ],
      "formatted_address": "F, 62 Castle Peak Road, 62 Castle Peak Rd, Lei Cheng Uk, Hong Kong",
      "geometry": {
        "bounds": {
          "northeast": {
            "lat": 22.3343309,
            "lng": 114.1622761
          },
          "southwest": {
            "lat": 22.334066,
            "lng": 114.1619751
          }
        },
        "location": {
          "lat": 22.3341903,
          "lng": 114.162096
        },
        "location_type": "ROOFTOP",
        "viewport": {
          "northeast": {
            "lat": 22.3355474302915,
            "lng": 114.1634745802915
          },
          "southwest": {
            "lat": 22.3328494697085,
            "lng": 114.1607766197085
          }
        }
      },
      "partial_match": true,
      "place_id": "EkJGLCA2MiBDYXN0bGUgUGVhayBSb2FkLCA2MiBDYXN0bGUgUGVhayBSZCwgTGVpIENoZW5nIFVrLCBIb25nIEtvbmciHRobChYKFAoSCU-2U2FLBwQ0EbDJs0qLr-XhEgFG",
      "types": [
        "subpremise"
      ]
    }
  ],
  "geocode_tc": [
    {
      "address_components": [
        {
          "long_name": "62\u53ca66\u865f",
          "short_name": "62\u53ca66\u865f",
          "types": [
            "street_number"
          ]
        },
        {
          "long_name": "\u798f\u69ae\u8857",
          "short_name": "\u798f\u69ae\u8857",
          "types": [
            "route"
          ]
        },
        {
          "long_name": "\u6df1\u6c34\u57d7",
          "short_name": "\u6df1\u6c34\u57d7",
          "types": [
            "neighborhood",
            "political"
          ]
        },
        {
          "long_name": "\u4e5d\u9f8d",
          "short_name": "\u4e5d\u9f8d",
          "types": [
            "administrative_area_level_1",
            "political"
          ]
        },
        {
          "long_name": "\u9999\u6e2f",
          "short_name": "HK",
          "types": [
            "country",
            "political"
          ]
        }
      ],
      "formatted_address": "\u9999\u6e2f\u6df1\u6c34\u57d7\u798f\u69ae\u885762\u53ca66\u865f",
      "geometry": {
        "location": {
          "lat": 22.331611,
          "lng": 114.163377
        },
        "location_type": "ROOFTOP",
        "viewport": {
          "northeast": {
            "lat": 22.3329599802915,
            "lng": 114.1647259802915
          },
          "southwest": {
            "lat": 22.3302620197085,
            "lng": 114.1620280197085
          }
        }
      },
      "place_id": "ChIJrV16yLQABDQRgxtJqvjwD38",
      "plus_code": {
        "compound_code": "85J7+J9 \u9999\u6e2f",
        "global_code": "7PJP85J7+J9"
      },
      "types": [
        "establishment",
        "food",
        "point_of_interest",
        "restaurant"
      ]
    }
  ],
  "licno": "2263802229",
  "timestamp": 1564968756,
  "version": "1564966095"
}
