{
  "adr_en": "Super Star Seafood Restaurant, PORT. OF G/F., & THE ENTIRE 1/F, AMOY GARDENS PH.2, 77 NGAU TAU KOK RD, KWUN TONG, KOWLOON",
  "adr_tc": "\u4e5d\u9f8d\u725b\u982d\u89d2\u905377\u865f \u6dd8\u5927\u82b1\u5712II\u671f1\u6a13\u53ca\u5730\u4e0b\u90e8\u4efd \u9d3b\u661f\u6d77\u9bae\u9152\u5bb6",
  "geocode_en": [
    {
      "address_components": [
        {
          "long_name": "5",
          "short_name": "5",
          "types": [
            "route"
          ]
        },
        {
          "long_name": "Hong Kong",
          "short_name": "HK",
          "types": [
            "country",
            "political"
          ]
        }
      ],
      "formatted_address": "22\u00b019'30. 114\u00b013'01.5\"E, 5, Hong Kong",
      "geometry": {
        "location": {
          "lat": 22.325129,
          "lng": 114.217078
        },
        "location_type": "GEOMETRIC_CENTER",
        "viewport": {
          "northeast": {
            "lat": 22.32647798029151,
            "lng": 114.2184269802915
          },
          "southwest": {
            "lat": 22.3237800197085,
            "lng": 114.2157290197085
          }
        }
      },
      "partial_match": true,
      "place_id": "ChIJiV8SPrUGBDQRRpqSzcdXW4I",
      "plus_code": {
        "compound_code": "86G8+3R Hong Kong",
        "global_code": "7PJP86G8+3R"
      },
      "types": [
        "establishment",
        "parking",
        "point_of_interest"
      ]
    },
    {
      "address_components": [
        {
          "long_name": "PH.2",
          "short_name": "PH.2",
          "types": [
            "subpremise"
          ]
        },
        {
          "long_name": "Amoy Gardens Block K",
          "short_name": "Amoy Gardens Block K",
          "types": [
            "premise"
          ]
        },
        {
          "long_name": "77",
          "short_name": "77",
          "types": [
            "street_number"
          ]
        },
        {
          "long_name": "Ngau Tau Kok Road",
          "short_name": "Ngau Tau Kok Rd",
          "types": [
            "route"
          ]
        },
        {
          "long_name": "Ngau Tau Kok",
          "short_name": "Ngau Tau Kok",
          "types": [
            "neighborhood",
            "political"
          ]
        },
        {
          "long_name": "Kowloon",
          "short_name": "Kowloon",
          "types": [
            "administrative_area_level_1",
            "political"
          ]
        },
        {
          "long_name": "Hong Kong",
          "short_name": "HK",
          "types": [
            "country",
            "political"
          ]
        }
      ],
      "formatted_address": "PH.2, Amoy Gardens Block K, 77 Ngau Tau Kok Rd, Ngau Tau Kok, Hong Kong",
      "geometry": {
        "bounds": {
          "northeast": {
            "lat": 22.3238791,
            "lng": 114.2164395
          },
          "southwest": {
            "lat": 22.3236341,
            "lng": 114.2161746
          }
        },
        "location": {
          "lat": 22.3237253,
          "lng": 114.216307
        },
        "location_type": "ROOFTOP",
        "viewport": {
          "northeast": {
            "lat": 22.3251055802915,
            "lng": 114.2176560302915
          },
          "southwest": {
            "lat": 22.3224076197085,
            "lng": 114.2149580697085
          }
        }
      },
      "partial_match": true,
      "place_id": "EkdQSC4yLCBBbW95IEdhcmRlbnMgQmxvY2sgSywgNzcgTmdhdSBUYXUgS29rIFJkLCBOZ2F1IFRhdSBLb2ssIEhvbmcgS29uZyIgGh4KFgoUChIJryyes0oBBDQR5EbI-r7uFjsSBFBILjI",
      "types": [
        "subpremise"
      ]
    }
  ],
  "geocode_tc": [
    {
      "address_components": [
        {
          "long_name": "77",
          "short_name": "77",
          "types": [
            "street_number"
          ]
        },
        {
          "long_name": "Ngau Tau Kok Road",
          "short_name": "Ngau Tau Kok Rd",
          "types": [
            "route"
          ]
        },
        {
          "long_name": "Kowloon Bay",
          "short_name": "Kowloon Bay",
          "types": [
            "neighborhood",
            "political"
          ]
        },
        {
          "long_name": "\u9999\u6e2f",
          "short_name": "HK",
          "types": [
            "country",
            "political"
          ]
        }
      ],
      "formatted_address": "\u865f \u6dd8 \u5927 \u82b1\u5712 2 \u671f 1 \u6a13, 77 Ngau Tau Kok Rd, Kowloon Bay, \u9999\u6e2f",
      "geometry": {
        "location": {
          "lat": 22.3240884,
          "lng": 114.2164082
        },
        "location_type": "ROOFTOP",
        "viewport": {
          "northeast": {
            "lat": 22.3254373802915,
            "lng": 114.2177571802915
          },
          "southwest": {
            "lat": 22.32273941970849,
            "lng": 114.2150592197085
          }
        }
      },
      "place_id": "ChIJT0WDS7UGBDQRPGI20bNJAb8",
      "plus_code": {
        "compound_code": "86F8+JH \u9999\u6e2f",
        "global_code": "7PJP86F8+JH"
      },
      "types": [
        "establishment",
        "food",
        "point_of_interest",
        "restaurant"
      ]
    }
  ],
  "licno": "2251250157",
  "timestamp": 1564968756,
  "version": "1564966095"
}
