{
  "adr_en": "\u91d1\u8f2a\u98f2\u98df, SHOP A2, G/F, 165-167 PEI HO STREET, SHAM SHUI PO, KOWLOON",
  "adr_tc": "\u4e5d\u9f8d\u5317\u6cb3\u8857 165 - 167 \u865f A2 \u865f\u8216 \u91d1\u8f2a\u98f2\u98df",
  "geocode_en": [
    {
      "address_components": [
        {
          "long_name": "165-167A2",
          "short_name": "165-167A2",
          "types": [
            "street_number"
          ]
        },
        {
          "long_name": "Pei Ho Street",
          "short_name": "Pei Ho St",
          "types": [
            "route"
          ]
        },
        {
          "long_name": "Un Chau",
          "short_name": "Un Chau",
          "types": [
            "neighborhood",
            "political"
          ]
        },
        {
          "long_name": "Kowloon",
          "short_name": "Kowloon",
          "types": [
            "administrative_area_level_1",
            "political"
          ]
        },
        {
          "long_name": "Hong Kong",
          "short_name": "HK",
          "types": [
            "country",
            "political"
          ]
        }
      ],
      "formatted_address": "165-167A2 Pei Ho St, Un Chau, Hong Kong",
      "geometry": {
        "location": {
          "lat": 22.331459,
          "lng": 114.1635892
        },
        "location_type": "ROOFTOP",
        "viewport": {
          "northeast": {
            "lat": 22.3328079802915,
            "lng": 114.1649381802915
          },
          "southwest": {
            "lat": 22.3301100197085,
            "lng": 114.1622402197085
          }
        }
      },
      "partial_match": true,
      "place_id": "ChIJJRKBxrQABDQRSUE4-h4EaSA",
      "plus_code": {
        "compound_code": "85J7+HC Hong Kong",
        "global_code": "7PJP85J7+HC"
      },
      "types": [
        "establishment",
        "food",
        "point_of_interest",
        "restaurant"
      ]
    },
    {
      "address_components": [
        {
          "long_name": "G",
          "short_name": "G",
          "types": [
            "subpremise"
          ]
        },
        {
          "long_name": "Tai Lee Mansion",
          "short_name": "Tai Lee Mansion",
          "types": [
            "premise"
          ]
        },
        {
          "long_name": "165-167",
          "short_name": "165-167",
          "types": [
            "street_number"
          ]
        },
        {
          "long_name": "Pei Ho Street",
          "short_name": "Pei Ho St",
          "types": [
            "route"
          ]
        },
        {
          "long_name": "Un Chau",
          "short_name": "Un Chau",
          "types": [
            "neighborhood",
            "political"
          ]
        },
        {
          "long_name": "Kowloon",
          "short_name": "Kowloon",
          "types": [
            "administrative_area_level_1",
            "political"
          ]
        },
        {
          "long_name": "Hong Kong",
          "short_name": "HK",
          "types": [
            "country",
            "political"
          ]
        }
      ],
      "formatted_address": "G, Tai Lee Mansion, 165-167 Pei Ho St, Un Chau, Hong Kong",
      "geometry": {
        "bounds": {
          "northeast": {
            "lat": 22.331665,
            "lng": 114.1636651
          },
          "southwest": {
            "lat": 22.33144,
            "lng": 114.1634191
          }
        },
        "location": {
          "lat": 22.3315398,
          "lng": 114.163559
        },
        "location_type": "ROOFTOP",
        "viewport": {
          "northeast": {
            "lat": 22.3329014802915,
            "lng": 114.1648910802915
          },
          "southwest": {
            "lat": 22.33020351970849,
            "lng": 114.1621931197085
          }
        }
      },
      "partial_match": true,
      "place_id": "EjlHLCBUYWkgTGVlIE1hbnNpb24sIDE2NS0xNjcgUGVpIEhvIFN0LCBVbiBDaGF1LCBIb25nIEtvbmciHRobChYKFAoSCRcLH8a0AAQ0Ee6bxF1wmJrREgFH",
      "types": [
        "subpremise"
      ]
    },
    {
      "address_components": [
        {
          "long_name": "F",
          "short_name": "F",
          "types": [
            "subpremise"
          ]
        },
        {
          "long_name": "Tai Lee Mansion",
          "short_name": "Tai Lee Mansion",
          "types": [
            "premise"
          ]
        },
        {
          "long_name": "165-167",
          "short_name": "165-167",
          "types": [
            "street_number"
          ]
        },
        {
          "long_name": "Pei Ho Street",
          "short_name": "Pei Ho St",
          "types": [
            "route"
          ]
        },
        {
          "long_name": "Un Chau",
          "short_name": "Un Chau",
          "types": [
            "neighborhood",
            "political"
          ]
        },
        {
          "long_name": "Kowloon",
          "short_name": "Kowloon",
          "types": [
            "administrative_area_level_1",
            "political"
          ]
        },
        {
          "long_name": "Hong Kong",
          "short_name": "HK",
          "types": [
            "country",
            "political"
          ]
        }
      ],
      "formatted_address": "F, Tai Lee Mansion, 165-167 Pei Ho St, Un Chau, Hong Kong",
      "geometry": {
        "bounds": {
          "northeast": {
            "lat": 22.331665,
            "lng": 114.1636651
          },
          "southwest": {
            "lat": 22.33144,
            "lng": 114.1634191
          }
        },
        "location": {
          "lat": 22.3315398,
          "lng": 114.163559
        },
        "location_type": "ROOFTOP",
        "viewport": {
          "northeast": {
            "lat": 22.3329014802915,
            "lng": 114.1648910802915
          },
          "southwest": {
            "lat": 22.33020351970849,
            "lng": 114.1621931197085
          }
        }
      },
      "partial_match": true,
      "place_id": "EjlGLCBUYWkgTGVlIE1hbnNpb24sIDE2NS0xNjcgUGVpIEhvIFN0LCBVbiBDaGF1LCBIb25nIEtvbmciHRobChYKFAoSCRcLH8a0AAQ0Ee6bxF1wmJrREgFG",
      "types": [
        "subpremise"
      ]
    }
  ],
  "geocode_tc": [
    {
      "address_components": [
        {
          "long_name": "165-167A2",
          "short_name": "165-167A2",
          "types": [
            "street_number"
          ]
        },
        {
          "long_name": "\u5317\u6cb3\u8857",
          "short_name": "\u5317\u6cb3\u8857",
          "types": [
            "route"
          ]
        },
        {
          "long_name": "\u5143\u6d32",
          "short_name": "\u5143\u6d32",
          "types": [
            "neighborhood",
            "political"
          ]
        },
        {
          "long_name": "\u4e5d\u9f8d",
          "short_name": "\u4e5d\u9f8d",
          "types": [
            "administrative_area_level_1",
            "political"
          ]
        },
        {
          "long_name": "\u9999\u6e2f",
          "short_name": "HK",
          "types": [
            "country",
            "political"
          ]
        }
      ],
      "formatted_address": "\u9999\u6e2f\u5143\u6d32\u5317\u6cb3\u8857165-167A2\u865f",
      "geometry": {
        "location": {
          "lat": 22.331459,
          "lng": 114.1635892
        },
        "location_type": "ROOFTOP",
        "viewport": {
          "northeast": {
            "lat": 22.3328079802915,
            "lng": 114.1649381802915
          },
          "southwest": {
            "lat": 22.3301100197085,
            "lng": 114.1622402197085
          }
        }
      },
      "place_id": "ChIJJRKBxrQABDQRSUE4-h4EaSA",
      "plus_code": {
        "compound_code": "85J7+HC \u9999\u6e2f",
        "global_code": "7PJP85J7+HC"
      },
      "types": [
        "establishment",
        "food",
        "point_of_interest",
        "restaurant"
      ]
    }
  ],
  "licno": "2263254129",
  "timestamp": 1564968756,
  "version": "1564966095"
}
