{
  "adr_en": "\u6cf0\u95a3, SHOP 3, PROMENADE LEVEL, TOWER 2, CHINA HONG KONG CITY, 33 CANTON ROAD, TSIM SHA TSUI, KOWLOON",
  "adr_tc": "\u4e5d\u9f8d\u5c16\u6c99\u5480\u5ee3\u6771\u905333\u865f\u4e2d\u6e2f\u57ce2\u5ea7\u5e73\u53f03\u865f\u8216 \u6cf0\u95a3",
  "geocode_en": [
    {
      "address_components": [
        {
          "long_name": "Hong Kong",
          "short_name": "HK",
          "types": [
            "country",
            "political"
          ]
        }
      ],
      "formatted_address": "Shop 2-3, Tower 3, Promenade Level, China Hong Kong City, 33 Canton Road, Tsim Sha Tsui, Hong Kong",
      "geometry": {
        "location": {
          "lat": 22.3003,
          "lng": 114.168019
        },
        "location_type": "GEOMETRIC_CENTER",
        "viewport": {
          "northeast": {
            "lat": 22.3016489802915,
            "lng": 114.1693679802915
          },
          "southwest": {
            "lat": 22.2989510197085,
            "lng": 114.1666700197085
          }
        }
      },
      "place_id": "ChIJz0vPLe0ABDQRp_shOzdTTWg",
      "plus_code": {
        "compound_code": "8529+46 Hong Kong",
        "global_code": "7PJP8529+46"
      },
      "types": [
        "establishment",
        "food",
        "point_of_interest",
        "restaurant"
      ]
    },
    {
      "address_components": [
        {
          "long_name": "Hong Kong",
          "short_name": "HK",
          "types": [
            "country",
            "political"
          ]
        }
      ],
      "formatted_address": "Shop No.C13, 2/F., Gourmet Express, China Hong Kong City, 33 Canton Road,, Tsim Sha Tsui, Hong Kong",
      "geometry": {
        "location": {
          "lat": 22.3004725,
          "lng": 114.1673792
        },
        "location_type": "GEOMETRIC_CENTER",
        "viewport": {
          "northeast": {
            "lat": 22.3018214802915,
            "lng": 114.1687281802915
          },
          "southwest": {
            "lat": 22.29912351970849,
            "lng": 114.1660302197085
          }
        }
      },
      "place_id": "ChIJG3rJ05IABDQRKZTFWL5a8QU",
      "plus_code": {
        "compound_code": "8528+5X Hong Kong",
        "global_code": "7PJP8528+5X"
      },
      "types": [
        "establishment",
        "food",
        "point_of_interest",
        "restaurant"
      ]
    }
  ],
  "geocode_tc": [
    {
      "address_components": [
        {
          "long_name": "\u9999\u6e2f",
          "short_name": "HK",
          "types": [
            "country",
            "political"
          ]
        }
      ],
      "formatted_address": "\u9999\u6e2f\u5c16\u6c99\u5480\u5ee3\u6771\u905333\u865f\u4e2d\u6e2f\u57ce2\u5ea7\u5e73\u53f03\u865f\u8216",
      "geometry": {
        "location": {
          "lat": 22.300416,
          "lng": 114.1675301
        },
        "location_type": "GEOMETRIC_CENTER",
        "viewport": {
          "northeast": {
            "lat": 22.3017649802915,
            "lng": 114.1688790802915
          },
          "southwest": {
            "lat": 22.2990670197085,
            "lng": 114.1661811197085
          }
        }
      },
      "place_id": "ChIJG3rJ05IABDQRFiJU34dQ59Y",
      "plus_code": {
        "compound_code": "8529+52 \u9999\u6e2f",
        "global_code": "7PJP8529+52"
      },
      "types": [
        "establishment",
        "food",
        "point_of_interest",
        "restaurant"
      ]
    }
  ],
  "licno": "2261809387",
  "timestamp": 1564968756,
  "version": "1564966095"
}
