{
  "adr_en": "Istanbul Kebab, SHOP 1A, G/F, TSIM SHA TSUI MANSION, 36-50 LOCK ROAD, TSIM SHA TSUI, KOWLOON",
  "adr_tc": "\u4e5d\u9f8d\u5c16\u6c99\u5480\u6a02\u905336-50\u865f\u83ef\u6e90\u5927\u5ec8\u5730\u4e0b1A\u92ea Istanbul Kebab",
  "geocode_en": [
    {
      "address_components": [
        {
          "long_name": "Tsim Sha Tsui",
          "short_name": "Tsim Sha Tsui",
          "types": [
            "neighborhood",
            "political"
          ]
        },
        {
          "long_name": "Kowloon",
          "short_name": "Kowloon",
          "types": [
            "administrative_area_level_1",
            "political"
          ]
        },
        {
          "long_name": "Hong Kong",
          "short_name": "HK",
          "types": [
            "country",
            "political"
          ]
        }
      ],
      "formatted_address": "Hong Kong, Tsim Sha Tsui, Shop 1A, G/F, Tsim Sha Tsui Mansion 36-50 Lock Road, T.S.T., Kln",
      "geometry": {
        "location": {
          "lat": 22.297611,
          "lng": 114.171558
        },
        "location_type": "GEOMETRIC_CENTER",
        "viewport": {
          "northeast": {
            "lat": 22.2989599802915,
            "lng": 114.1729069802915
          },
          "southwest": {
            "lat": 22.2962620197085,
            "lng": 114.1702090197085
          }
        }
      },
      "place_id": "ChIJNW65d_IABDQRMiwDI6nLlgk",
      "plus_code": {
        "compound_code": "75XC+2J Tsim Sha Tsui, Hong Kong",
        "global_code": "7PJP75XC+2J"
      },
      "types": [
        "establishment",
        "food",
        "point_of_interest",
        "restaurant"
      ]
    }
  ],
  "geocode_tc": [
    {
      "address_components": [
        {
          "long_name": "\u83ef\u6e90\u5927\u5ec8",
          "short_name": "\u83ef\u6e90\u5927\u5ec8",
          "types": [
            "premise"
          ]
        },
        {
          "long_name": "83-97",
          "short_name": "83-97",
          "types": [
            "street_number"
          ]
        },
        {
          "long_name": "\u5f4c\u6566\u9053",
          "short_name": "\u5f4c\u6566\u9053",
          "types": [
            "route"
          ]
        },
        {
          "long_name": "\u5c16\u6c99\u5480",
          "short_name": "\u5c16\u6c99\u5480",
          "types": [
            "neighborhood",
            "political"
          ]
        },
        {
          "long_name": "\u4e5d\u9f8d",
          "short_name": "\u4e5d\u9f8d",
          "types": [
            "administrative_area_level_1",
            "political"
          ]
        },
        {
          "long_name": "\u9999\u6e2f",
          "short_name": "HK",
          "types": [
            "country",
            "political"
          ]
        }
      ],
      "formatted_address": "\u9999\u6e2f\u5c16\u6c99\u5480\u5f4c\u6566\u905383-97\u865f\u83ef\u6e90\u5927\u5ec8",
      "geometry": {
        "bounds": {
          "northeast": {
            "lat": 22.2978371,
            "lng": 114.1720259
          },
          "southwest": {
            "lat": 22.297574,
            "lng": 114.1716201
          }
        },
        "location": {
          "lat": 22.2977226,
          "lng": 114.1718959
        },
        "location_type": "ROOFTOP",
        "viewport": {
          "northeast": {
            "lat": 22.2990545302915,
            "lng": 114.1731719802915
          },
          "southwest": {
            "lat": 22.2963565697085,
            "lng": 114.1704740197085
          }
        }
      },
      "partial_match": true,
      "place_id": "ChIJy2jZi-0ABDQR3pf18tUYAxw",
      "types": [
        "premise"
      ]
    },
    {
      "address_components": [
        {
          "long_name": "20-38",
          "short_name": "20-38",
          "types": [
            "street_number"
          ]
        },
        {
          "long_name": "\u6a02\u9053",
          "short_name": "\u6a02\u9053",
          "types": [
            "route"
          ]
        },
        {
          "long_name": "\u5c16\u6c99\u5480",
          "short_name": "\u5c16\u6c99\u5480",
          "types": [
            "neighborhood",
            "political"
          ]
        },
        {
          "long_name": "\u4e5d\u9f8d",
          "short_name": "\u4e5d\u9f8d",
          "types": [
            "administrative_area_level_1",
            "political"
          ]
        },
        {
          "long_name": "\u9999\u6e2f",
          "short_name": "HK",
          "types": [
            "country",
            "political"
          ]
        }
      ],
      "formatted_address": "\u9999\u6e2f\u5c16\u6c99\u5480\u6a02\u905320-38\u865f",
      "geometry": {
        "location": {
          "lat": 22.2972718,
          "lng": 114.1716147
        },
        "location_type": "ROOFTOP",
        "viewport": {
          "northeast": {
            "lat": 22.29862078029151,
            "lng": 114.1729636802915
          },
          "southwest": {
            "lat": 22.2959228197085,
            "lng": 114.1702657197085
          }
        }
      },
      "partial_match": true,
      "place_id": "ChIJmY0dd_IABDQR6yeZgQW0hgo",
      "plus_code": {
        "compound_code": "75WC+WJ \u9999\u6e2f",
        "global_code": "7PJP75WC+WJ"
      },
      "types": [
        "establishment",
        "food",
        "point_of_interest",
        "restaurant"
      ]
    }
  ],
  "licno": "2261816130",
  "timestamp": 1564968756,
  "version": "1564966095"
}
