{
  "adr_en": "Maison ES, SHOP B, UPPER G/F., HANG TAK BUILDING, NO. 1 ELECTRIC STREET, WAN CHAI, HONG KONG",
  "adr_tc": "\u9999\u6e2f\u7063\u4ed4\u96fb\u6c23\u88571\u865f\u6052\u5fb7\u5927\u5ec8\u5730\u4e0b\u9ad8\u5c64B\u865f\u8216 Maison ES",
  "geocode_en": [
    {
      "address_components": [
        {
          "long_name": "Admiralty",
          "short_name": "Admiralty",
          "types": [
            "neighborhood",
            "political"
          ]
        },
        {
          "long_name": "Hong Kong Island",
          "short_name": "Hong Kong Island",
          "types": [
            "administrative_area_level_1",
            "political"
          ]
        },
        {
          "long_name": "Hong Kong",
          "short_name": "HK",
          "types": [
            "country",
            "political"
          ]
        }
      ],
      "formatted_address": "No.1A Star Street (entrance on Electric Street), Admiralty, Hong Kong",
      "geometry": {
        "location": {
          "lat": 22.275945,
          "lng": 114.168162
        },
        "location_type": "GEOMETRIC_CENTER",
        "viewport": {
          "northeast": {
            "lat": 22.2772939802915,
            "lng": 114.1695109802915
          },
          "southwest": {
            "lat": 22.2745960197085,
            "lng": 114.1668130197085
          }
        }
      },
      "place_id": "ChIJb035Ul0ABDQR5-rkKGTbk20",
      "plus_code": {
        "compound_code": "75G9+97 Admiralty, Hong Kong",
        "global_code": "7PJP75G9+97"
      },
      "types": [
        "establishment",
        "food",
        "point_of_interest",
        "restaurant"
      ]
    }
  ],
  "geocode_tc": [
    {
      "address_components": [
        {
          "long_name": "Admiralty",
          "short_name": "Admiralty",
          "types": [
            "neighborhood",
            "political"
          ]
        },
        {
          "long_name": "Hong Kong Island",
          "short_name": "Hong Kong Island",
          "types": [
            "administrative_area_level_1",
            "political"
          ]
        },
        {
          "long_name": "\u9999\u6e2f",
          "short_name": "HK",
          "types": [
            "country",
            "political"
          ]
        }
      ],
      "formatted_address": "No.1A Star Street (entrance on Electric Street), Admiralty, \u9999\u6e2f",
      "geometry": {
        "location": {
          "lat": 22.275945,
          "lng": 114.168162
        },
        "location_type": "GEOMETRIC_CENTER",
        "viewport": {
          "northeast": {
            "lat": 22.2772939802915,
            "lng": 114.1695109802915
          },
          "southwest": {
            "lat": 22.2745960197085,
            "lng": 114.1668130197085
          }
        }
      },
      "partial_match": true,
      "place_id": "ChIJb035Ul0ABDQR5-rkKGTbk20",
      "plus_code": {
        "compound_code": "75G9+97 \u9999\u6e2f\u91d1\u9418",
        "global_code": "7PJP75G9+97"
      },
      "types": [
        "establishment",
        "food",
        "point_of_interest",
        "restaurant"
      ]
    },
    {
      "address_components": [
        {
          "long_name": "\u6046\u5fb7\u5927\u5ec8",
          "short_name": "\u6046\u5fb7\u5927\u5ec8",
          "types": [
            "premise"
          ]
        },
        {
          "long_name": "1",
          "short_name": "1",
          "types": [
            "street_number"
          ]
        },
        {
          "long_name": "\u96fb\u6c23\u8857",
          "short_name": "\u96fb\u6c23\u8857",
          "types": [
            "route"
          ]
        },
        {
          "long_name": "\u7063\u4ed4",
          "short_name": "\u7063\u4ed4",
          "types": [
            "neighborhood",
            "political"
          ]
        },
        {
          "long_name": "\u9999\u6e2f\u5cf6",
          "short_name": "\u9999\u6e2f\u5cf6",
          "types": [
            "administrative_area_level_1",
            "political"
          ]
        },
        {
          "long_name": "\u9999\u6e2f",
          "short_name": "HK",
          "types": [
            "country",
            "political"
          ]
        }
      ],
      "formatted_address": "\u9999\u6e2f\u7063\u4ed4\u96fb\u6c23\u88571\u865f\u6046\u5fb7\u5927\u5ec8",
      "geometry": {
        "bounds": {
          "northeast": {
            "lat": 22.2759939,
            "lng": 114.1684
          },
          "southwest": {
            "lat": 22.275728,
            "lng": 114.168194
          }
        },
        "location": {
          "lat": 22.2759379,
          "lng": 114.1683429
        },
        "location_type": "ROOFTOP",
        "viewport": {
          "northeast": {
            "lat": 22.2772099302915,
            "lng": 114.1696459802915
          },
          "southwest": {
            "lat": 22.2745119697085,
            "lng": 114.1669480197085
          }
        }
      },
      "partial_match": true,
      "place_id": "ChIJbU35Ul0ABDQRwDIVvZsTJCM",
      "types": [
        "premise"
      ]
    }
  ],
  "licno": "2212812839",
  "timestamp": 1564966180,
  "version": "1564966095"
}
