{
  "adr_en": "(No Record Found), SHOP NOS. 12A, 13 & 14, G/F., WAYSON COMMERCIAL BUILDING, 28 CONNAUGHT ROAD WEST, SHEUNG WAN, HONG KONG",
  "adr_tc": "\u9999\u6e2f\u4e0a\u74b0\u5e72\u8afe\u9053\u897f28\u865f\u5a01\u52dd\u5546\u696d\u5927\u5ec8\u5730\u4e0b12A,13\u53ca14\u865f\u92ea (\u6ca1\u6709\u8a18\u9304)",
  "geocode_en": [
    {
      "address_components": [
        {
          "long_name": "Wayson Commercial Building",
          "short_name": "Wayson Commercial Building",
          "types": [
            "premise"
          ]
        },
        {
          "long_name": "28",
          "short_name": "28",
          "types": [
            "street_number"
          ]
        },
        {
          "long_name": "Connaught Road West",
          "short_name": "Connaught Rd W",
          "types": [
            "route"
          ]
        },
        {
          "long_name": "Sheung Wan",
          "short_name": "Sheung Wan",
          "types": [
            "neighborhood",
            "political"
          ]
        },
        {
          "long_name": "Hong Kong Island",
          "short_name": "Hong Kong Island",
          "types": [
            "administrative_area_level_1",
            "political"
          ]
        },
        {
          "long_name": "Hong Kong",
          "short_name": "HK",
          "types": [
            "country",
            "political"
          ]
        }
      ],
      "formatted_address": "Wayson Commercial Building, 28 Connaught Rd W, Sheung Wan, Hong Kong",
      "geometry": {
        "bounds": {
          "northeast": {
            "lat": 22.287938,
            "lng": 114.1490741
          },
          "southwest": {
            "lat": 22.2876919,
            "lng": 114.148715
          }
        },
        "location": {
          "lat": 22.2877826,
          "lng": 114.1489052
        },
        "location_type": "ROOFTOP",
        "viewport": {
          "northeast": {
            "lat": 22.2891639302915,
            "lng": 114.1502435302915
          },
          "southwest": {
            "lat": 22.2864659697085,
            "lng": 114.1475455697085
          }
        }
      },
      "partial_match": true,
      "place_id": "ChIJV_yIZX4ABDQR-OYC8jnRFaI",
      "types": [
        "premise"
      ]
    }
  ],
  "geocode_tc": [
    {
      "address_components": [
        {
          "long_name": "\u5a01\u52dd\u5546\u696d\u5927\u5ec8",
          "short_name": "\u5a01\u52dd\u5546\u696d\u5927\u5ec8",
          "types": [
            "premise"
          ]
        },
        {
          "long_name": "28",
          "short_name": "28",
          "types": [
            "street_number"
          ]
        },
        {
          "long_name": "\u5e72\u8afe\u9053\u897f",
          "short_name": "\u5e72\u8afe\u9053\u897f",
          "types": [
            "route"
          ]
        },
        {
          "long_name": "\u4e0a\u74b0",
          "short_name": "\u4e0a\u74b0",
          "types": [
            "neighborhood",
            "political"
          ]
        },
        {
          "long_name": "\u9999\u6e2f\u5cf6",
          "short_name": "\u9999\u6e2f\u5cf6",
          "types": [
            "administrative_area_level_1",
            "political"
          ]
        },
        {
          "long_name": "\u9999\u6e2f",
          "short_name": "HK",
          "types": [
            "country",
            "political"
          ]
        }
      ],
      "formatted_address": "\u9999\u6e2f\u4e0a\u74b0\u5e72\u8afe\u9053\u897f28\u865f\u5a01\u52dd\u5546\u696d\u5927\u5ec8",
      "geometry": {
        "bounds": {
          "northeast": {
            "lat": 22.287938,
            "lng": 114.1490741
          },
          "southwest": {
            "lat": 22.2876919,
            "lng": 114.148715
          }
        },
        "location": {
          "lat": 22.2877826,
          "lng": 114.1489052
        },
        "location_type": "ROOFTOP",
        "viewport": {
          "northeast": {
            "lat": 22.2891639302915,
            "lng": 114.1502435302915
          },
          "southwest": {
            "lat": 22.2864659697085,
            "lng": 114.1475455697085
          }
        }
      },
      "partial_match": true,
      "place_id": "ChIJV_yIZX4ABDQR-OYC8jnRFaI",
      "types": [
        "premise"
      ]
    }
  ],
  "licno": "3818813972",
  "timestamp": 1564975666,
  "version": "1564966095"
}
