{
  "adr_en": "\u767e\u5408\u5ef3, 4/F (MINOR PORTION) GRANDSTAND 1, SHATIN RACECOURSE, SHA TIN, NEW TERRITORIES",
  "adr_tc": "\u65b0\u754c\u6c99\u7530 \u6c99\u7530\u99ac\u5834 \u4e00\u865f\u770b\u53f0 4\u6a13(\u5c0f\u90e8\u4efd) \u767e\u5408\u5ef3",
  "geocode_en": [
    {
      "address_components": [
        {
          "long_name": "Hong Kong",
          "short_name": "HK",
          "types": [
            "country",
            "political"
          ]
        }
      ],
      "formatted_address": "Hong Kong, \u9999\u6e2f\u8cfd\u99ac\u6703\u6c99\u7530\u99ac\u58344\u5c64D403",
      "geometry": {
        "location": {
          "lat": 22.40223,
          "lng": 114.20611
        },
        "location_type": "GEOMETRIC_CENTER",
        "viewport": {
          "northeast": {
            "lat": 22.4035789802915,
            "lng": 114.2074589802915
          },
          "southwest": {
            "lat": 22.4008810197085,
            "lng": 114.2047610197085
          }
        }
      },
      "partial_match": true,
      "place_id": "ChIJF66b4DoGBDQR1iclE8bQobw",
      "plus_code": {
        "compound_code": "C624+VC Hong Kong",
        "global_code": "7PJPC624+VC"
      },
      "types": [
        "establishment",
        "food",
        "point_of_interest",
        "restaurant"
      ]
    },
    {
      "address_components": [
        {
          "long_name": "New Territories",
          "short_name": "New Territories",
          "types": [
            "administrative_area_level_1",
            "political"
          ]
        },
        {
          "long_name": "Hong Kong",
          "short_name": "HK",
          "types": [
            "country",
            "political"
          ]
        }
      ],
      "formatted_address": "The Hong Kong Jockey Club Sha Tin Racecourse Stand, Sha Tin, Hong Kong, Hong Kong",
      "geometry": {
        "location": {
          "lat": 22.401109,
          "lng": 114.205262
        },
        "location_type": "GEOMETRIC_CENTER",
        "viewport": {
          "northeast": {
            "lat": 22.4024579802915,
            "lng": 114.2066109802915
          },
          "southwest": {
            "lat": 22.39976001970849,
            "lng": 114.2039130197085
          }
        }
      },
      "partial_match": true,
      "place_id": "ChIJw5O3UjoGBDQRHUM7KP-zLeU",
      "plus_code": {
        "compound_code": "C624+C4 Hong Kong",
        "global_code": "7PJPC624+C4"
      },
      "types": [
        "establishment",
        "point_of_interest"
      ]
    }
  ],
  "geocode_tc": [
    {
      "address_components": [
        {
          "long_name": "New Territories",
          "short_name": "New Territories",
          "types": [
            "administrative_area_level_1",
            "political"
          ]
        },
        {
          "long_name": "\u9999\u6e2f",
          "short_name": "HK",
          "types": [
            "country",
            "political"
          ]
        }
      ],
      "formatted_address": "The Hong Kong Jockey Club Sha Tin Racecourse Stand, Sha Tin, Hong Kong, \u9999\u6e2f",
      "geometry": {
        "location": {
          "lat": 22.401109,
          "lng": 114.205262
        },
        "location_type": "GEOMETRIC_CENTER",
        "viewport": {
          "northeast": {
            "lat": 22.4024579802915,
            "lng": 114.2066109802915
          },
          "southwest": {
            "lat": 22.39976001970849,
            "lng": 114.2039130197085
          }
        }
      },
      "partial_match": true,
      "place_id": "ChIJw5O3UjoGBDQRHUM7KP-zLeU",
      "plus_code": {
        "compound_code": "C624+C4 \u9999\u6e2f",
        "global_code": "7PJPC624+C4"
      },
      "types": [
        "establishment",
        "point_of_interest"
      ]
    }
  ],
  "licno": "2297001407",
  "timestamp": 1564975666,
  "version": "1564966095"
}
