{
  "adr_en": "\u9d3b\u8a18\u9910\u5ef3, G/F, 61, SHAM TSENG AND THE OUTSIDE SEATING ACCOMODATION AT SHOP FRONT, TSUEN WAN, NEW TERRITORIES",
  "adr_tc": "\u65b0\u754c\u8343\u7063\u6df1\u4e9561\u865f\u5730\u4e0b\u53ca\u5e97\u8216\u524d\u9732\u5929\u5ea7\u4f4d \u9d3b\u8a18\u9910\u5ef3",
  "geocode_en": [
    {
      "address_components": [
        {
          "long_name": "Sham Tseng Tsuen",
          "short_name": "Sham Tseng Tsuen",
          "types": [
            "neighborhood",
            "political"
          ]
        },
        {
          "long_name": "New Territories",
          "short_name": "New Territories",
          "types": [
            "administrative_area_level_1",
            "political"
          ]
        },
        {
          "long_name": "Hong Kong",
          "short_name": "HK",
          "types": [
            "country",
            "political"
          ]
        }
      ],
      "formatted_address": "Sham Tseng Tsuen, Hong Kong",
      "geometry": {
        "location": {
          "lat": 22.367102,
          "lng": 114.058809
        },
        "location_type": "APPROXIMATE",
        "viewport": {
          "northeast": {
            "lat": 22.3774201,
            "lng": 114.0748164
          },
          "southwest": {
            "lat": 22.3567831,
            "lng": 114.0428016
          }
        }
      },
      "partial_match": true,
      "place_id": "ChIJJz167Fz5AzQR8F_Q6AuhAAk",
      "types": [
        "neighborhood",
        "political"
      ]
    },
    {
      "address_components": [
        {
          "long_name": "Tsuen Wan",
          "short_name": "Tsuen Wan",
          "types": [
            "neighborhood",
            "political"
          ]
        },
        {
          "long_name": "New Territories",
          "short_name": "New Territories",
          "types": [
            "administrative_area_level_1",
            "political"
          ]
        },
        {
          "long_name": "Hong Kong",
          "short_name": "HK",
          "types": [
            "country",
            "political"
          ]
        }
      ],
      "formatted_address": "Tsuen Wan, Hong Kong",
      "geometry": {
        "bounds": {
          "northeast": {
            "lat": 22.3865131,
            "lng": 114.12351
          },
          "southwest": {
            "lat": 22.354937,
            "lng": 114.083911
          }
        },
        "location": {
          "lat": 22.3699122,
          "lng": 114.1144306
        },
        "location_type": "APPROXIMATE",
        "viewport": {
          "northeast": {
            "lat": 22.3865131,
            "lng": 114.12351
          },
          "southwest": {
            "lat": 22.354937,
            "lng": 114.083911
          }
        }
      },
      "partial_match": true,
      "place_id": "ChIJmXQjje74AzQRsINigpbDAAo",
      "types": [
        "neighborhood",
        "political"
      ]
    }
  ],
  "geocode_tc": [
    {
      "address_components": [
        {
          "long_name": "\u9999\u6e2f",
          "short_name": "HK",
          "types": [
            "country",
            "political"
          ]
        }
      ],
      "formatted_address": "\u9999\u6e2f\u8343\u7063\u6df1\u4e95\u6751\u7b2c\u4e00\u671f49\u865f\u5730\u4e0b",
      "geometry": {
        "location": {
          "lat": 22.3675,
          "lng": 114.058783
        },
        "location_type": "GEOMETRIC_CENTER",
        "viewport": {
          "northeast": {
            "lat": 22.3688489802915,
            "lng": 114.0601319802915
          },
          "southwest": {
            "lat": 22.3661510197085,
            "lng": 114.0574340197085
          }
        }
      },
      "place_id": "ChIJ12o471z5AzQRJ6oVwyfRNTg",
      "plus_code": {
        "compound_code": "9395+2G \u9999\u6e2f",
        "global_code": "7PJP9395+2G"
      },
      "types": [
        "establishment",
        "food",
        "point_of_interest",
        "restaurant"
      ]
    },
    {
      "address_components": [
        {
          "long_name": "18 Castle Peak Rd (Sham Tseng",
          "short_name": "18 Castle Peak Rd (Sham Tseng",
          "types": [
            "street_number"
          ]
        },
        {
          "long_name": "\u9752\u5c71\u516c\u8def\u9752\u9f8d\u982d\u6bb5",
          "short_name": "\u9752\u5c71\u516c\u8def\u9752\u9f8d\u982d\u6bb5",
          "types": [
            "route"
          ]
        },
        {
          "long_name": "\u6df1\u4e95",
          "short_name": "\u6df1\u4e95",
          "types": [
            "neighborhood",
            "political"
          ]
        },
        {
          "long_name": "\u65b0\u754c",
          "short_name": "\u65b0\u754c",
          "types": [
            "administrative_area_level_1",
            "political"
          ]
        },
        {
          "long_name": "\u9999\u6e2f",
          "short_name": "HK",
          "types": [
            "country",
            "political"
          ]
        }
      ],
      "formatted_address": "\u9999\u6e2f\u6df1\u4e95\u9752\u5c71\u516c\u8def\u9752\u9f8d\u982d\u6bb518 Castle Peak Rd (Sham Tseng\u865f",
      "geometry": {
        "location": {
          "lat": 22.3671824,
          "lng": 114.0592593
        },
        "location_type": "ROOFTOP",
        "viewport": {
          "northeast": {
            "lat": 22.3685313802915,
            "lng": 114.0606082802915
          },
          "southwest": {
            "lat": 22.3658334197085,
            "lng": 114.0579103197085
          }
        }
      },
      "place_id": "ChIJg8Icwlz5AzQRGeBcK1wcRLQ",
      "plus_code": {
        "compound_code": "9385+VP \u9999\u6e2f",
        "global_code": "7PJP9385+VP"
      },
      "types": [
        "establishment",
        "food",
        "point_of_interest",
        "restaurant"
      ]
    }
  ],
  "licno": "3192000489",
  "timestamp": 1564975666,
  "version": "1564966095"
}
