{
  "adr_en": "Aka Japanese Food, SHOP 14, G/F., VICTOR COURT, 14-18 WANG ON ROAD, NORTH POINT, HONG KONG",
  "adr_tc": "\u9999\u6e2f\u5317\u89d2\u5b8f\u5b89\u905314-18\u865f\u5a01\u5fb7\u95a3\u5730\u4e0b14\u865f\u8216 \u8d64\u5bff\u53f8",
  "geocode_en": [
    {
      "address_components": [
        {
          "long_name": "Victor Court",
          "short_name": "Victor Court",
          "types": [
            "premise"
          ]
        },
        {
          "long_name": "14-28",
          "short_name": "14-28",
          "types": [
            "street_number"
          ]
        },
        {
          "long_name": "Wang On Road",
          "short_name": "Wang On Rd",
          "types": [
            "route"
          ]
        },
        {
          "long_name": "Causeway Bay",
          "short_name": "Causeway Bay",
          "types": [
            "neighborhood",
            "political"
          ]
        },
        {
          "long_name": "Hong Kong Island",
          "short_name": "Hong Kong Island",
          "types": [
            "administrative_area_level_1",
            "political"
          ]
        },
        {
          "long_name": "Hong Kong",
          "short_name": "HK",
          "types": [
            "country",
            "political"
          ]
        }
      ],
      "formatted_address": "Victor Court, 14-28 Wang On Rd, Causeway Bay, Hong Kong",
      "geometry": {
        "bounds": {
          "northeast": {
            "lat": 22.2885039,
            "lng": 114.1921289
          },
          "southwest": {
            "lat": 22.288135,
            "lng": 114.1917741
          }
        },
        "location": {
          "lat": 22.2883081,
          "lng": 114.1919364
        },
        "location_type": "ROOFTOP",
        "viewport": {
          "northeast": {
            "lat": 22.2896684302915,
            "lng": 114.1933004802915
          },
          "southwest": {
            "lat": 22.2869704697085,
            "lng": 114.1906025197085
          }
        }
      },
      "partial_match": true,
      "place_id": "ChIJe0Xo-wEBBDQRRglcklUNQDw",
      "types": [
        "premise"
      ]
    }
  ],
  "geocode_tc": [
    {
      "address_components": [
        {
          "long_name": "\u9999\u6e2f",
          "short_name": "HK",
          "types": [
            "country",
            "political"
          ]
        }
      ],
      "formatted_address": "\u9999\u6e2f\u5317\u89d2\u5b8f\u5b89\u905318\u865f\u5a01\u5fb7\u95a3\u5730\u4e0b14\u865f\u92ea",
      "geometry": {
        "location": {
          "lat": 22.2883925,
          "lng": 114.192082
        },
        "location_type": "GEOMETRIC_CENTER",
        "viewport": {
          "northeast": {
            "lat": 22.2897414802915,
            "lng": 114.1934309802915
          },
          "southwest": {
            "lat": 22.2870435197085,
            "lng": 114.1907330197085
          }
        }
      },
      "place_id": "ChIJB1iS-wEBBDQR3OJvPuxB_HA",
      "plus_code": {
        "compound_code": "75QR+9R \u9999\u6e2f",
        "global_code": "7PJP75QR+9R"
      },
      "types": [
        "establishment",
        "food",
        "point_of_interest",
        "restaurant"
      ]
    }
  ],
  "licno": "2211804907",
  "timestamp": 1564966180,
  "version": "1564966095"
}
