{
  "adr_en": "\u7c73\u8d70\u96de, 2ND FLOOR, THE LAMMA CITY, NOS. 759-761 NATHAN ROAD, PRINCE EDWARD, KOWLOON",
  "adr_tc": "\u4e5d\u9f8d\u592a\u5b50\u5f4c\u6566\u9053759-761\u865f\u85cd\u99ac\u4e4b\u57ce\u4e8c\u6a13 \u7c73\u8d70\u96de",
  "geocode_en": [
    {
      "address_components": [
        {
          "long_name": "Mong Kok",
          "short_name": "Mong Kok",
          "types": [
            "neighborhood",
            "political"
          ]
        },
        {
          "long_name": "Kowloon",
          "short_name": "Kowloon",
          "types": [
            "administrative_area_level_1",
            "political"
          ]
        },
        {
          "long_name": "Hong Kong",
          "short_name": "HK",
          "types": [
            "country",
            "political"
          ]
        }
      ],
      "formatted_address": "\u592a\u5b50\u5f4c\u6566\u9053761\u865f\u592a\u5b50\u85cd\u99ac\u4e4b\u57ce2\u6a13, Mong Kok, Hong Kong",
      "geometry": {
        "location": {
          "lat": 22.324706,
          "lng": 114.168012
        },
        "location_type": "GEOMETRIC_CENTER",
        "viewport": {
          "northeast": {
            "lat": 22.3260549802915,
            "lng": 114.1693609802915
          },
          "southwest": {
            "lat": 22.3233570197085,
            "lng": 114.1666630197085
          }
        }
      },
      "partial_match": true,
      "place_id": "ChIJ2V7T4MkABDQRKny-4cheCNo",
      "plus_code": {
        "compound_code": "85F9+V6 Mong Kok, Hong Kong",
        "global_code": "7PJP85F9+V6"
      },
      "types": [
        "establishment",
        "food",
        "point_of_interest",
        "restaurant"
      ]
    },
    {
      "address_components": [
        {
          "long_name": "Prince Edward The Lamma City",
          "short_name": "Prince Edward The Lamma City",
          "types": [
            "premise"
          ]
        },
        {
          "long_name": "761",
          "short_name": "761",
          "types": [
            "street_number"
          ]
        },
        {
          "long_name": "Nathan Road",
          "short_name": "Nathan Rd",
          "types": [
            "route"
          ]
        },
        {
          "long_name": "Mong Kok",
          "short_name": "Mong Kok",
          "types": [
            "neighborhood",
            "political"
          ]
        },
        {
          "long_name": "Kowloon",
          "short_name": "Kowloon",
          "types": [
            "administrative_area_level_1",
            "political"
          ]
        },
        {
          "long_name": "Hong Kong",
          "short_name": "HK",
          "types": [
            "country",
            "political"
          ]
        }
      ],
      "formatted_address": "Prince Edward The Lamma City, 761 Nathan Rd, Mong Kok, Hong Kong",
      "geometry": {
        "bounds": {
          "northeast": {
            "lat": 22.3247961,
            "lng": 114.16812
          },
          "southwest": {
            "lat": 22.3246159,
            "lng": 114.167903
          }
        },
        "location": {
          "lat": 22.3247073,
          "lng": 114.168041
        },
        "location_type": "ROOFTOP",
        "viewport": {
          "northeast": {
            "lat": 22.3260549802915,
            "lng": 114.1693604802915
          },
          "southwest": {
            "lat": 22.3233570197085,
            "lng": 114.1666625197085
          }
        }
      },
      "partial_match": true,
      "place_id": "ChIJGxXD4MkABDQRGsgWgnbcjYg",
      "types": [
        "premise"
      ]
    }
  ],
  "geocode_tc": [
    {
      "address_components": [
        {
          "long_name": "Mong Kok",
          "short_name": "Mong Kok",
          "types": [
            "neighborhood",
            "political"
          ]
        },
        {
          "long_name": "Kowloon",
          "short_name": "Kowloon",
          "types": [
            "administrative_area_level_1",
            "political"
          ]
        },
        {
          "long_name": "\u9999\u6e2f",
          "short_name": "HK",
          "types": [
            "country",
            "political"
          ]
        }
      ],
      "formatted_address": "\u592a\u5b50\u5f4c\u6566\u9053761\u865f\u592a\u5b50\u85cd\u99ac\u4e4b\u57ce2\u6a13, Mong Kok, \u9999\u6e2f",
      "geometry": {
        "location": {
          "lat": 22.324706,
          "lng": 114.168012
        },
        "location_type": "GEOMETRIC_CENTER",
        "viewport": {
          "northeast": {
            "lat": 22.3260549802915,
            "lng": 114.1693609802915
          },
          "southwest": {
            "lat": 22.3233570197085,
            "lng": 114.1666630197085
          }
        }
      },
      "place_id": "ChIJ2V7T4MkABDQRKny-4cheCNo",
      "plus_code": {
        "compound_code": "85F9+V6 \u9999\u6e2f\u65fa\u89d2",
        "global_code": "7PJP85F9+V6"
      },
      "types": [
        "establishment",
        "food",
        "point_of_interest",
        "restaurant"
      ]
    }
  ],
  "licno": "2262812065",
  "timestamp": 1564968756,
  "version": "1564966095"
}
