{
  "adr_en": "\u5606\u4e00\u5606, G/F (MAJOR PORTION), DD 176, LOT 800, 60 FO TAN VILLAGE, FO TAN, SHA TIN, NEW TERRITORIES",
  "adr_tc": "\u65b0\u754c\u6c99\u7530\u706b\u70ad \u7b2c176\u4e08\u91cf\u7d04\u4efd\u7b2c800\u865f\u5730\u6bb5 \u706b\u70ad\u675160\u865f\u5730\u4e0b (\u4e3b\u8981\u90e8\u4efd) \u5606\u4e00\u5606",
  "geocode_en": [
    {
      "address_components": [
        {
          "long_name": "Hong Kong",
          "short_name": "HK",
          "types": [
            "country",
            "political"
          ]
        }
      ],
      "formatted_address": "60 Fo Tan Village, Hong Kong",
      "geometry": {
        "location": {
          "lat": 22.395211,
          "lng": 114.195923
        },
        "location_type": "GEOMETRIC_CENTER",
        "viewport": {
          "northeast": {
            "lat": 22.3965599802915,
            "lng": 114.1972719802915
          },
          "southwest": {
            "lat": 22.3938620197085,
            "lng": 114.1945740197085
          }
        }
      },
      "partial_match": true,
      "place_id": "ChIJgwmxlDUGBDQR0VwK0ydTS20",
      "plus_code": {
        "compound_code": "95WW+39 Hong Kong",
        "global_code": "7PJP95WW+39"
      },
      "types": [
        "establishment",
        "point_of_interest"
      ]
    }
  ],
  "geocode_tc": [
    {
      "address_components": [
        {
          "long_name": "\u9999\u6e2f",
          "short_name": "HK",
          "types": [
            "country",
            "political"
          ]
        }
      ],
      "formatted_address": "60 Fo Tan Village, \u9999\u6e2f",
      "geometry": {
        "location": {
          "lat": 22.395211,
          "lng": 114.195923
        },
        "location_type": "GEOMETRIC_CENTER",
        "viewport": {
          "northeast": {
            "lat": 22.3965599802915,
            "lng": 114.1972719802915
          },
          "southwest": {
            "lat": 22.3938620197085,
            "lng": 114.1945740197085
          }
        }
      },
      "partial_match": true,
      "place_id": "ChIJgwmxlDUGBDQR0VwK0ydTS20",
      "plus_code": {
        "compound_code": "95WW+39 \u9999\u6e2f",
        "global_code": "7PJP95WW+39"
      },
      "types": [
        "establishment",
        "point_of_interest"
      ]
    },
    {
      "address_components": [
        {
          "long_name": "Kam Tin Road",
          "short_name": "Kam Tin Rd",
          "types": [
            "route"
          ]
        },
        {
          "long_name": "Tai Hong Wai",
          "short_name": "Tai Hong Wai",
          "types": [
            "neighborhood",
            "political"
          ]
        },
        {
          "long_name": "New Territories",
          "short_name": "New Territories",
          "types": [
            "administrative_area_level_1",
            "political"
          ]
        },
        {
          "long_name": "\u9999\u6e2f",
          "short_name": "HK",
          "types": [
            "country",
            "political"
          ]
        }
      ],
      "formatted_address": "\u5929\u7a7a \u4e4b \u57ce 15 \u5ea7 \u5730\u4e0b, Kam Tin Rd, Tai Hong Wai, \u9999\u6e2f",
      "geometry": {
        "location": {
          "lat": 22.4416253,
          "lng": 114.0550533
        },
        "location_type": "GEOMETRIC_CENTER",
        "viewport": {
          "northeast": {
            "lat": 22.4429742802915,
            "lng": 114.0564022802915
          },
          "southwest": {
            "lat": 22.4402763197085,
            "lng": 114.0537043197085
          }
        }
      },
      "partial_match": true,
      "place_id": "ChIJ599BgFb3AzQRWDcvXUpIxR8",
      "plus_code": {
        "compound_code": "C3R4+M2 \u9999\u6e2f",
        "global_code": "7PJPC3R4+M2"
      },
      "types": [
        "establishment",
        "food",
        "point_of_interest",
        "restaurant"
      ]
    }
  ],
  "licno": "2297001920",
  "timestamp": 1564975666,
  "version": "1564966095"
}
