{
  "adr_en": "(no record found), STALL M12, 1/F, CHING LONG SHOPPING CENTRE, MUK CHUI STREET, KOWLOON CITY, KOWLOON",
  "adr_tc": "\u4e5d\u9f8d\u4e5d\u9f8d\u57ce\u6c90\u7fe0\u8857\u6674\u6717\u5546\u58341\u6a13M12\u865f\u6a94 \u76ca\u6e90\u9999\u6e2f\u4ed4\u9b5a\u65e6\u738b",
  "geocode_en": [
    {
      "address_components": [
        {
          "long_name": "Muk Chui Street",
          "short_name": "Muk Chui St",
          "types": [
            "route"
          ]
        },
        {
          "long_name": "Kowloon City",
          "short_name": "Kowloon City",
          "types": [
            "neighborhood",
            "political"
          ]
        },
        {
          "long_name": "Kowloon",
          "short_name": "Kowloon",
          "types": [
            "administrative_area_level_1",
            "political"
          ]
        },
        {
          "long_name": "Hong Kong",
          "short_name": "HK",
          "types": [
            "country",
            "political"
          ]
        }
      ],
      "formatted_address": "Muk Chui St, Kowloon City, Hong Kong",
      "geometry": {
        "location": {
          "lat": 22.330894,
          "lng": 114.203918
        },
        "location_type": "GEOMETRIC_CENTER",
        "viewport": {
          "northeast": {
            "lat": 22.3322429802915,
            "lng": 114.2052669802915
          },
          "southwest": {
            "lat": 22.3295450197085,
            "lng": 114.2025690197085
          }
        }
      },
      "partial_match": true,
      "place_id": "ChIJRYpZ-s0GBDQRzKchCVA6HAY",
      "plus_code": {
        "compound_code": "86J3+9H Hong Kong",
        "global_code": "7PJP86J3+9H"
      },
      "types": [
        "establishment",
        "point_of_interest",
        "shopping_mall"
      ]
    }
  ],
  "geocode_tc": [
    {
      "address_components": [
        {
          "long_name": "\u9999\u6e2f",
          "short_name": "HK",
          "types": [
            "country",
            "political"
          ]
        }
      ],
      "formatted_address": "\u9999\u6e2f\u65b0\u84b2\u5d17\u5eb7\u5f37\u885755\u865f\u5b89\u5f37\u6a13\u5730\u4e0b",
      "geometry": {
        "location": {
          "lat": 22.3343221,
          "lng": 114.1965669
        },
        "location_type": "GEOMETRIC_CENTER",
        "viewport": {
          "northeast": {
            "lat": 22.3356710802915,
            "lng": 114.1979158802915
          },
          "southwest": {
            "lat": 22.3329731197085,
            "lng": 114.1952179197085
          }
        }
      },
      "place_id": "ChIJaTH_xdYGBDQR65PYQEmBrSw",
      "plus_code": {
        "compound_code": "85MW+PJ \u9999\u6e2f",
        "global_code": "7PJP85MW+PJ"
      },
      "types": [
        "establishment",
        "food",
        "point_of_interest",
        "restaurant"
      ]
    }
  ],
  "licno": "3152802698",
  "timestamp": 1564975666,
  "version": "1564966095"
}
