{
  "adr_en": "McDonald's, SHOP 1 & 11 ON G/F., PORTION OF 1/F, HING FAT HOUSE, 9-13 KAU YUK ROAD, YUEN LONG, NEW TERRITORIES",
  "adr_tc": "\u65b0\u754c\u5143\u6717\u6559\u80b2\u8def9 \u81f3 13 \u865f \u8208\u767c\u6a13\u5730\u4e0b1 \u53ca 11 \u865f\u92ea \u53ca 1 \u6a13\u90e8\u4efd McDonald's",
  "geocode_en": [
    {
      "address_components": [
        {
          "long_name": "Hing Fat House",
          "short_name": "Hing Fat House",
          "types": [
            "premise"
          ]
        },
        {
          "long_name": "9",
          "short_name": "9",
          "types": [
            "street_number"
          ]
        },
        {
          "long_name": "Kau Yuk Road",
          "short_name": "Kau Yuk Rd",
          "types": [
            "route"
          ]
        },
        {
          "long_name": "Yuen Long",
          "short_name": "Yuen Long",
          "types": [
            "neighborhood",
            "political"
          ]
        },
        {
          "long_name": "New Territories",
          "short_name": "New Territories",
          "types": [
            "administrative_area_level_1",
            "political"
          ]
        },
        {
          "long_name": "Hong Kong",
          "short_name": "HK",
          "types": [
            "country",
            "political"
          ]
        }
      ],
      "formatted_address": "Hing Fat House, 9 Kau Yuk Rd, Yuen Long, Hong Kong",
      "geometry": {
        "bounds": {
          "northeast": {
            "lat": 22.4428132,
            "lng": 114.0276585
          },
          "southwest": {
            "lat": 22.4426643,
            "lng": 114.0274205
          }
        },
        "location": {
          "lat": 22.4427108,
          "lng": 114.0275937
        },
        "location_type": "ROOFTOP",
        "viewport": {
          "northeast": {
            "lat": 22.4440877302915,
            "lng": 114.0288884802915
          },
          "southwest": {
            "lat": 22.4413897697085,
            "lng": 114.0261905197085
          }
        }
      },
      "partial_match": true,
      "place_id": "ChIJ23x_gQr6AzQRZAtTmE2Fazs",
      "types": [
        "premise"
      ]
    }
  ],
  "geocode_tc": [
    {
      "address_components": [
        {
          "long_name": "\u8208\u767c\u5927\u6a13",
          "short_name": "\u8208\u767c\u5927\u6a13",
          "types": [
            "premise"
          ]
        },
        {
          "long_name": "9",
          "short_name": "9",
          "types": [
            "street_number"
          ]
        },
        {
          "long_name": "\u6559\u80b2\u8def",
          "short_name": "\u6559\u80b2\u8def",
          "types": [
            "route"
          ]
        },
        {
          "long_name": "\u5143\u6717",
          "short_name": "\u5143\u6717",
          "types": [
            "neighborhood",
            "political"
          ]
        },
        {
          "long_name": "\u65b0\u754c",
          "short_name": "\u65b0\u754c",
          "types": [
            "administrative_area_level_1",
            "political"
          ]
        },
        {
          "long_name": "\u9999\u6e2f",
          "short_name": "HK",
          "types": [
            "country",
            "political"
          ]
        }
      ],
      "formatted_address": "\u9999\u6e2f\u5143\u6717\u6559\u80b2\u8def9\u865f\u8208\u767c\u5927\u6a13",
      "geometry": {
        "bounds": {
          "northeast": {
            "lat": 22.4428132,
            "lng": 114.0276585
          },
          "southwest": {
            "lat": 22.4426643,
            "lng": 114.0274205
          }
        },
        "location": {
          "lat": 22.4427108,
          "lng": 114.0275937
        },
        "location_type": "ROOFTOP",
        "viewport": {
          "northeast": {
            "lat": 22.4440877302915,
            "lng": 114.0288884802915
          },
          "southwest": {
            "lat": 22.4413897697085,
            "lng": 114.0261905197085
          }
        }
      },
      "partial_match": true,
      "place_id": "ChIJ23x_gQr6AzQRZAtTmE2Fazs",
      "types": [
        "premise"
      ]
    },
    {
      "address_components": [
        {
          "long_name": "\u92ea \u53ca 1 \u6a13",
          "short_name": "\u92ea \u53ca 1 \u6a13",
          "types": [
            "subpremise"
          ]
        },
        {
          "long_name": "\u8208\u767c\u6a13",
          "short_name": "\u8208\u767c\u6a13",
          "types": [
            "premise"
          ]
        },
        {
          "long_name": "11-13",
          "short_name": "11-13",
          "types": [
            "street_number"
          ]
        },
        {
          "long_name": "\u88d5\u666f\u574a",
          "short_name": "\u88d5\u666f\u574a",
          "types": [
            "route"
          ]
        },
        {
          "long_name": "\u5143\u6717",
          "short_name": "\u5143\u6717",
          "types": [
            "neighborhood",
            "political"
          ]
        },
        {
          "long_name": "\u65b0\u754c",
          "short_name": "\u65b0\u754c",
          "types": [
            "administrative_area_level_1",
            "political"
          ]
        },
        {
          "long_name": "\u9999\u6e2f",
          "short_name": "HK",
          "types": [
            "country",
            "political"
          ]
        }
      ],
      "formatted_address": "\u9999\u6e2f\u5143\u6717\u88d5\u666f\u574a11-13\u865f\u8208\u767c\u6a13\u92ea \u53ca 1 \u6a13",
      "geometry": {
        "bounds": {
          "northeast": {
            "lat": 22.443419,
            "lng": 114.028271
          },
          "southwest": {
            "lat": 22.443313,
            "lng": 114.0281211
          }
        },
        "location": {
          "lat": 22.4433629,
          "lng": 114.0281965
        },
        "location_type": "ROOFTOP",
        "viewport": {
          "northeast": {
            "lat": 22.4447149802915,
            "lng": 114.0295450302915
          },
          "southwest": {
            "lat": 22.4420170197085,
            "lng": 114.0268470697085
          }
        }
      },
      "partial_match": true,
      "place_id": "Ekzpi6og5Y-KIDEg5qiTLCBIaW5nIEZhdCBCdWlsZGluZywgMTEtMTMgWXUgS2luZyBTcXVhcmUsIFl1ZW4gTG9uZywgSG9uZyBLb25nIikaJwoWChQKEgmX9-OGoPADNBEkUEmWE7NX9hIN6YuqIOWPiiAxIOaokw",
      "types": [
        "subpremise"
      ]
    }
  ],
  "licno": "2294001178",
  "timestamp": 1564975666,
  "version": "1564966095"
}
