{
  "adr_en": "\u8b5a\u4ed4\u4e09\u54e5\u7c73\u7dda, UNIT A2 OF SHOP NO.2, G/F, TAI KWEI BUILDING (BLOCK B), NO. 22-42 TAI TSUN STREET, COSMOPOLITAN ESTATE, TAI KOK TSUI, KOWLOON",
  "adr_tc": "\u4e5d\u9f8d\u5927\u89d2\u5480\u5927\u540c\u65b0\u90a8\u5927\u5168\u885722-42\u865f\u5927\u8cb4\u6a13(B\u5ea7)\u5730\u4e0b2\u865f\u8216 A2\u55ae\u4f4d \u8b5a\u4ed4\u4e09\u54e5\u7c73\u7dda",
  "geocode_en": [
    {
      "address_components": [
        {
          "long_name": "\u5929\u8000\u90a8",
          "short_name": "\u5929\u8000\u90a8",
          "types": [
            "establishment",
            "point_of_interest"
          ]
        },
        {
          "long_name": "Tin Yiu Plaza",
          "short_name": "Tin Yiu Plaza",
          "types": [
            "premise"
          ]
        },
        {
          "long_name": "Tin Wu Road",
          "short_name": "Tin Wu Rd",
          "types": [
            "route"
          ]
        },
        {
          "long_name": "Tin Shui Wai",
          "short_name": "Tin Shui Wai",
          "types": [
            "neighborhood",
            "political"
          ]
        },
        {
          "long_name": "New Territories",
          "short_name": "New Territories",
          "types": [
            "administrative_area_level_1",
            "political"
          ]
        },
        {
          "long_name": "Hong Kong",
          "short_name": "HK",
          "types": [
            "country",
            "political"
          ]
        }
      ],
      "formatted_address": "Hong Kong, Tin Shui Wai, Tin Wu Rd, Tin Yiu Plaza, \u5929\u8000\u90a8\u4f4e\u5c64\u5730\u4e0b\u4e00\u6a13LG29\u53caLG30\u865f\u8216",
      "geometry": {
        "location": {
          "lat": 22.4509111,
          "lng": 114.0033633
        },
        "location_type": "ROOFTOP",
        "viewport": {
          "northeast": {
            "lat": 22.4522600802915,
            "lng": 114.0047122802915
          },
          "southwest": {
            "lat": 22.4495621197085,
            "lng": 114.0020143197085
          }
        }
      },
      "partial_match": true,
      "place_id": "ChIJr1e9wIDwAzQR6cQxMKnFTMo",
      "plus_code": {
        "compound_code": "F223+98 Hong Kong",
        "global_code": "7PJPF223+98"
      },
      "types": [
        "establishment",
        "food",
        "point_of_interest",
        "restaurant"
      ]
    },
    {
      "address_components": [
        {
          "long_name": "22-42",
          "short_name": "22-42",
          "types": [
            "street_number"
          ]
        },
        {
          "long_name": "Tai Tsun Street",
          "short_name": "Tai Tsun St",
          "types": [
            "route"
          ]
        },
        {
          "long_name": "Tai Kok Tsui",
          "short_name": "Tai Kok Tsui",
          "types": [
            "neighborhood",
            "political"
          ]
        },
        {
          "long_name": "Kowloon",
          "short_name": "Kowloon",
          "types": [
            "administrative_area_level_1",
            "political"
          ]
        },
        {
          "long_name": "Hong Kong",
          "short_name": "HK",
          "types": [
            "country",
            "political"
          ]
        }
      ],
      "formatted_address": "22-42 Tai Tsun St, Tai Kok Tsui, Hong Kong",
      "geometry": {
        "bounds": {
          "northeast": {
            "lat": 22.3221751,
            "lng": 114.161394
          },
          "southwest": {
            "lat": 22.3220079,
            "lng": 114.1609221
          }
        },
        "location": {
          "lat": 22.322114,
          "lng": 114.16126
        },
        "location_type": "ROOFTOP",
        "viewport": {
          "northeast": {
            "lat": 22.3234404802915,
            "lng": 114.1625070302915
          },
          "southwest": {
            "lat": 22.3207425197085,
            "lng": 114.1598090697085
          }
        }
      },
      "partial_match": true,
      "place_id": "ChIJQZjHr7AABDQReo-uJ1roLpw",
      "types": [
        "premise"
      ]
    },
    {
      "address_components": [
        {
          "long_name": "70-86",
          "short_name": "70-86",
          "types": [
            "street_number"
          ]
        },
        {
          "long_name": "Ivy Street",
          "short_name": "Ivy St",
          "types": [
            "route"
          ]
        },
        {
          "long_name": "Tai Kok Tsui",
          "short_name": "Tai Kok Tsui",
          "types": [
            "neighborhood",
            "political"
          ]
        },
        {
          "long_name": "Kowloon",
          "short_name": "Kowloon",
          "types": [
            "administrative_area_level_1",
            "political"
          ]
        },
        {
          "long_name": "Hong Kong",
          "short_name": "HK",
          "types": [
            "country",
            "political"
          ]
        }
      ],
      "formatted_address": "70-86 Ivy St, Tai Kok Tsui, Hong Kong",
      "geometry": {
        "location": {
          "lat": 22.3214861,
          "lng": 114.1611079
        },
        "location_type": "ROOFTOP",
        "viewport": {
          "northeast": {
            "lat": 22.3228350802915,
            "lng": 114.1624568802915
          },
          "southwest": {
            "lat": 22.32013711970849,
            "lng": 114.1597589197085
          }
        }
      },
      "partial_match": true,
      "place_id": "ChIJXRdrqLAABDQRmEkvrOq6Q7I",
      "plus_code": {
        "compound_code": "85C6+HC Hong Kong",
        "global_code": "7PJP85C6+HC"
      },
      "types": [
        "establishment",
        "point_of_interest"
      ]
    }
  ],
  "geocode_tc": [
    {
      "address_components": [
        {
          "long_name": "\u5730\u4e0b2\u865f\u8216",
          "short_name": "\u5730\u4e0b2\u865f\u8216",
          "types": [
            "subpremise"
          ]
        },
        {
          "long_name": "22-42",
          "short_name": "22-42",
          "types": [
            "street_number"
          ]
        },
        {
          "long_name": "\u5927\u5168\u8857",
          "short_name": "\u5927\u5168\u8857",
          "types": [
            "route"
          ]
        },
        {
          "long_name": "\u5927\u89d2\u5480",
          "short_name": "\u5927\u89d2\u5480",
          "types": [
            "neighborhood",
            "political"
          ]
        },
        {
          "long_name": "\u4e5d\u9f8d",
          "short_name": "\u4e5d\u9f8d",
          "types": [
            "administrative_area_level_1",
            "political"
          ]
        },
        {
          "long_name": "\u9999\u6e2f",
          "short_name": "HK",
          "types": [
            "country",
            "political"
          ]
        }
      ],
      "formatted_address": "\u9999\u6e2f\u5927\u89d2\u5480\u5927\u5168\u885722-42\u865f\u5730\u4e0b2\u865f\u8216",
      "geometry": {
        "bounds": {
          "northeast": {
            "lat": 22.3221751,
            "lng": 114.161394
          },
          "southwest": {
            "lat": 22.3220079,
            "lng": 114.1609221
          }
        },
        "location": {
          "lat": 22.322114,
          "lng": 114.16126
        },
        "location_type": "ROOFTOP",
        "viewport": {
          "northeast": {
            "lat": 22.3234404802915,
            "lng": 114.1625070302915
          },
          "southwest": {
            "lat": 22.3207425197085,
            "lng": 114.1598090697085
          }
        }
      },
      "partial_match": true,
      "place_id": "EjnlnLDkuIsy6Jmf6IiWLCAyMi00MiBUYWkgVHN1biBTdCwgVGFpIEtvayBUc3VpLCBIb25nIEtvbmciKRonChYKFAoSCUGYx6-wAAQ0EXqPrida6C6cEg3lnLDkuIsy6Jmf6IiW",
      "types": [
        "subpremise"
      ]
    },
    {
      "address_components": [
        {
          "long_name": "B\u5ea7)\u5730\u4e0b2",
          "short_name": "B\u5ea7)\u5730\u4e0b2",
          "types": [
            "subpremise"
          ]
        },
        {
          "long_name": "22-42",
          "short_name": "22-42",
          "types": [
            "street_number"
          ]
        },
        {
          "long_name": "\u5927\u5168\u8857",
          "short_name": "\u5927\u5168\u8857",
          "types": [
            "route"
          ]
        },
        {
          "long_name": "\u5927\u89d2\u5480",
          "short_name": "\u5927\u89d2\u5480",
          "types": [
            "neighborhood",
            "political"
          ]
        },
        {
          "long_name": "\u4e5d\u9f8d",
          "short_name": "\u4e5d\u9f8d",
          "types": [
            "administrative_area_level_1",
            "political"
          ]
        },
        {
          "long_name": "\u9999\u6e2f",
          "short_name": "HK",
          "types": [
            "country",
            "political"
          ]
        }
      ],
      "formatted_address": "\u9999\u6e2f\u5927\u89d2\u5480\u5927\u5168\u885722-42\u865fB\u5ea7)\u5730\u4e0b2",
      "geometry": {
        "bounds": {
          "northeast": {
            "lat": 22.3221751,
            "lng": 114.161394
          },
          "southwest": {
            "lat": 22.3220079,
            "lng": 114.1609221
          }
        },
        "location": {
          "lat": 22.322114,
          "lng": 114.16126
        },
        "location_type": "ROOFTOP",
        "viewport": {
          "northeast": {
            "lat": 22.3234404802915,
            "lng": 114.1625070302915
          },
          "southwest": {
            "lat": 22.3207425197085,
            "lng": 114.1598090697085
          }
        }
      },
      "partial_match": true,
      "place_id": "EjhC5bqnKeWcsOS4izIsIDIyLTQyIFRhaSBUc3VuIFN0LCBUYWkgS29rIFRzdWksIEhvbmcgS29uZyIoGiYKFgoUChIJQZjHr7AABDQReo-uJ1roLpwSDELluqcp5Zyw5LiLMg",
      "types": [
        "subpremise"
      ]
    },
    {
      "address_components": [
        {
          "long_name": "28",
          "short_name": "28",
          "types": [
            "street_number"
          ]
        },
        {
          "long_name": "\u5927\u5168\u8857",
          "short_name": "\u5927\u5168\u8857",
          "types": [
            "route"
          ]
        },
        {
          "long_name": "\u5927\u89d2\u5480",
          "short_name": "\u5927\u89d2\u5480",
          "types": [
            "neighborhood",
            "political"
          ]
        },
        {
          "long_name": "\u4e5d\u9f8d",
          "short_name": "\u4e5d\u9f8d",
          "types": [
            "administrative_area_level_1",
            "political"
          ]
        },
        {
          "long_name": "\u9999\u6e2f",
          "short_name": "HK",
          "types": [
            "country",
            "political"
          ]
        }
      ],
      "formatted_address": "\u9999\u6e2f\u5927\u89d2\u5480\u5927\u5168\u885728\u865f",
      "geometry": {
        "location": {
          "lat": 22.3220291,
          "lng": 114.1611981
        },
        "location_type": "ROOFTOP",
        "viewport": {
          "northeast": {
            "lat": 22.3233780802915,
            "lng": 114.1625470802915
          },
          "southwest": {
            "lat": 22.32068011970849,
            "lng": 114.1598491197085
          }
        }
      },
      "partial_match": true,
      "place_id": "ChIJU6_5rrAABDQRVnZ8WOwmVSw",
      "plus_code": {
        "compound_code": "85C6+RF \u9999\u6e2f",
        "global_code": "7PJP85C6+RF"
      },
      "types": [
        "establishment",
        "food",
        "point_of_interest",
        "restaurant"
      ]
    }
  ],
  "licno": "3162802992",
  "timestamp": 1564975666,
  "version": "1564966095"
}
