{
  "adr_en": "\u9d3b\u767c\u9999\u6e2f\u4eba\u9b5a\u86cb\u7c89, SHOP NO.4, LEVEL 1, PODIUM OF GREEN LEAVES GARDEN, 15-17 YUEN CHAU KOK ROAD, SHA TIN, NEW TERRITORIES",
  "adr_tc": "\u65b0\u754c\u6c99\u7530\u5713\u6d32\u89d2\u8def15-17\u865f\u7fe0\u9e97\u82b1\u5712\u5e73\u53f01\u6a134\u865f\u92ea \u9d3b\u767c\u9999\u6e2f\u4eba\u9b5a\u86cb\u7c89",
  "geocode_en": [
    {
      "address_components": [
        {
          "long_name": "17",
          "short_name": "17",
          "types": [
            "street_number"
          ]
        },
        {
          "long_name": "Yuen Chau Kok Road",
          "short_name": "Yuen Chau Kok Rd",
          "types": [
            "route"
          ]
        },
        {
          "long_name": "Sha Tin",
          "short_name": "Sha Tin",
          "types": [
            "neighborhood",
            "political"
          ]
        },
        {
          "long_name": "New Territories",
          "short_name": "New Territories",
          "types": [
            "administrative_area_level_1",
            "political"
          ]
        },
        {
          "long_name": "Hong Kong",
          "short_name": "HK",
          "types": [
            "country",
            "political"
          ]
        }
      ],
      "formatted_address": "17 Yuen Chau Kok Rd, Sha Tin, Hong Kong",
      "geometry": {
        "location": {
          "lat": 22.3806436,
          "lng": 114.1994544
        },
        "location_type": "ROOFTOP",
        "viewport": {
          "northeast": {
            "lat": 22.3819925802915,
            "lng": 114.2008033802915
          },
          "southwest": {
            "lat": 22.3792946197085,
            "lng": 114.1981054197085
          }
        }
      },
      "partial_match": true,
      "place_id": "ChIJ4xXWu1EGBDQRZwJvK4f6egw",
      "plus_code": {
        "compound_code": "95JX+7Q Hong Kong",
        "global_code": "7PJP95JX+7Q"
      },
      "types": [
        "establishment",
        "food",
        "point_of_interest",
        "restaurant"
      ]
    },
    {
      "address_components": [
        {
          "long_name": "\u86cb\u7c89, SHOP NO",
          "short_name": "\u86cb\u7c89, SHOP NO",
          "types": [
            "subpremise"
          ]
        },
        {
          "long_name": "Green Leaves Garden",
          "short_name": "Green Leaves Garden",
          "types": [
            "premise"
          ]
        },
        {
          "long_name": "15-17",
          "short_name": "15-17",
          "types": [
            "street_number"
          ]
        },
        {
          "long_name": "Yuen Chau Kok Road",
          "short_name": "Yuen Chau Kok Rd",
          "types": [
            "route"
          ]
        },
        {
          "long_name": "Sha Tin",
          "short_name": "Sha Tin",
          "types": [
            "neighborhood",
            "political"
          ]
        },
        {
          "long_name": "New Territories",
          "short_name": "New Territories",
          "types": [
            "administrative_area_level_1",
            "political"
          ]
        },
        {
          "long_name": "Hong Kong",
          "short_name": "HK",
          "types": [
            "country",
            "political"
          ]
        }
      ],
      "formatted_address": "\u86cb\u7c89, SHOP NO, Green Leaves Garden, 15-17 Yuen Chau Kok Rd, Sha Tin, Hong Kong",
      "geometry": {
        "bounds": {
          "northeast": {
            "lat": 22.3809709,
            "lng": 114.200011
          },
          "southwest": {
            "lat": 22.380734,
            "lng": 114.1997659
          }
        },
        "location": {
          "lat": 22.3808822,
          "lng": 114.1999012
        },
        "location_type": "ROOFTOP",
        "viewport": {
          "northeast": {
            "lat": 22.3822014302915,
            "lng": 114.2012374302915
          },
          "southwest": {
            "lat": 22.3795034697085,
            "lng": 114.1985394697085
          }
        }
      },
      "partial_match": true,
      "place_id": "ElDom4vnsoksIFNIT1AgTk8sIEdyZWVuIExlYXZlcyBHYXJkZW4sIDE1LTE3IFl1ZW4gQ2hhdSBLb2sgUmQsIFNoYSBUaW4sIEhvbmcgS29uZyIrGikKFgoUChIJ6_42tlEGBDQRJERKub-R2BsSD-ibi-eyiSwgU0hPUCBOTw",
      "types": [
        "subpremise"
      ]
    }
  ],
  "geocode_tc": [
    {
      "address_components": [
        {
          "long_name": "\u865f\u92ea",
          "short_name": "\u865f\u92ea",
          "types": [
            "subpremise"
          ]
        },
        {
          "long_name": "\u7fe0\u9e97\u82b1\u5712\u5e73\u53f0",
          "short_name": "\u7fe0\u9e97\u82b1\u5712\u5e73\u53f0",
          "types": [
            "premise"
          ]
        },
        {
          "long_name": "\u6c99\u7530",
          "short_name": "\u6c99\u7530",
          "types": [
            "neighborhood",
            "political"
          ]
        },
        {
          "long_name": "\u65b0\u754c",
          "short_name": "\u65b0\u754c",
          "types": [
            "administrative_area_level_1",
            "political"
          ]
        },
        {
          "long_name": "\u9999\u6e2f",
          "short_name": "HK",
          "types": [
            "country",
            "political"
          ]
        }
      ],
      "formatted_address": "\u9999\u6e2f\u6c99\u7530\u7fe0\u9e97\u82b1\u5712\u5e73\u53f0\u865f\u92ea",
      "geometry": {
        "bounds": {
          "northeast": {
            "lat": 22.381036,
            "lng": 114.200083
          },
          "southwest": {
            "lat": 22.380411,
            "lng": 114.199381
          }
        },
        "location": {
          "lat": 22.3808244,
          "lng": 114.1997154
        },
        "location_type": "ROOFTOP",
        "viewport": {
          "northeast": {
            "lat": 22.3820724802915,
            "lng": 114.2010809802915
          },
          "southwest": {
            "lat": 22.3793745197085,
            "lng": 114.1983830197085
          }
        }
      },
      "partial_match": true,
      "place_id": "EjXomZ_pi6osIFNwcmluZ2ZpZWxkIEdhcmRlbiBQb2RpdW0sIFNoYSBUaW4sIEhvbmcgS29uZyIiGiAKFgoUChIJm_Vut1EGBDQR-jacEehFLkUSBuiZn-mLqg",
      "types": [
        "subpremise"
      ]
    },
    {
      "address_components": [
        {
          "long_name": "1",
          "short_name": "1",
          "types": [
            "subpremise"
          ]
        },
        {
          "long_name": "\u7fe0\u9e97\u82b1\u5712\u5e73\u53f0",
          "short_name": "\u7fe0\u9e97\u82b1\u5712\u5e73\u53f0",
          "types": [
            "premise"
          ]
        },
        {
          "long_name": "\u6c99\u7530",
          "short_name": "\u6c99\u7530",
          "types": [
            "neighborhood",
            "political"
          ]
        },
        {
          "long_name": "\u65b0\u754c",
          "short_name": "\u65b0\u754c",
          "types": [
            "administrative_area_level_1",
            "political"
          ]
        },
        {
          "long_name": "\u9999\u6e2f",
          "short_name": "HK",
          "types": [
            "country",
            "political"
          ]
        }
      ],
      "formatted_address": "\u9999\u6e2f\u6c99\u7530\u7fe0\u9e97\u82b1\u5712\u5e73\u53f01",
      "geometry": {
        "bounds": {
          "northeast": {
            "lat": 22.381036,
            "lng": 114.200083
          },
          "southwest": {
            "lat": 22.380411,
            "lng": 114.199381
          }
        },
        "location": {
          "lat": 22.3808244,
          "lng": 114.1997154
        },
        "location_type": "ROOFTOP",
        "viewport": {
          "northeast": {
            "lat": 22.3820724802915,
            "lng": 114.2010809802915
          },
          "southwest": {
            "lat": 22.3793745197085,
            "lng": 114.1983830197085
          }
        }
      },
      "partial_match": true,
      "place_id": "EjAxLCBTcHJpbmdmaWVsZCBHYXJkZW4gUG9kaXVtLCBTaGEgVGluLCBIb25nIEtvbmciHRobChYKFAoSCZv1brdRBgQ0Efo2nBHoRS5FEgEx",
      "types": [
        "subpremise"
      ]
    },
    {
      "address_components": [
        {
          "long_name": "17",
          "short_name": "17",
          "types": [
            "street_number"
          ]
        },
        {
          "long_name": "\u5713\u6d32\u89d2\u8def",
          "short_name": "\u5713\u6d32\u89d2\u8def",
          "types": [
            "route"
          ]
        },
        {
          "long_name": "\u6c99\u7530",
          "short_name": "\u6c99\u7530",
          "types": [
            "neighborhood",
            "political"
          ]
        },
        {
          "long_name": "\u65b0\u754c",
          "short_name": "\u65b0\u754c",
          "types": [
            "administrative_area_level_1",
            "political"
          ]
        },
        {
          "long_name": "\u9999\u6e2f",
          "short_name": "HK",
          "types": [
            "country",
            "political"
          ]
        }
      ],
      "formatted_address": "\u9999\u6e2f\u6c99\u7530\u5713\u6d32\u89d2\u8def17\u865f",
      "geometry": {
        "location": {
          "lat": 22.3806436,
          "lng": 114.1994544
        },
        "location_type": "ROOFTOP",
        "viewport": {
          "northeast": {
            "lat": 22.3819925802915,
            "lng": 114.2008033802915
          },
          "southwest": {
            "lat": 22.3792946197085,
            "lng": 114.1981054197085
          }
        }
      },
      "partial_match": true,
      "place_id": "ChIJ4xXWu1EGBDQRZwJvK4f6egw",
      "plus_code": {
        "compound_code": "95JX+7Q \u9999\u6e2f",
        "global_code": "7PJP95JX+7Q"
      },
      "types": [
        "establishment",
        "food",
        "point_of_interest",
        "restaurant"
      ]
    }
  ],
  "licno": "3197800990",
  "timestamp": 1564975666,
  "version": "1564966095"
}
