{
  "adr_en": "THE PAWN, SHOP NO. 7, 1/F., SHOP 11, 2/F., 60A-66 JOHNSTON ROAD, WANCHAI, HONG KONG",
  "adr_tc": "\u9999\u6e2f\u7063\u4ed4\u838a\u58eb\u6566\u905360A-66\u865f1\u5b57\u6a137\u865f\u92ea2\u5b57\u6a1311\u865f\u92ea THE PAWN",
  "geocode_en": [
    {
      "address_components": [
        {
          "long_name": "Hong Kong",
          "short_name": "HK",
          "types": [
            "country",
            "political"
          ]
        }
      ],
      "formatted_address": "62 Johnston Road Wan Chai, Hong Kong",
      "geometry": {
        "location": {
          "lat": 22.276315,
          "lng": 114.171467
        },
        "location_type": "GEOMETRIC_CENTER",
        "viewport": {
          "northeast": {
            "lat": 22.2776639802915,
            "lng": 114.1728159802915
          },
          "southwest": {
            "lat": 22.2749660197085,
            "lng": 114.1701180197085
          }
        }
      },
      "partial_match": true,
      "place_id": "ChIJtSdPw1wABDQR3xMeP7q-V0c",
      "plus_code": {
        "compound_code": "75GC+GH Hong Kong",
        "global_code": "7PJP75GC+GH"
      },
      "types": [
        "bar",
        "establishment",
        "food",
        "point_of_interest",
        "restaurant"
      ]
    },
    {
      "address_components": [
        {
          "long_name": "7, 1/F., SHOP",
          "short_name": "7, 1/F., SHOP",
          "types": [
            "subpremise"
          ]
        },
        {
          "long_name": "60A-66",
          "short_name": "60A-66",
          "types": [
            "street_number"
          ]
        },
        {
          "long_name": "Johnston Road",
          "short_name": "Johnston Rd",
          "types": [
            "route"
          ]
        },
        {
          "long_name": "Wan Chai",
          "short_name": "Wan Chai",
          "types": [
            "neighborhood",
            "political"
          ]
        },
        {
          "long_name": "Hong Kong Island",
          "short_name": "Hong Kong Island",
          "types": [
            "administrative_area_level_1",
            "political"
          ]
        },
        {
          "long_name": "Hong Kong",
          "short_name": "HK",
          "types": [
            "country",
            "political"
          ]
        }
      ],
      "formatted_address": "7, 1/F., SHOP, 60A-66 Johnston Rd, Wan Chai, Hong Kong",
      "geometry": {
        "bounds": {
          "northeast": {
            "lat": 22.276363,
            "lng": 114.171539
          },
          "southwest": {
            "lat": 22.2761661,
            "lng": 114.1712921
          }
        },
        "location": {
          "lat": 22.2762837,
          "lng": 114.1714083
        },
        "location_type": "ROOFTOP",
        "viewport": {
          "northeast": {
            "lat": 22.2776135302915,
            "lng": 114.1727645302915
          },
          "southwest": {
            "lat": 22.2749155697085,
            "lng": 114.1700665697085
          }
        }
      },
      "partial_match": true,
      "place_id": "EjY3LCAxL0YuLCBTSE9QLCA2MEEtNjYgSm9obnN0b24gUmQsIFdhbiBDaGFpLCBIb25nIEtvbmciKRonChYKFAoSCSFsqtxcAAQ0EVCyScE5_391Eg03LCAxL0YuLCBTSE9Q",
      "types": [
        "subpremise"
      ]
    }
  ],
  "geocode_tc": [
    {
      "address_components": [
        {
          "long_name": "\u6a137\u865f\u92ea",
          "short_name": "\u6a137\u865f\u92ea",
          "types": [
            "subpremise"
          ]
        },
        {
          "long_name": "60A-66",
          "short_name": "60A-66",
          "types": [
            "street_number"
          ]
        },
        {
          "long_name": "\u838a\u58eb\u6566\u9053",
          "short_name": "\u838a\u58eb\u6566\u9053",
          "types": [
            "route"
          ]
        },
        {
          "long_name": "\u7063\u4ed4",
          "short_name": "\u7063\u4ed4",
          "types": [
            "neighborhood",
            "political"
          ]
        },
        {
          "long_name": "\u9999\u6e2f\u5cf6",
          "short_name": "\u9999\u6e2f\u5cf6",
          "types": [
            "administrative_area_level_1",
            "political"
          ]
        },
        {
          "long_name": "\u9999\u6e2f",
          "short_name": "HK",
          "types": [
            "country",
            "political"
          ]
        }
      ],
      "formatted_address": "\u9999\u6e2f\u7063\u4ed4\u838a\u58eb\u6566\u905360A-66\u865f\u6a137\u865f\u92ea",
      "geometry": {
        "bounds": {
          "northeast": {
            "lat": 22.276363,
            "lng": 114.171539
          },
          "southwest": {
            "lat": 22.2761661,
            "lng": 114.1712921
          }
        },
        "location": {
          "lat": 22.2762837,
          "lng": 114.1714083
        },
        "location_type": "ROOFTOP",
        "viewport": {
          "northeast": {
            "lat": 22.2776135302915,
            "lng": 114.1727645302915
          },
          "southwest": {
            "lat": 22.2749155697085,
            "lng": 114.1700665697085
          }
        }
      },
      "partial_match": true,
      "place_id": "EjPmqJM36Jmf6YuqLCA2MEEtNjYgSm9obnN0b24gUmQsIFdhbiBDaGFpLCBIb25nIEtvbmciJhokChYKFAoSCSFsqtxcAAQ0EVCyScE5_391EgrmqJM36Jmf6Yuq",
      "types": [
        "subpremise"
      ]
    },
    {
      "address_components": [
        {
          "long_name": "\u9999\u6e2f",
          "short_name": "HK",
          "types": [
            "country",
            "political"
          ]
        }
      ],
      "formatted_address": "62 Johnston Road Wan Chai, \u9999\u6e2f",
      "geometry": {
        "location": {
          "lat": 22.276315,
          "lng": 114.171467
        },
        "location_type": "GEOMETRIC_CENTER",
        "viewport": {
          "northeast": {
            "lat": 22.2776639802915,
            "lng": 114.1728159802915
          },
          "southwest": {
            "lat": 22.2749660197085,
            "lng": 114.1701180197085
          }
        }
      },
      "partial_match": true,
      "place_id": "ChIJtSdPw1wABDQR3xMeP7q-V0c",
      "plus_code": {
        "compound_code": "75GC+GH \u9999\u6e2f",
        "global_code": "7PJP75GC+GH"
      },
      "types": [
        "bar",
        "establishment",
        "food",
        "point_of_interest",
        "restaurant"
      ]
    }
  ],
  "licno": "2212803664",
  "timestamp": 1564966180,
  "version": "1564966095"
}
