{
  "adr_en": "\u862d\u9999\u95a3\u9910\u5ef3, SHOP NO. 11-13, G/F, ASTER COURT, HUNG SHUI KUI, YUEN LONG, NEW TERRITORIES",
  "adr_tc": "\u65b0\u754c\u5143\u6717\u6d2a\u6c34\u6a4b\u96c5\u73ca\u5712\u5730\u4e0b11-13\u865f\u8216 \u862d\u9999\u95a3\u9910\u5ef3",
  "geocode_en": [
    {
      "address_components": [
        {
          "long_name": "Hong Kong",
          "short_name": "HK",
          "types": [
            "country",
            "political"
          ]
        }
      ],
      "formatted_address": "Hong Kong, \u9577\u6c99\u7063\u6771\u6c99\u5cf6\u8857165\u865f",
      "geometry": {
        "location": {
          "lat": 22.335187,
          "lng": 114.159299
        },
        "location_type": "GEOMETRIC_CENTER",
        "viewport": {
          "northeast": {
            "lat": 22.3365359802915,
            "lng": 114.1606479802915
          },
          "southwest": {
            "lat": 22.3338380197085,
            "lng": 114.1579500197085
          }
        }
      },
      "partial_match": true,
      "place_id": "ChIJcQEI-0wHBDQRILq-3bTW4EQ",
      "plus_code": {
        "compound_code": "85P5+3P Hong Kong",
        "global_code": "7PJP85P5+3P"
      },
      "types": [
        "establishment",
        "food",
        "point_of_interest",
        "restaurant"
      ]
    },
    {
      "address_components": [
        {
          "long_name": "Hung Shui Kiu",
          "short_name": "Hung Shui Kiu",
          "types": [
            "neighborhood",
            "political"
          ]
        },
        {
          "long_name": "New Territories",
          "short_name": "New Territories",
          "types": [
            "administrative_area_level_1",
            "political"
          ]
        },
        {
          "long_name": "Hong Kong",
          "short_name": "HK",
          "types": [
            "country",
            "political"
          ]
        }
      ],
      "formatted_address": "Hung Shui Kiu, Hong Kong",
      "geometry": {
        "location": {
          "lat": 22.4340491,
          "lng": 113.9964785
        },
        "location_type": "GEOMETRIC_CENTER",
        "viewport": {
          "northeast": {
            "lat": 22.4353980802915,
            "lng": 113.9978274802915
          },
          "southwest": {
            "lat": 22.4327001197085,
            "lng": 113.9951295197085
          }
        }
      },
      "partial_match": true,
      "place_id": "ChIJOw_T2Ij6AzQRxT21UnjulbM",
      "plus_code": {
        "compound_code": "CXMW+JH Hong Kong",
        "global_code": "7PJMCXMW+JH"
      },
      "types": [
        "establishment",
        "parking",
        "point_of_interest"
      ]
    }
  ],
  "geocode_tc": [
    {
      "address_components": [
        {
          "long_name": "\u6d2a\u5824\u8def",
          "short_name": "\u6d2a\u5824\u8def",
          "types": [
            "route"
          ]
        },
        {
          "long_name": "\u6d2a\u6c34\u6a4b",
          "short_name": "\u6d2a\u6c34\u6a4b",
          "types": [
            "neighborhood",
            "political"
          ]
        },
        {
          "long_name": "\u9999\u6e2f",
          "short_name": "HK",
          "types": [
            "country",
            "political"
          ]
        }
      ],
      "formatted_address": "\u9999\u6e2f\u6d2a\u6c34\u6a4b\u6d2a\u5824\u8def\u5143\u6717\u96c5\u73ca\u5712\u5546\u5834\u5730\u4e0b",
      "geometry": {
        "location": {
          "lat": 22.433898,
          "lng": 113.9967031
        },
        "location_type": "GEOMETRIC_CENTER",
        "viewport": {
          "northeast": {
            "lat": 22.4352469802915,
            "lng": 113.9980520802915
          },
          "southwest": {
            "lat": 22.4325490197085,
            "lng": 113.9953541197085
          }
        }
      },
      "place_id": "ChIJOUN434j6AzQRz224RmkG0Mw",
      "plus_code": {
        "compound_code": "CXMW+HM \u9999\u6e2f",
        "global_code": "7PJMCXMW+HM"
      },
      "types": [
        "establishment",
        "food",
        "point_of_interest",
        "restaurant"
      ]
    }
  ],
  "licno": "2294001840",
  "timestamp": 1564975666,
  "version": "1564966095"
}
