{
  "adr_en": "Taisho-ken Maruichi, SHOP NO. G1018, G/F., KAM SING MANSION, SING FAI TERRACE, TAIKOO SHING, HONG KONG",
  "adr_tc": "\u9999\u6e2f\u592a\u53e4\u57ce\u661f\u8f1d\u53f0\u91d1\u661f\u95a3\u5730\u4e0bG1018\u865f\u92ea \u5927\u52dd\u8ed2",
  "geocode_en": [
    {
      "address_components": [
        {
          "long_name": "Hong Kong",
          "short_name": "HK",
          "types": [
            "country",
            "political"
          ]
        }
      ],
      "formatted_address": "\u592a \u53e4\u57ce \u661f \u8f1d \u53f0 \u91d1\u661f \u95a3 G1018 \u865f \u92ea, Hong Kong",
      "geometry": {
        "location": {
          "lat": 22.286542,
          "lng": 114.2186418
        },
        "location_type": "GEOMETRIC_CENTER",
        "viewport": {
          "northeast": {
            "lat": 22.2878909802915,
            "lng": 114.2199907802915
          },
          "southwest": {
            "lat": 22.2851930197085,
            "lng": 114.2172928197085
          }
        }
      },
      "partial_match": true,
      "place_id": "ChIJZ-4hr3MBBDQRQmjLIQZTC64",
      "plus_code": {
        "compound_code": "76P9+JF Hong Kong",
        "global_code": "7PJP76P9+JF"
      },
      "types": [
        "establishment",
        "food",
        "point_of_interest",
        "restaurant"
      ]
    },
    {
      "address_components": [
        {
          "long_name": "Taikoo Shing, Shing Fai Terrace Kam Sing Mansion",
          "short_name": "Taikoo Shing, Shing Fai Terrace Kam Sing Mansion",
          "types": [
            "premise"
          ]
        },
        {
          "long_name": "3",
          "short_name": "3",
          "types": [
            "street_number"
          ]
        },
        {
          "long_name": "Tai Fung Avenue",
          "short_name": "Tai Fung Ave",
          "types": [
            "route"
          ]
        },
        {
          "long_name": "Taikoo Shing",
          "short_name": "Taikoo Shing",
          "types": [
            "neighborhood",
            "political"
          ]
        },
        {
          "long_name": "Hong Kong Island",
          "short_name": "Hong Kong Island",
          "types": [
            "administrative_area_level_1",
            "political"
          ]
        },
        {
          "long_name": "Hong Kong",
          "short_name": "HK",
          "types": [
            "country",
            "political"
          ]
        }
      ],
      "formatted_address": "Taikoo Shing, Shing Fai Terrace Kam Sing Mansion, 3 Tai Fung Ave, Taikoo Shing, Hong Kong",
      "geometry": {
        "bounds": {
          "northeast": {
            "lat": 22.2868165,
            "lng": 114.2189175
          },
          "southwest": {
            "lat": 22.2865555,
            "lng": 114.2186094
          }
        },
        "location": {
          "lat": 22.2866975,
          "lng": 114.2187656
        },
        "location_type": "ROOFTOP",
        "viewport": {
          "northeast": {
            "lat": 22.2880349802915,
            "lng": 114.2201124302915
          },
          "southwest": {
            "lat": 22.2853370197085,
            "lng": 114.2174144697085
          }
        }
      },
      "partial_match": true,
      "place_id": "ChIJH0QWr3MBBDQRChcrCo-YlzA",
      "types": [
        "premise"
      ]
    },
    {
      "address_components": [
        {
          "long_name": "1-3",
          "short_name": "1-3",
          "types": [
            "street_number"
          ]
        },
        {
          "long_name": "Tai Wing Avenue",
          "short_name": "Tai Wing Ave",
          "types": [
            "route"
          ]
        },
        {
          "long_name": "Quarry Bay",
          "short_name": "Quarry Bay",
          "types": [
            "neighborhood",
            "political"
          ]
        },
        {
          "long_name": "Hong Kong Island",
          "short_name": "Hong Kong Island",
          "types": [
            "administrative_area_level_1",
            "political"
          ]
        },
        {
          "long_name": "Hong Kong",
          "short_name": "HK",
          "types": [
            "country",
            "political"
          ]
        }
      ],
      "formatted_address": "1-3 Tai Wing Ave, Quarry Bay, Hong Kong",
      "geometry": {
        "location": {
          "lat": 22.286823,
          "lng": 114.2192524
        },
        "location_type": "ROOFTOP",
        "viewport": {
          "northeast": {
            "lat": 22.2881719802915,
            "lng": 114.2206013802915
          },
          "southwest": {
            "lat": 22.2854740197085,
            "lng": 114.2179034197085
          }
        }
      },
      "partial_match": true,
      "place_id": "ChIJxa2rTHIBBDQR3bHh6YomEmM",
      "plus_code": {
        "compound_code": "76P9+PP Hong Kong",
        "global_code": "7PJP76P9+PP"
      },
      "types": [
        "establishment",
        "point_of_interest"
      ]
    }
  ],
  "geocode_tc": [
    {
      "address_components": [
        {
          "long_name": "\u9999\u6e2f",
          "short_name": "HK",
          "types": [
            "country",
            "political"
          ]
        }
      ],
      "formatted_address": "\u592a \u53e4\u57ce \u661f \u8f1d \u53f0 \u91d1\u661f \u95a3 G1018 \u865f \u92ea, \u9999\u6e2f",
      "geometry": {
        "location": {
          "lat": 22.286542,
          "lng": 114.2186418
        },
        "location_type": "GEOMETRIC_CENTER",
        "viewport": {
          "northeast": {
            "lat": 22.2878909802915,
            "lng": 114.2199907802915
          },
          "southwest": {
            "lat": 22.2851930197085,
            "lng": 114.2172928197085
          }
        }
      },
      "place_id": "ChIJZ-4hr3MBBDQRQmjLIQZTC64",
      "plus_code": {
        "compound_code": "76P9+JF \u9999\u6e2f",
        "global_code": "7PJP76P9+JF"
      },
      "types": [
        "establishment",
        "food",
        "point_of_interest",
        "restaurant"
      ]
    }
  ],
  "licno": "2211807076",
  "timestamp": 1564966180,
  "version": "1564966095"
}
