{
  "adr_en": "\u56db\u65b9\u6b63\u5b97\u91cd\u6176\u9ebb\u8fa3\u706b\u934b, GROUND FLOOR, 27 MEI KING STREET, TOKWAWAN, KOWLOON CITY, KOWLOON",
  "adr_tc": "\u4e5d\u9f8d\u571f\u74dc\u7063\u7f8e\u666f\u885727\u865f\u5730\u4e0b \u56db\u65b9\u6b63\u5b97\u91cd\u6176\u9ebb\u8fa3\u706b\u934b",
  "geocode_en": [
    {
      "address_components": [
        {
          "long_name": "Chongqing",
          "short_name": "Chongqing",
          "types": [
            "locality",
            "political"
          ]
        },
        {
          "long_name": "Chongqing",
          "short_name": "Chongqing",
          "types": [
            "administrative_area_level_1",
            "political"
          ]
        },
        {
          "long_name": "China",
          "short_name": "CN",
          "types": [
            "country",
            "political"
          ]
        }
      ],
      "formatted_address": "Chongqing, China",
      "geometry": {
        "bounds": {
          "northeast": {
            "lat": 32.2011872,
            "lng": 110.1998581
          },
          "southwest": {
            "lat": 28.1602251,
            "lng": 105.2897606
          }
        },
        "location": {
          "lat": 29.4315861,
          "lng": 106.912251
        },
        "location_type": "APPROXIMATE",
        "viewport": {
          "northeast": {
            "lat": 29.7401968,
            "lng": 106.8138242
          },
          "southwest": {
            "lat": 29.3696283,
            "lng": 106.2832832
          }
        }
      },
      "partial_match": true,
      "place_id": "ChIJQ0_m87o0kzYRIbOI3BaGn94",
      "types": [
        "locality",
        "political"
      ]
    },
    {
      "address_components": [
        {
          "long_name": "27",
          "short_name": "27",
          "types": [
            "street_number"
          ]
        },
        {
          "long_name": "Mei King Street",
          "short_name": "Mei King St",
          "types": [
            "route"
          ]
        },
        {
          "long_name": "To Kwa Wan",
          "short_name": "To Kwa Wan",
          "types": [
            "neighborhood",
            "political"
          ]
        },
        {
          "long_name": "Kowloon",
          "short_name": "Kowloon",
          "types": [
            "administrative_area_level_1",
            "political"
          ]
        },
        {
          "long_name": "Hong Kong",
          "short_name": "HK",
          "types": [
            "country",
            "political"
          ]
        }
      ],
      "formatted_address": "27 Mei King St, To Kwa Wan, Hong Kong",
      "geometry": {
        "location": {
          "lat": 22.3165882,
          "lng": 114.1905185
        },
        "location_type": "ROOFTOP",
        "viewport": {
          "northeast": {
            "lat": 22.3179371802915,
            "lng": 114.1918674802915
          },
          "southwest": {
            "lat": 22.31523921970849,
            "lng": 114.1891695197085
          }
        }
      },
      "partial_match": true,
      "place_id": "ChIJB5JnHNgABDQR3uJBQak8Gis",
      "plus_code": {
        "compound_code": "858R+J6 Hong Kong",
        "global_code": "7PJP858R+J6"
      },
      "types": [
        "street_address"
      ]
    }
  ],
  "geocode_tc": [
    {
      "address_components": [
        {
          "long_name": "\u865f\u5730\u4e0b",
          "short_name": "\u865f\u5730\u4e0b",
          "types": [
            "subpremise"
          ]
        },
        {
          "long_name": "27",
          "short_name": "27",
          "types": [
            "street_number"
          ]
        },
        {
          "long_name": "\u7f8e\u666f\u8857",
          "short_name": "\u7f8e\u666f\u8857",
          "types": [
            "route"
          ]
        },
        {
          "long_name": "\u571f\u74dc\u7063",
          "short_name": "\u571f\u74dc\u7063",
          "types": [
            "neighborhood",
            "political"
          ]
        },
        {
          "long_name": "\u4e5d\u9f8d",
          "short_name": "\u4e5d\u9f8d",
          "types": [
            "administrative_area_level_1",
            "political"
          ]
        },
        {
          "long_name": "\u9999\u6e2f",
          "short_name": "HK",
          "types": [
            "country",
            "political"
          ]
        }
      ],
      "formatted_address": "\u9999\u6e2f\u571f\u74dc\u7063\u7f8e\u666f\u885727\u865f\u865f\u5730\u4e0b",
      "geometry": {
        "location": {
          "lat": 22.3165882,
          "lng": 114.1905185
        },
        "location_type": "ROOFTOP",
        "viewport": {
          "northeast": {
            "lat": 22.3179371802915,
            "lng": 114.1918674802915
          },
          "southwest": {
            "lat": 22.31523921970849,
            "lng": 114.1891695197085
          }
        }
      },
      "partial_match": true,
      "place_id": "EjDomZ_lnLDkuIssIDI3IE1laSBLaW5nIFN0LCBUbyBLd2EgV2FuLCBIb25nIEtvbmciJRojChYKFAoSCQeSZxzYAAQ0Ed7iQUGpPBorEgnomZ_lnLDkuIs",
      "types": [
        "subpremise"
      ]
    },
    {
      "address_components": [
        {
          "long_name": "\u91cd\u6176",
          "short_name": "\u91cd\u6176",
          "types": [
            "locality",
            "political"
          ]
        },
        {
          "long_name": "\u91cd\u6176",
          "short_name": "\u91cd\u6176",
          "types": [
            "administrative_area_level_1",
            "political"
          ]
        },
        {
          "long_name": "\u4e2d\u570b",
          "short_name": "CN",
          "types": [
            "country",
            "political"
          ]
        }
      ],
      "formatted_address": "\u4e2d\u570b\u91cd\u6176",
      "geometry": {
        "bounds": {
          "northeast": {
            "lat": 32.2011872,
            "lng": 110.1998581
          },
          "southwest": {
            "lat": 28.1602251,
            "lng": 105.2897606
          }
        },
        "location": {
          "lat": 29.4315861,
          "lng": 106.912251
        },
        "location_type": "APPROXIMATE",
        "viewport": {
          "northeast": {
            "lat": 29.7401968,
            "lng": 106.8138242
          },
          "southwest": {
            "lat": 29.3696283,
            "lng": 106.2832832
          }
        }
      },
      "partial_match": true,
      "place_id": "ChIJQ0_m87o0kzYRIbOI3BaGn94",
      "types": [
        "locality",
        "political"
      ]
    }
  ],
  "licno": "2252100488",
  "timestamp": 1564968756,
  "version": "1564966095"
}
