{
  "adr_en": "Herbs Deli, SHOP F & G, G/F, 386 PRINCE EDWARD RD WEST, KOWLOON CITY, KOWLOON",
  "adr_tc": "\u4e5d\u9f8d\u592a\u5b50\u9053\u897f386\u865f\u5730\u4e0bF\u53caG\u8216 \u5343\u8349\u9961",
  "geocode_en": [
    {
      "address_components": [
        {
          "long_name": "G",
          "short_name": "G",
          "types": [
            "subpremise"
          ]
        },
        {
          "long_name": "Prince Mansion",
          "short_name": "Prince Mansion",
          "types": [
            "premise"
          ]
        },
        {
          "long_name": "386",
          "short_name": "386",
          "types": [
            "street_number"
          ]
        },
        {
          "long_name": "Prince Edward Road West",
          "short_name": "Prince Edward Rd W",
          "types": [
            "route"
          ]
        },
        {
          "long_name": "Kowloon City",
          "short_name": "Kowloon City",
          "types": [
            "neighborhood",
            "political"
          ]
        },
        {
          "long_name": "Kowloon",
          "short_name": "Kowloon",
          "types": [
            "administrative_area_level_1",
            "political"
          ]
        },
        {
          "long_name": "Hong Kong",
          "short_name": "HK",
          "types": [
            "country",
            "political"
          ]
        }
      ],
      "formatted_address": "G, Prince Mansion, 386 Prince Edward Rd W, Kowloon City, Hong Kong",
      "geometry": {
        "bounds": {
          "northeast": {
            "lat": 22.327823,
            "lng": 114.1885869
          },
          "southwest": {
            "lat": 22.3276889,
            "lng": 114.188485
          }
        },
        "location": {
          "lat": 22.327772,
          "lng": 114.188546
        },
        "location_type": "ROOFTOP",
        "viewport": {
          "northeast": {
            "lat": 22.3291049302915,
            "lng": 114.1898849302915
          },
          "southwest": {
            "lat": 22.3264069697085,
            "lng": 114.1871869697085
          }
        }
      },
      "partial_match": true,
      "place_id": "EkJHLCBQcmluY2UgTWFuc2lvbiwgMzg2IFByaW5jZSBFZHdhcmQgUmQgVywgS293bG9vbiBDaXR5LCBIb25nIEtvbmciHRobChYKFAoSCQWMKCjVAAQ0EdSgqf5op3ioEgFH",
      "types": [
        "subpremise"
      ]
    },
    {
      "address_components": [
        {
          "long_name": "F",
          "short_name": "F",
          "types": [
            "subpremise"
          ]
        },
        {
          "long_name": "Prince Mansion",
          "short_name": "Prince Mansion",
          "types": [
            "premise"
          ]
        },
        {
          "long_name": "386",
          "short_name": "386",
          "types": [
            "street_number"
          ]
        },
        {
          "long_name": "Prince Edward Road West",
          "short_name": "Prince Edward Rd W",
          "types": [
            "route"
          ]
        },
        {
          "long_name": "Kowloon City",
          "short_name": "Kowloon City",
          "types": [
            "neighborhood",
            "political"
          ]
        },
        {
          "long_name": "Kowloon",
          "short_name": "Kowloon",
          "types": [
            "administrative_area_level_1",
            "political"
          ]
        },
        {
          "long_name": "Hong Kong",
          "short_name": "HK",
          "types": [
            "country",
            "political"
          ]
        }
      ],
      "formatted_address": "F, Prince Mansion, 386 Prince Edward Rd W, Kowloon City, Hong Kong",
      "geometry": {
        "bounds": {
          "northeast": {
            "lat": 22.327823,
            "lng": 114.1885869
          },
          "southwest": {
            "lat": 22.3276889,
            "lng": 114.188485
          }
        },
        "location": {
          "lat": 22.327772,
          "lng": 114.188546
        },
        "location_type": "ROOFTOP",
        "viewport": {
          "northeast": {
            "lat": 22.3291049302915,
            "lng": 114.1898849302915
          },
          "southwest": {
            "lat": 22.3264069697085,
            "lng": 114.1871869697085
          }
        }
      },
      "partial_match": true,
      "place_id": "EkJGLCBQcmluY2UgTWFuc2lvbiwgMzg2IFByaW5jZSBFZHdhcmQgUmQgVywgS293bG9vbiBDaXR5LCBIb25nIEtvbmciHRobChYKFAoSCQWMKCjVAAQ0EdSgqf5op3ioEgFG",
      "types": [
        "subpremise"
      ]
    }
  ],
  "geocode_tc": [
    {
      "address_components": [
        {
          "long_name": "\u5730\u4e0bF\u53caG",
          "short_name": "\u5730\u4e0bF\u53caG",
          "types": [
            "subpremise"
          ]
        },
        {
          "long_name": "\u592a\u5b50\u6a13",
          "short_name": "\u592a\u5b50\u6a13",
          "types": [
            "premise"
          ]
        },
        {
          "long_name": "386",
          "short_name": "386",
          "types": [
            "street_number"
          ]
        },
        {
          "long_name": "\u592a\u5b50\u9053\u897f",
          "short_name": "\u592a\u5b50\u9053\u897f",
          "types": [
            "route"
          ]
        },
        {
          "long_name": "\u4e5d\u9f8d\u57ce",
          "short_name": "\u4e5d\u9f8d\u57ce",
          "types": [
            "neighborhood",
            "political"
          ]
        },
        {
          "long_name": "\u4e5d\u9f8d",
          "short_name": "\u4e5d\u9f8d",
          "types": [
            "administrative_area_level_1",
            "political"
          ]
        },
        {
          "long_name": "\u9999\u6e2f",
          "short_name": "HK",
          "types": [
            "country",
            "political"
          ]
        }
      ],
      "formatted_address": "\u9999\u6e2f\u4e5d\u9f8d\u57ce\u592a\u5b50\u9053\u897f386\u865f\u592a\u5b50\u6a13\u5730\u4e0bF\u53caG",
      "geometry": {
        "bounds": {
          "northeast": {
            "lat": 22.327823,
            "lng": 114.1885869
          },
          "southwest": {
            "lat": 22.3276889,
            "lng": 114.188485
          }
        },
        "location": {
          "lat": 22.327772,
          "lng": 114.188546
        },
        "location_type": "ROOFTOP",
        "viewport": {
          "northeast": {
            "lat": 22.3291049302915,
            "lng": 114.1898849302915
          },
          "southwest": {
            "lat": 22.3264069697085,
            "lng": 114.1871869697085
          }
        }
      },
      "partial_match": true,
      "place_id": "EkzlnLDkuItG5Y-KRywgUHJpbmNlIE1hbnNpb24sIDM4NiBQcmluY2UgRWR3YXJkIFJkIFcsIEtvd2xvb24gQ2l0eSwgSG9uZyBLb25nIicaJQoWChQKEgkFjCgo1QAENBHUoKn-aKd4qBIL5Zyw5LiLRuWPikc",
      "types": [
        "subpremise"
      ]
    },
    {
      "address_components": [
        {
          "long_name": "\u592a\u5b50\u6a13",
          "short_name": "\u592a\u5b50\u6a13",
          "types": [
            "premise"
          ]
        },
        {
          "long_name": "386\u865f",
          "short_name": "386\u865f",
          "types": [
            "street_number"
          ]
        },
        {
          "long_name": "\u592a\u5b50\u9053\u897f",
          "short_name": "\u592a\u5b50\u9053\u897f",
          "types": [
            "route"
          ]
        },
        {
          "long_name": "\u4e5d\u9f8d\u57ce",
          "short_name": "\u4e5d\u9f8d\u57ce",
          "types": [
            "neighborhood",
            "political"
          ]
        },
        {
          "long_name": "\u4e5d\u9f8d",
          "short_name": "\u4e5d\u9f8d",
          "types": [
            "administrative_area_level_1",
            "political"
          ]
        },
        {
          "long_name": "\u9999\u6e2f",
          "short_name": "HK",
          "types": [
            "country",
            "political"
          ]
        }
      ],
      "formatted_address": "\u9999\u6e2f\u4e5d\u9f8d\u57ce\u592a\u5b50\u9053\u897f386\u865f\u592a\u5b50\u6a13",
      "geometry": {
        "location": {
          "lat": 22.327816,
          "lng": 114.188577
        },
        "location_type": "ROOFTOP",
        "viewport": {
          "northeast": {
            "lat": 22.3291649802915,
            "lng": 114.1899259802915
          },
          "southwest": {
            "lat": 22.3264670197085,
            "lng": 114.1872280197085
          }
        }
      },
      "partial_match": true,
      "place_id": "ChIJk-N98ooBBDQRa38MG2x-DZw",
      "plus_code": {
        "compound_code": "85HQ+4C \u9999\u6e2f",
        "global_code": "7PJP85HQ+4C"
      },
      "types": [
        "establishment",
        "food",
        "point_of_interest",
        "restaurant"
      ]
    }
  ],
  "licno": "2252264689",
  "timestamp": 1564968756,
  "version": "1564966095"
}
