{
  "adr_en": "KFC, SHOP NOS. 2057-2059 & PORTION OF SHOPPING ACRADE IN FRONT OF SHOP 2057-2059, LEVEL 2, PHASE II, METRO CITY, TSEUNG KWAN O, SAI KUNG, NEW TERRITORIES",
  "adr_tc": "\u65b0\u754c\u897f\u8ca2 \u5c07\u8ecd\u6fb3\u65b0\u90fd\u57ce\u4e2d\u5fc3\u4e8c\u671f\u5546\u5834 \u7b2c\u4e8c\u5c642057-2059\u865f\u92ea\u53ca\u90e8\u4efd\u5546\u5834\u5c0d\u9762 \u80af\u5fb7\u57fa",
  "geocode_en": [
    {
      "address_components": [
        {
          "long_name": "Metro City",
          "short_name": "Metro City",
          "types": [
            "neighborhood",
            "political"
          ]
        },
        {
          "long_name": "New Territories",
          "short_name": "New Territories",
          "types": [
            "administrative_area_level_1",
            "political"
          ]
        },
        {
          "long_name": "Hong Kong",
          "short_name": "HK",
          "types": [
            "country",
            "political"
          ]
        }
      ],
      "formatted_address": "Metro City, Hong Kong",
      "geometry": {
        "bounds": {
          "northeast": {
            "lat": 22.3246808,
            "lng": 114.2595452
          },
          "southwest": {
            "lat": 22.320304,
            "lng": 114.2560261
          }
        },
        "location": {
          "lat": 22.3225404,
          "lng": 114.2570671
        },
        "location_type": "APPROXIMATE",
        "viewport": {
          "northeast": {
            "lat": 22.3246808,
            "lng": 114.2595452
          },
          "southwest": {
            "lat": 22.320304,
            "lng": 114.2560261
          }
        }
      },
      "partial_match": true,
      "place_id": "ChIJsRhi4AsEBDQRUICy1eIXrD4",
      "types": [
        "neighborhood",
        "political"
      ]
    },
    {
      "address_components": [
        {
          "long_name": "Tseung Kwan O",
          "short_name": "Tseung Kwan O",
          "types": [
            "neighborhood",
            "political"
          ]
        },
        {
          "long_name": "New Territories",
          "short_name": "New Territories",
          "types": [
            "administrative_area_level_1",
            "political"
          ]
        },
        {
          "long_name": "Hong Kong",
          "short_name": "HK",
          "types": [
            "country",
            "political"
          ]
        }
      ],
      "formatted_address": "Tseung Kwan O, Hong Kong",
      "geometry": {
        "bounds": {
          "northeast": {
            "lat": 22.3147112,
            "lng": 114.2654406
          },
          "southwest": {
            "lat": 22.3005346,
            "lng": 114.255294
          }
        },
        "location": {
          "lat": 22.3119357,
          "lng": 114.2568776
        },
        "location_type": "APPROXIMATE",
        "viewport": {
          "northeast": {
            "lat": 22.3147112,
            "lng": 114.2654406
          },
          "southwest": {
            "lat": 22.3005346,
            "lng": 114.255294
          }
        }
      },
      "partial_match": true,
      "place_id": "ChIJQclRg-kDBDQRcCbTSL7_7M0",
      "types": [
        "neighborhood",
        "political"
      ]
    }
  ],
  "geocode_tc": [],
  "licno": "2298001024",
  "timestamp": 1564975666,
  "version": "1564966095"
}
