{
  "adr_en": "Big Boss Restaurant, SHOP 82-83 & 85, G/F, NEW MANDARIN PLAZA, NO. 14 SCIENCE MUSEUM ROAD, TSIM SHA TSUI, KOWLOON",
  "adr_tc": "\u4e5d\u9f8d\u5c16\u6c99\u5480\u79d1\u5b78\u9928\u905314\u865f\u65b0\u6587\u83ef\u4e2d\u5fc3\u5730\u4e0b 82-83\u53ca85\u8216 \u5927\u5bcc\u8c6a\u98ef\u5e97",
  "geocode_en": [
    {
      "address_components": [
        {
          "long_name": "New Mandarin Plaza Tower B",
          "short_name": "New Mandarin Plaza Tower B",
          "types": [
            "premise"
          ]
        },
        {
          "long_name": "14",
          "short_name": "14",
          "types": [
            "street_number"
          ]
        },
        {
          "long_name": "Science Museum Road",
          "short_name": "Science Museum Rd",
          "types": [
            "route"
          ]
        },
        {
          "long_name": "Tsim Sha Tsui East",
          "short_name": "Tsim Sha Tsui East",
          "types": [
            "neighborhood",
            "political"
          ]
        },
        {
          "long_name": "Kowloon",
          "short_name": "Kowloon",
          "types": [
            "administrative_area_level_1",
            "political"
          ]
        },
        {
          "long_name": "Hong Kong",
          "short_name": "HK",
          "types": [
            "country",
            "political"
          ]
        }
      ],
      "formatted_address": "New Mandarin Plaza Tower B, 14 Science Museum Rd, Tsim Sha Tsui East, Hong Kong",
      "geometry": {
        "bounds": {
          "northeast": {
            "lat": 22.300864,
            "lng": 114.1790029
          },
          "southwest": {
            "lat": 22.300384,
            "lng": 114.17849
          }
        },
        "location": {
          "lat": 22.3006503,
          "lng": 114.1787697
        },
        "location_type": "ROOFTOP",
        "viewport": {
          "northeast": {
            "lat": 22.3019729802915,
            "lng": 114.1800954302915
          },
          "southwest": {
            "lat": 22.2992750197085,
            "lng": 114.1773974697085
          }
        }
      },
      "partial_match": true,
      "place_id": "ChIJVc2WQu8ABDQR3MyrUSvN8eg",
      "types": [
        "premise"
      ]
    }
  ],
  "geocode_tc": [
    {
      "address_components": [
        {
          "long_name": "14",
          "short_name": "14",
          "types": [
            "street_number"
          ]
        },
        {
          "long_name": "\u79d1\u5b78\u9928\u9053",
          "short_name": "\u79d1\u5b78\u9928\u9053",
          "types": [
            "route"
          ]
        },
        {
          "long_name": "\u5c16\u6771",
          "short_name": "\u5c16\u6771",
          "types": [
            "neighborhood",
            "political"
          ]
        },
        {
          "long_name": "\u4e5d\u9f8d",
          "short_name": "\u4e5d\u9f8d",
          "types": [
            "administrative_area_level_1",
            "political"
          ]
        },
        {
          "long_name": "\u9999\u6e2f",
          "short_name": "HK",
          "types": [
            "country",
            "political"
          ]
        }
      ],
      "formatted_address": "\u9999\u6e2f\u5c16\u6771\u79d1\u5b78\u9928\u905314\u865f",
      "geometry": {
        "location": {
          "lat": 22.300625,
          "lng": 114.178764
        },
        "location_type": "ROOFTOP",
        "viewport": {
          "northeast": {
            "lat": 22.3019739802915,
            "lng": 114.1801129802915
          },
          "southwest": {
            "lat": 22.2992760197085,
            "lng": 114.1774150197085
          }
        }
      },
      "partial_match": true,
      "place_id": "ChIJtxSWQu8ABDQRDgyTa_Wy2YQ",
      "plus_code": {
        "compound_code": "852H+6G \u9999\u6e2f",
        "global_code": "7PJP852H+6G"
      },
      "types": [
        "establishment",
        "point_of_interest"
      ]
    },
    {
      "address_components": [
        {
          "long_name": "\u5c16\u6771",
          "short_name": "\u5c16\u6771",
          "types": [
            "neighborhood",
            "political"
          ]
        },
        {
          "long_name": "\u4e5d\u9f8d",
          "short_name": "\u4e5d\u9f8d",
          "types": [
            "administrative_area_level_1",
            "political"
          ]
        },
        {
          "long_name": "\u9999\u6e2f",
          "short_name": "HK",
          "types": [
            "country",
            "political"
          ]
        }
      ],
      "formatted_address": "\u9999\u6e2f\u5c16\u6771",
      "geometry": {
        "location": {
          "lat": 22.3002017,
          "lng": 114.1789746
        },
        "location_type": "GEOMETRIC_CENTER",
        "viewport": {
          "northeast": {
            "lat": 22.3015506802915,
            "lng": 114.1803235802915
          },
          "southwest": {
            "lat": 22.2988527197085,
            "lng": 114.1776256197085
          }
        }
      },
      "partial_match": true,
      "place_id": "ChIJZQ50Zu8ABDQRWpuPtxiGBNs",
      "plus_code": {
        "compound_code": "852H+3H \u9999\u6e2f",
        "global_code": "7PJP852H+3H"
      },
      "types": [
        "establishment",
        "food",
        "point_of_interest",
        "restaurant"
      ]
    }
  ],
  "licno": "2261814356",
  "timestamp": 1564968756,
  "version": "1564966095"
}
