{
  "adr_en": "\u7d05\u5c4b\u4ed4\u79c1\u623f\u83dc, G/F, 6A PALM SPRINGS BOULEVARD, MAI PO, YUEN LONG, NEW TERRITORIES",
  "adr_tc": "\u65b0\u754c\u5143\u6717\u7c73\u57d4\u52a0\u5dde\u82b1\u5712\u5927\u90536A\u865f\u5730\u4e0b \u7d05\u5c4b\u4ed4\u79c1\u623f\u83dc",
  "geocode_en": [
    {
      "address_components": [
        {
          "long_name": "Hong Kong",
          "short_name": "HK",
          "types": [
            "country",
            "political"
          ]
        }
      ],
      "formatted_address": "G/F, 6A Palm Springs Boulevard, Mai Po, Yuen Long, New Territories, Hong Kong",
      "geometry": {
        "location": {
          "lat": 22.4856955,
          "lng": 114.0577821
        },
        "location_type": "GEOMETRIC_CENTER",
        "viewport": {
          "northeast": {
            "lat": 22.4870444802915,
            "lng": 114.0591310802915
          },
          "southwest": {
            "lat": 22.4843465197085,
            "lng": 114.0564331197085
          }
        }
      },
      "place_id": "ChIJEU6yutX2AzQRC94VVUXN7Iw",
      "plus_code": {
        "compound_code": "F3P5+74 Hong Kong",
        "global_code": "7PJPF3P5+74"
      },
      "types": [
        "establishment",
        "point_of_interest"
      ]
    }
  ],
  "geocode_tc": [
    {
      "address_components": [
        {
          "long_name": "\u9999\u6e2f",
          "short_name": "HK",
          "types": [
            "country",
            "political"
          ]
        }
      ],
      "formatted_address": "\u9999\u6e2f\u5143\u6717\u7c73\u57d4\u52a0\u5dde\u5927\u90536\u865f",
      "geometry": {
        "location": {
          "lat": 22.485599,
          "lng": 114.0577447
        },
        "location_type": "GEOMETRIC_CENTER",
        "viewport": {
          "northeast": {
            "lat": 22.4869479802915,
            "lng": 114.0590936802915
          },
          "southwest": {
            "lat": 22.4842500197085,
            "lng": 114.0563957197085
          }
        }
      },
      "place_id": "ChIJdcm3ilj3AzQRatrj3IEATco",
      "plus_code": {
        "compound_code": "F3P5+63 \u9999\u6e2f",
        "global_code": "7PJPF3P5+63"
      },
      "types": [
        "establishment",
        "food",
        "point_of_interest",
        "restaurant"
      ]
    },
    {
      "address_components": [
        {
          "long_name": "\u9999\u6e2f",
          "short_name": "HK",
          "types": [
            "country",
            "political"
          ]
        }
      ],
      "formatted_address": "G/F, 6A Palm Springs Boulevard, Mai Po, Yuen Long, New Territories, \u9999\u6e2f",
      "geometry": {
        "location": {
          "lat": 22.4856955,
          "lng": 114.0577821
        },
        "location_type": "GEOMETRIC_CENTER",
        "viewport": {
          "northeast": {
            "lat": 22.4870444802915,
            "lng": 114.0591310802915
          },
          "southwest": {
            "lat": 22.4843465197085,
            "lng": 114.0564331197085
          }
        }
      },
      "place_id": "ChIJEU6yutX2AzQRC94VVUXN7Iw",
      "plus_code": {
        "compound_code": "F3P5+74 \u9999\u6e2f",
        "global_code": "7PJPF3P5+74"
      },
      "types": [
        "establishment",
        "point_of_interest"
      ]
    }
  ],
  "licno": "2294803495",
  "timestamp": 1564975666,
  "version": "1564966095"
}
