{
  "adr_en": "CLUBONE REPULSE BAY, 1/F (PORTION) & G/F., SEA VIEW BUILDING, 16 BEACH ROAD, REPULSE BAY, HONG KONG",
  "adr_tc": "\u9999\u6e2f\u6dfa\u6c34\u7063\u6d77\u7058\u905316\u865f \u6d77\u666f\u5927\u6a13\u5730\u4e0b\u53ca1\u6a13(\u90e8\u4efd) \u6703\u62401\u865f\u6dfa\u6c34\u7063",
  "geocode_en": [
    {
      "address_components": [
        {
          "long_name": "16\u865f",
          "short_name": "16\u865f",
          "types": [
            "street_number"
          ]
        },
        {
          "long_name": "Beach Road",
          "short_name": "Beach Rd",
          "types": [
            "route"
          ]
        },
        {
          "long_name": "Repulse Bay",
          "short_name": "Repulse Bay",
          "types": [
            "neighborhood",
            "political"
          ]
        },
        {
          "long_name": "Hong Kong Island",
          "short_name": "Hong Kong Island",
          "types": [
            "administrative_area_level_1",
            "political"
          ]
        },
        {
          "long_name": "Hong Kong",
          "short_name": "HK",
          "types": [
            "country",
            "political"
          ]
        }
      ],
      "formatted_address": "16\u865f Beach Rd, Repulse Bay, Hong Kong",
      "geometry": {
        "location": {
          "lat": 22.2380636,
          "lng": 114.1954195
        },
        "location_type": "ROOFTOP",
        "viewport": {
          "northeast": {
            "lat": 22.2394125802915,
            "lng": 114.1967684802915
          },
          "southwest": {
            "lat": 22.2367146197085,
            "lng": 114.1940705197085
          }
        }
      },
      "partial_match": true,
      "place_id": "ChIJF_E2iNUBBDQRF820sCoFXXI",
      "plus_code": {
        "compound_code": "65QW+65 Repulse Bay, Hong Kong",
        "global_code": "7PJP65QW+65"
      },
      "types": [
        "establishment",
        "point_of_interest"
      ]
    },
    {
      "address_components": [
        {
          "long_name": "16",
          "short_name": "16",
          "types": [
            "street_number"
          ]
        },
        {
          "long_name": "Beach Road",
          "short_name": "Beach Rd",
          "types": [
            "route"
          ]
        },
        {
          "long_name": "Repulse Bay",
          "short_name": "Repulse Bay",
          "types": [
            "neighborhood",
            "political"
          ]
        },
        {
          "long_name": "Hong Kong Island",
          "short_name": "Hong Kong Island",
          "types": [
            "administrative_area_level_1",
            "political"
          ]
        },
        {
          "long_name": "Hong Kong",
          "short_name": "HK",
          "types": [
            "country",
            "political"
          ]
        }
      ],
      "formatted_address": "16 Beach Rd, Repulse Bay, Hong Kong",
      "geometry": {
        "bounds": {
          "northeast": {
            "lat": 22.2382911,
            "lng": 114.195816
          },
          "southwest": {
            "lat": 22.2378351,
            "lng": 114.1949969
          }
        },
        "location": {
          "lat": 22.2380636,
          "lng": 114.1954195
        },
        "location_type": "ROOFTOP",
        "viewport": {
          "northeast": {
            "lat": 22.2394120802915,
            "lng": 114.1967554302915
          },
          "southwest": {
            "lat": 22.2367141197085,
            "lng": 114.1940574697085
          }
        }
      },
      "partial_match": true,
      "place_id": "ChIJAYa0idUBBDQR-qyjdM8oA00",
      "types": [
        "premise"
      ]
    },
    {
      "address_components": [
        {
          "long_name": "PORTION) & G/F",
          "short_name": "PORTION) & G/F",
          "types": [
            "subpremise"
          ]
        },
        {
          "long_name": "16",
          "short_name": "16",
          "types": [
            "street_number"
          ]
        },
        {
          "long_name": "Beach Road",
          "short_name": "Beach Rd",
          "types": [
            "route"
          ]
        },
        {
          "long_name": "Repulse Bay",
          "short_name": "Repulse Bay",
          "types": [
            "neighborhood",
            "political"
          ]
        },
        {
          "long_name": "Hong Kong Island",
          "short_name": "Hong Kong Island",
          "types": [
            "administrative_area_level_1",
            "political"
          ]
        },
        {
          "long_name": "Hong Kong",
          "short_name": "HK",
          "types": [
            "country",
            "political"
          ]
        }
      ],
      "formatted_address": "PORTION) & G/F, 16 Beach Rd, Repulse Bay, Hong Kong",
      "geometry": {
        "bounds": {
          "northeast": {
            "lat": 22.2382911,
            "lng": 114.195816
          },
          "southwest": {
            "lat": 22.2378351,
            "lng": 114.1949969
          }
        },
        "location": {
          "lat": 22.2380636,
          "lng": 114.1954195
        },
        "location_type": "ROOFTOP",
        "viewport": {
          "northeast": {
            "lat": 22.2394120802915,
            "lng": 114.1967554302915
          },
          "southwest": {
            "lat": 22.2367141197085,
            "lng": 114.1940574697085
          }
        }
      },
      "partial_match": true,
      "place_id": "EjNQT1JUSU9OKSAmIEcvRiwgMTYgQmVhY2ggUmQsIFJlcHVsc2UgQmF5LCBIb25nIEtvbmciKhooChYKFAoSCQGGtInVAQQ0Efqso3TPKANNEg5QT1JUSU9OKSAmIEcvRg",
      "types": [
        "subpremise"
      ]
    }
  ],
  "geocode_tc": [
    {
      "address_components": [
        {
          "long_name": "16",
          "short_name": "16",
          "types": [
            "street_number"
          ]
        },
        {
          "long_name": "\u6d77\u7058\u9053",
          "short_name": "\u6d77\u7058\u9053",
          "types": [
            "route"
          ]
        },
        {
          "long_name": "\u6dfa\u6c34\u7063",
          "short_name": "\u6dfa\u6c34\u7063",
          "types": [
            "neighborhood",
            "political"
          ]
        },
        {
          "long_name": "\u9999\u6e2f\u5cf6",
          "short_name": "\u9999\u6e2f\u5cf6",
          "types": [
            "administrative_area_level_1",
            "political"
          ]
        },
        {
          "long_name": "\u9999\u6e2f",
          "short_name": "HK",
          "types": [
            "country",
            "political"
          ]
        }
      ],
      "formatted_address": "\u9999\u6e2f\u6dfa\u6c34\u7063\u6d77\u7058\u905316\u865f",
      "geometry": {
        "bounds": {
          "northeast": {
            "lat": 22.2382911,
            "lng": 114.195816
          },
          "southwest": {
            "lat": 22.2378351,
            "lng": 114.1949969
          }
        },
        "location": {
          "lat": 22.2380636,
          "lng": 114.1954195
        },
        "location_type": "ROOFTOP",
        "viewport": {
          "northeast": {
            "lat": 22.2394120802915,
            "lng": 114.1967554302915
          },
          "southwest": {
            "lat": 22.2367141197085,
            "lng": 114.1940574697085
          }
        }
      },
      "partial_match": true,
      "place_id": "ChIJAYa0idUBBDQR-qyjdM8oA00",
      "types": [
        "premise"
      ]
    },
    {
      "address_components": [
        {
          "long_name": "16\u865f",
          "short_name": "16\u865f",
          "types": [
            "street_number"
          ]
        },
        {
          "long_name": "\u6d77\u7058\u9053",
          "short_name": "\u6d77\u7058\u9053",
          "types": [
            "route"
          ]
        },
        {
          "long_name": "\u6dfa\u6c34\u7063",
          "short_name": "\u6dfa\u6c34\u7063",
          "types": [
            "neighborhood",
            "political"
          ]
        },
        {
          "long_name": "\u9999\u6e2f\u5cf6",
          "short_name": "\u9999\u6e2f\u5cf6",
          "types": [
            "administrative_area_level_1",
            "political"
          ]
        },
        {
          "long_name": "\u9999\u6e2f",
          "short_name": "HK",
          "types": [
            "country",
            "political"
          ]
        }
      ],
      "formatted_address": "\u9999\u6e2f\u6dfa\u6c34\u7063\u6d77\u7058\u905316\u865f",
      "geometry": {
        "location": {
          "lat": 22.238062,
          "lng": 114.195407
        },
        "location_type": "ROOFTOP",
        "viewport": {
          "northeast": {
            "lat": 22.2394109802915,
            "lng": 114.1967559802915
          },
          "southwest": {
            "lat": 22.2367130197085,
            "lng": 114.1940580197085
          }
        }
      },
      "partial_match": true,
      "place_id": "ChIJG4m0idUBBDQRPcbQrrY106M",
      "plus_code": {
        "compound_code": "65QW+65 \u9999\u6e2f",
        "global_code": "7PJP65QW+65"
      },
      "types": [
        "establishment",
        "point_of_interest"
      ]
    }
  ],
  "licno": "2215801465",
  "timestamp": 1564968756,
  "version": "1564966095"
}
