{
  "adr_en": "\u91d1\u57df\u8ed2, SHOP G, H, I, G/F, CHAN KEE PLAZA, 42 CASTLE PEAK ROAD, SHAM TSENG, TSUEN WAN, NEW TERRITORIES",
  "adr_tc": "\u65b0\u754c\u8343\u7063\u6df1\u4e95\u9752\u5c71\u516c\u8def42\u865f\u9673\u8a18\u5ee3\u5834\u5730\u4e0bG,H,I \u8216 \u91d1\u57df\u8ed2",
  "geocode_en": [
    {
      "address_components": [
        {
          "long_name": "42\u865f",
          "short_name": "42\u865f",
          "types": [
            "street_number"
          ]
        },
        {
          "long_name": "Castle Peak Road (Ting Kau)",
          "short_name": "Castle Peak Rd (Ting Kau)",
          "types": [
            "route"
          ]
        },
        {
          "long_name": "Sham Tseng",
          "short_name": "Sham Tseng",
          "types": [
            "neighborhood",
            "political"
          ]
        },
        {
          "long_name": "Hong Kong",
          "short_name": "HK",
          "types": [
            "country",
            "political"
          ]
        }
      ],
      "formatted_address": "Hong Kong, Sham Tseng, Castle Peak Rd (Ting Kau), 42\u865f\u9673\u8a18\u5ee3\u5834\u5730\u4e0bG-I\u865f\u8216",
      "geometry": {
        "location": {
          "lat": 22.368088,
          "lng": 114.060472
        },
        "location_type": "ROOFTOP",
        "viewport": {
          "northeast": {
            "lat": 22.3694369802915,
            "lng": 114.0618209802915
          },
          "southwest": {
            "lat": 22.3667390197085,
            "lng": 114.0591230197085
          }
        }
      },
      "partial_match": true,
      "place_id": "ChIJyQV9Kl35AzQReRReFo2noBc",
      "plus_code": {
        "compound_code": "9396+65 Hong Kong",
        "global_code": "7PJP9396+65"
      },
      "types": [
        "establishment",
        "food",
        "point_of_interest",
        "restaurant"
      ]
    },
    {
      "address_components": [
        {
          "long_name": "Hong Kong",
          "short_name": "HK",
          "types": [
            "country",
            "political"
          ]
        }
      ],
      "formatted_address": "Hong Kong, \u6df1\u4e95\u9752\u5c71\u516c\u8def\u6df1\u4e95\u675163\u865f\u5730\u4e0b",
      "geometry": {
        "location": {
          "lat": 22.367346,
          "lng": 114.059331
        },
        "location_type": "GEOMETRIC_CENTER",
        "viewport": {
          "northeast": {
            "lat": 22.3686949802915,
            "lng": 114.0606799802915
          },
          "southwest": {
            "lat": 22.36599701970849,
            "lng": 114.0579820197085
          }
        }
      },
      "partial_match": true,
      "place_id": "ChIJq-zf2Vz5AzQRehjO-wjWnYk",
      "plus_code": {
        "compound_code": "9385+WP Hong Kong",
        "global_code": "7PJP9385+WP"
      },
      "types": [
        "establishment",
        "food",
        "point_of_interest",
        "restaurant"
      ]
    },
    {
      "address_components": [
        {
          "long_name": "42",
          "short_name": "42",
          "types": [
            "street_number"
          ]
        },
        {
          "long_name": "Castle Peak Road (Sham Tseng)",
          "short_name": "Castle Peak Rd (Sham Tseng)",
          "types": [
            "route"
          ]
        },
        {
          "long_name": "Sham Tseng",
          "short_name": "Sham Tseng",
          "types": [
            "neighborhood",
            "political"
          ]
        },
        {
          "long_name": "New Territories",
          "short_name": "New Territories",
          "types": [
            "administrative_area_level_1",
            "political"
          ]
        },
        {
          "long_name": "Hong Kong",
          "short_name": "HK",
          "types": [
            "country",
            "political"
          ]
        }
      ],
      "formatted_address": "42 Castle Peak Rd (Sham Tseng), Sham Tseng, Hong Kong",
      "geometry": {
        "bounds": {
          "northeast": {
            "lat": 22.3681901,
            "lng": 114.0605671
          },
          "southwest": {
            "lat": 22.3679949,
            "lng": 114.060386
          }
        },
        "location": {
          "lat": 22.3680881,
          "lng": 114.0604846
        },
        "location_type": "ROOFTOP",
        "viewport": {
          "northeast": {
            "lat": 22.3694414802915,
            "lng": 114.0618255302915
          },
          "southwest": {
            "lat": 22.3667435197085,
            "lng": 114.0591275697085
          }
        }
      },
      "partial_match": true,
      "place_id": "ChIJXZBmKl35AzQReoLa1Tmoupo",
      "types": [
        "premise"
      ]
    }
  ],
  "geocode_tc": [
    {
      "address_components": [
        {
          "long_name": "42\u865f",
          "short_name": "42\u865f",
          "types": [
            "street_number"
          ]
        },
        {
          "long_name": "Castle Peak Road (Ting Kau)",
          "short_name": "Castle Peak Rd (Ting Kau)",
          "types": [
            "route"
          ]
        },
        {
          "long_name": "\u6df1\u4e95",
          "short_name": "\u6df1\u4e95",
          "types": [
            "neighborhood",
            "political"
          ]
        },
        {
          "long_name": "\u9999\u6e2f",
          "short_name": "HK",
          "types": [
            "country",
            "political"
          ]
        }
      ],
      "formatted_address": "\u9999\u6e2f\u6df1\u4e95 Castle Peak Rd (Ting Kau), 42\u865f\u9673\u8a18\u5ee3\u5834\u5730\u4e0bG-I\u865f\u8216",
      "geometry": {
        "location": {
          "lat": 22.368088,
          "lng": 114.060472
        },
        "location_type": "ROOFTOP",
        "viewport": {
          "northeast": {
            "lat": 22.3694369802915,
            "lng": 114.0618209802915
          },
          "southwest": {
            "lat": 22.3667390197085,
            "lng": 114.0591230197085
          }
        }
      },
      "place_id": "ChIJyQV9Kl35AzQReRReFo2noBc",
      "plus_code": {
        "compound_code": "9396+65 \u9999\u6e2f",
        "global_code": "7PJP9396+65"
      },
      "types": [
        "establishment",
        "food",
        "point_of_interest",
        "restaurant"
      ]
    }
  ],
  "licno": "2292803394",
  "timestamp": 1564968756,
  "version": "1564966095"
}
