{
  "adr_en": "ANY MOMENT, 9/F., HANWAY COMMERCIAL CENTRE, 36 DUNDAS STREET, MONG KOK, KOWLOON",
  "adr_tc": "\u4e5d\u9f8d\u65fa\u89d2\u767b\u6253\u58eb\u885736\u865f \u6052\u5a01\u5546\u696d\u5927\u5ec89\u6a13 ANY MOMENT",
  "geocode_en": [
    {
      "address_components": [
        {
          "long_name": "Yau Ma Tei",
          "short_name": "Yau Ma Tei",
          "types": [
            "neighborhood",
            "political"
          ]
        },
        {
          "long_name": "Kowloon",
          "short_name": "Kowloon",
          "types": [
            "administrative_area_level_1",
            "political"
          ]
        },
        {
          "long_name": "Hong Kong",
          "short_name": "HK",
          "types": [
            "country",
            "political"
          ]
        }
      ],
      "formatted_address": "Hong Kong, Yau Ma Tei, \u65fa\u89d2\u767b\u6253\u58eb\u885736\u865f\u6052\u5a01\u5546\u696d\u4e2d\u5fc39\u6a13\u5168\u5c64",
      "geometry": {
        "location": {
          "lat": 22.315084,
          "lng": 114.169816
        },
        "location_type": "GEOMETRIC_CENTER",
        "viewport": {
          "northeast": {
            "lat": 22.3164329802915,
            "lng": 114.1711649802915
          },
          "southwest": {
            "lat": 22.3137350197085,
            "lng": 114.1684670197085
          }
        }
      },
      "partial_match": true,
      "place_id": "ChIJL0lOMMcABDQR2VEnS71wKhE",
      "plus_code": {
        "compound_code": "8589+2W Yau Ma Tei, Hong Kong",
        "global_code": "7PJP8589+2W"
      },
      "types": [
        "cafe",
        "establishment",
        "food",
        "point_of_interest"
      ]
    },
    {
      "address_components": [
        {
          "long_name": "Hanway Commercial Centre",
          "short_name": "Hanway Commercial Centre",
          "types": [
            "premise"
          ]
        },
        {
          "long_name": "36",
          "short_name": "36",
          "types": [
            "street_number"
          ]
        },
        {
          "long_name": "Dundas Street",
          "short_name": "Dundas St",
          "types": [
            "route"
          ]
        },
        {
          "long_name": "Mong Kok",
          "short_name": "Mong Kok",
          "types": [
            "neighborhood",
            "political"
          ]
        },
        {
          "long_name": "Kowloon",
          "short_name": "Kowloon",
          "types": [
            "administrative_area_level_1",
            "political"
          ]
        },
        {
          "long_name": "Hong Kong",
          "short_name": "HK",
          "types": [
            "country",
            "political"
          ]
        }
      ],
      "formatted_address": "Hanway Commercial Centre, 36 Dundas St, Mong Kok, Hong Kong",
      "geometry": {
        "bounds": {
          "northeast": {
            "lat": 22.3151679,
            "lng": 114.1698601
          },
          "southwest": {
            "lat": 22.3150001,
            "lng": 114.169771
          }
        },
        "location": {
          "lat": 22.3150862,
          "lng": 114.1698175
        },
        "location_type": "ROOFTOP",
        "viewport": {
          "northeast": {
            "lat": 22.3164329802915,
            "lng": 114.1711645302915
          },
          "southwest": {
            "lat": 22.3137350197085,
            "lng": 114.1684665697085
          }
        }
      },
      "partial_match": true,
      "place_id": "ChIJj1BOMMcABDQRZP8JnyesCz0",
      "types": [
        "premise"
      ]
    }
  ],
  "geocode_tc": [
    {
      "address_components": [
        {
          "long_name": "\u6cb9\u9ebb\u5730",
          "short_name": "\u6cb9\u9ebb\u5730",
          "types": [
            "neighborhood",
            "political"
          ]
        },
        {
          "long_name": "\u4e5d\u9f8d",
          "short_name": "\u4e5d\u9f8d",
          "types": [
            "administrative_area_level_1",
            "political"
          ]
        },
        {
          "long_name": "\u9999\u6e2f",
          "short_name": "HK",
          "types": [
            "country",
            "political"
          ]
        }
      ],
      "formatted_address": "\u9999\u6e2f\u6cb9\u9ebb\u5730\u65fa\u89d2\u767b\u6253\u58eb\u885736\u865f\u6052\u5a01\u5546\u696d\u4e2d\u5fc39\u6a13\u5168\u5c64",
      "geometry": {
        "location": {
          "lat": 22.315084,
          "lng": 114.169816
        },
        "location_type": "GEOMETRIC_CENTER",
        "viewport": {
          "northeast": {
            "lat": 22.3164329802915,
            "lng": 114.1711649802915
          },
          "southwest": {
            "lat": 22.3137350197085,
            "lng": 114.1684670197085
          }
        }
      },
      "place_id": "ChIJL0lOMMcABDQR2VEnS71wKhE",
      "plus_code": {
        "compound_code": "8589+2W \u9999\u6e2f\u6cb9\u9ebb\u5730",
        "global_code": "7PJP8589+2W"
      },
      "types": [
        "cafe",
        "establishment",
        "food",
        "point_of_interest"
      ]
    }
  ],
  "licno": "3161801497",
  "timestamp": 1564975666,
  "version": "1564966095"
}
