{
  "adr_en": "\u99ac\u8a18\u8336\u9910\u5ef3, SHOP NO. 1, G/F, SING SHING BUILDING, 19 SHEK YAM ROAD, KWAI CHUNG, NEW TERRITORIES",
  "adr_tc": "\u65b0\u754c\u8475\u6d8c\u77f3\u852d\u8def19\u865f \u6210\u57ce\u5927\u5ec8\u5730\u4e0b1\u865f\u92ea \u99ac\u8a18\u8336\u9910\u5ef3",
  "geocode_en": [
    {
      "address_components": [
        {
          "long_name": "Hong Kong",
          "short_name": "HK",
          "types": [
            "country",
            "political"
          ]
        }
      ],
      "formatted_address": "Hong Kong, \u8475\u6d8c\u77f3\u852d\u8def\u6210\u57ce\u5927\u5ec8\u5730\u4e0b",
      "geometry": {
        "location": {
          "lat": 22.3680214,
          "lng": 114.1394429
        },
        "location_type": "GEOMETRIC_CENTER",
        "viewport": {
          "northeast": {
            "lat": 22.36937038029151,
            "lng": 114.1407918802915
          },
          "southwest": {
            "lat": 22.3666724197085,
            "lng": 114.1380939197085
          }
        }
      },
      "partial_match": true,
      "place_id": "ChIJYfWMlJz4AzQRZVK9GH2Y7Vo",
      "plus_code": {
        "compound_code": "949Q+6Q Hong Kong",
        "global_code": "7PJP949Q+6Q"
      },
      "types": [
        "establishment",
        "food",
        "point_of_interest",
        "restaurant"
      ]
    },
    {
      "address_components": [
        {
          "long_name": "19",
          "short_name": "19",
          "types": [
            "street_number"
          ]
        },
        {
          "long_name": "Shek Yam Road",
          "short_name": "Shek Yam Rd",
          "types": [
            "route"
          ]
        },
        {
          "long_name": "Kwai Chung",
          "short_name": "Kwai Chung",
          "types": [
            "neighborhood",
            "political"
          ]
        },
        {
          "long_name": "New Territories",
          "short_name": "New Territories",
          "types": [
            "administrative_area_level_1",
            "political"
          ]
        },
        {
          "long_name": "Hong Kong",
          "short_name": "HK",
          "types": [
            "country",
            "political"
          ]
        }
      ],
      "formatted_address": "19 Shek Yam Rd, Kwai Chung, Hong Kong",
      "geometry": {
        "location": {
          "lat": 22.3680845,
          "lng": 114.1395668
        },
        "location_type": "RANGE_INTERPOLATED",
        "viewport": {
          "northeast": {
            "lat": 22.3694334802915,
            "lng": 114.1409157802915
          },
          "southwest": {
            "lat": 22.3667355197085,
            "lng": 114.1382178197085
          }
        }
      },
      "partial_match": true,
      "place_id": "EiUxOSBTaGVrIFlhbSBSZCwgS3dhaSBDaHVuZywgSG9uZyBLb25nIhoSGAoUChIJ4RcG65z4AzQR-NU3z6hJwE8QEw",
      "types": [
        "street_address"
      ]
    }
  ],
  "geocode_tc": [
    {
      "address_components": [
        {
          "long_name": "\u9999\u6e2f",
          "short_name": "HK",
          "types": [
            "country",
            "political"
          ]
        }
      ],
      "formatted_address": "\u9999\u6e2f\u8475\u6d8c\u77f3\u852d\u8def\u6210\u57ce\u5927\u5ec8\u5730\u4e0b",
      "geometry": {
        "location": {
          "lat": 22.3680214,
          "lng": 114.1394429
        },
        "location_type": "GEOMETRIC_CENTER",
        "viewport": {
          "northeast": {
            "lat": 22.36937038029151,
            "lng": 114.1407918802915
          },
          "southwest": {
            "lat": 22.3666724197085,
            "lng": 114.1380939197085
          }
        }
      },
      "place_id": "ChIJYfWMlJz4AzQRZVK9GH2Y7Vo",
      "plus_code": {
        "compound_code": "949Q+6Q \u9999\u6e2f",
        "global_code": "7PJP949Q+6Q"
      },
      "types": [
        "establishment",
        "food",
        "point_of_interest",
        "restaurant"
      ]
    }
  ],
  "licno": "2291002125",
  "timestamp": 1564968756,
  "version": "1564966095"
}
