{
  "adr_en": "\u5c0f\u4e0a\u6d77, SHOP 4, LG/F, KWAI PO BUILDING, 112 LEI MUK ROAD, KWAI CHUNG, NEW TERRITORIES",
  "adr_tc": "\u65b0\u754c\u8475\u6d8c\u68a8\u6728\u9053112\u865f\u8475\u5bf6\u5927\u5ec8\u4f4e\u5c644\u865f\u92ea \u5c0f\u4e0a\u6d77",
  "geocode_en": [
    {
      "address_components": [
        {
          "long_name": "Hong Kong",
          "short_name": "HK",
          "types": [
            "country",
            "political"
          ]
        }
      ],
      "formatted_address": "Hong Kong, \u8475\u6d8c \u68a8\u6728\u9053112\u865f\u8475\u5bf6\u5927\u5ec8\u4f4e\u5c644\u865f\u92ea",
      "geometry": {
        "location": {
          "lat": 22.3708803,
          "lng": 114.1379845
        },
        "location_type": "GEOMETRIC_CENTER",
        "viewport": {
          "northeast": {
            "lat": 22.37222928029151,
            "lng": 114.1393334802915
          },
          "southwest": {
            "lat": 22.3695313197085,
            "lng": 114.1366355197085
          }
        }
      },
      "partial_match": true,
      "place_id": "ChIJlfOMX4P4AzQRd4cKVKb-xTE",
      "plus_code": {
        "compound_code": "94CQ+95 Hong Kong",
        "global_code": "7PJP94CQ+95"
      },
      "types": [
        "establishment",
        "food",
        "point_of_interest",
        "restaurant"
      ]
    },
    {
      "address_components": [
        {
          "long_name": "Kwai Po Building",
          "short_name": "Kwai Po Building",
          "types": [
            "premise"
          ]
        },
        {
          "long_name": "102",
          "short_name": "102",
          "types": [
            "street_number"
          ]
        },
        {
          "long_name": "Lei Muk Road",
          "short_name": "Lei Muk Rd",
          "types": [
            "route"
          ]
        },
        {
          "long_name": "Shek Yam",
          "short_name": "Shek Yam",
          "types": [
            "neighborhood",
            "political"
          ]
        },
        {
          "long_name": "New Territories",
          "short_name": "New Territories",
          "types": [
            "administrative_area_level_1",
            "political"
          ]
        },
        {
          "long_name": "Hong Kong",
          "short_name": "HK",
          "types": [
            "country",
            "political"
          ]
        }
      ],
      "formatted_address": "Kwai Po Building, 102 Lei Muk Rd, Shek Yam, Hong Kong",
      "geometry": {
        "bounds": {
          "northeast": {
            "lat": 22.3709761,
            "lng": 114.138482
          },
          "southwest": {
            "lat": 22.370454,
            "lng": 114.1378796
          }
        },
        "location": {
          "lat": 22.3707591,
          "lng": 114.1381274
        },
        "location_type": "ROOFTOP",
        "viewport": {
          "northeast": {
            "lat": 22.3720640302915,
            "lng": 114.1395297802915
          },
          "southwest": {
            "lat": 22.3693660697085,
            "lng": 114.1368318197085
          }
        }
      },
      "partial_match": true,
      "place_id": "ChIJi9TRWIP4AzQR3DBbdv0Fnoc",
      "types": [
        "premise"
      ]
    }
  ],
  "geocode_tc": [
    {
      "address_components": [
        {
          "long_name": "\u9999\u6e2f",
          "short_name": "HK",
          "types": [
            "country",
            "political"
          ]
        }
      ],
      "formatted_address": "\u9999\u6e2f\u8475\u6d8c \u68a8\u6728\u9053112\u865f\u8475\u5bf6\u5927\u5ec8\u4f4e\u5c644\u865f\u92ea",
      "geometry": {
        "location": {
          "lat": 22.3708803,
          "lng": 114.1379845
        },
        "location_type": "GEOMETRIC_CENTER",
        "viewport": {
          "northeast": {
            "lat": 22.37222928029151,
            "lng": 114.1393334802915
          },
          "southwest": {
            "lat": 22.3695313197085,
            "lng": 114.1366355197085
          }
        }
      },
      "place_id": "ChIJlfOMX4P4AzQRd4cKVKb-xTE",
      "plus_code": {
        "compound_code": "94CQ+95 \u9999\u6e2f",
        "global_code": "7PJP94CQ+95"
      },
      "types": [
        "establishment",
        "food",
        "point_of_interest",
        "restaurant"
      ]
    }
  ],
  "licno": "3191800864",
  "timestamp": 1564975666,
  "version": "1564966095"
}
