{
  "adr_en": "\u6591\u99ac\u7dda, G/F, SHOP NO. 5, 370-376 MA TAU WAI ROAD, KOWLOON",
  "adr_tc": "\u4e5d\u9f8d\u99ac\u982d\u570d\u9053370-376\u865f\u5730\u4e0b5\u865f\u8216 \u6591\u99ac\u7dda",
  "geocode_en": [
    {
      "address_components": [
        {
          "long_name": "Ma Tau Wai Road",
          "short_name": "Ma Tau Wai Rd",
          "types": [
            "route"
          ]
        },
        {
          "long_name": "Kowloon",
          "short_name": "Kowloon",
          "types": [
            "administrative_area_level_1",
            "political"
          ]
        },
        {
          "long_name": "Hong Kong",
          "short_name": "HK",
          "types": [
            "country",
            "political"
          ]
        }
      ],
      "formatted_address": "Ma Tau Wai Rd, Hong Kong",
      "geometry": {
        "bounds": {
          "northeast": {
            "lat": 22.3222776,
            "lng": 114.1885228
          },
          "southwest": {
            "lat": 22.3062349,
            "lng": 114.1855505
          }
        },
        "location": {
          "lat": 22.314341,
          "lng": 114.187353
        },
        "location_type": "GEOMETRIC_CENTER",
        "viewport": {
          "northeast": {
            "lat": 22.3222776,
            "lng": 114.1885228
          },
          "southwest": {
            "lat": 22.3062349,
            "lng": 114.1855505
          }
        }
      },
      "partial_match": true,
      "place_id": "ChIJT_rtCtkABDQRWOdYHVmb8H4",
      "types": [
        "route"
      ]
    }
  ],
  "geocode_tc": [
    {
      "address_components": [
        {
          "long_name": "5",
          "short_name": "5",
          "types": [
            "subpremise"
          ]
        },
        {
          "long_name": "370-376\u865f",
          "short_name": "370-376\u865f",
          "types": [
            "street_number"
          ]
        },
        {
          "long_name": "\u99ac\u982d\u570d\u9053",
          "short_name": "\u99ac\u982d\u570d\u9053",
          "types": [
            "route"
          ]
        },
        {
          "long_name": "\u571f\u74dc\u7063",
          "short_name": "\u571f\u74dc\u7063",
          "types": [
            "neighborhood",
            "political"
          ]
        },
        {
          "long_name": "\u9999\u6e2f",
          "short_name": "HK",
          "types": [
            "country",
            "political"
          ]
        }
      ],
      "formatted_address": "\u9999\u6e2f\u571f\u74dc\u7063\u99ac\u982d\u570d\u9053370-376\u865f5\u865f\u8216",
      "geometry": {
        "location": {
          "lat": 22.3184801,
          "lng": 114.1874096
        },
        "location_type": "ROOFTOP",
        "viewport": {
          "northeast": {
            "lat": 22.31982908029151,
            "lng": 114.1887585802915
          },
          "southwest": {
            "lat": 22.3171311197085,
            "lng": 114.1860606197085
          }
        }
      },
      "place_id": "ChIJ2avObtcABDQR0UWt7QqwvdM",
      "plus_code": {
        "compound_code": "859P+9X \u9999\u6e2f",
        "global_code": "7PJP859P+9X"
      },
      "types": [
        "establishment",
        "food",
        "point_of_interest",
        "restaurant"
      ]
    }
  ],
  "licno": "2252801101",
  "timestamp": 1564968756,
  "version": "1564966095"
}
