{
  "adr_en": "RAMEN MASTER LIMITED, SHOP NO. 4, G/F, HAVEN MANSION, 108 WOOSUNG STREET, JORDAN, KOWLOON",
  "adr_tc": "\u4e5d\u9f8d\u4f50\u6566\u5433\u677e\u8857108\u865f\u986f\u767c\u5927\u5ec8\u5730\u4e0b4\u865f\u8216 \u62c9\u9eb5\u9054\u4eba\u6709\u9650\u516c\u53f8",
  "geocode_en": [
    {
      "address_components": [
        {
          "long_name": "Haven Mansion",
          "short_name": "Haven Mansion",
          "types": [
            "premise"
          ]
        },
        {
          "long_name": "108",
          "short_name": "108",
          "types": [
            "street_number"
          ]
        },
        {
          "long_name": "Woosung Street",
          "short_name": "Woosung St",
          "types": [
            "route"
          ]
        },
        {
          "long_name": "Yau Ma Tei",
          "short_name": "Yau Ma Tei",
          "types": [
            "neighborhood",
            "political"
          ]
        },
        {
          "long_name": "Kowloon",
          "short_name": "Kowloon",
          "types": [
            "administrative_area_level_1",
            "political"
          ]
        },
        {
          "long_name": "Hong Kong",
          "short_name": "HK",
          "types": [
            "country",
            "political"
          ]
        }
      ],
      "formatted_address": "Haven Mansion, 108 Woosung St, Yau Ma Tei, Hong Kong",
      "geometry": {
        "bounds": {
          "northeast": {
            "lat": 22.3058021,
            "lng": 114.170416
          },
          "southwest": {
            "lat": 22.305684,
            "lng": 114.170312
          }
        },
        "location": {
          "lat": 22.3057337,
          "lng": 114.1703749
        },
        "location_type": "ROOFTOP",
        "viewport": {
          "northeast": {
            "lat": 22.3070920302915,
            "lng": 114.1717129802915
          },
          "southwest": {
            "lat": 22.30439406970849,
            "lng": 114.1690150197085
          }
        }
      },
      "partial_match": true,
      "place_id": "ChIJB_dNAesABDQR_Ad46Ej250w",
      "types": [
        "premise"
      ]
    }
  ],
  "geocode_tc": [
    {
      "address_components": [
        {
          "long_name": "Haven Mansion",
          "short_name": "Haven Mansion",
          "types": [
            "premise"
          ]
        },
        {
          "long_name": "108",
          "short_name": "108",
          "types": [
            "street_number"
          ]
        },
        {
          "long_name": "Woosung Street",
          "short_name": "Woosung St",
          "types": [
            "route"
          ]
        },
        {
          "long_name": "Jordan",
          "short_name": "Jordan",
          "types": [
            "neighborhood",
            "political"
          ]
        },
        {
          "long_name": "\u9999\u6e2f",
          "short_name": "HK",
          "types": [
            "country",
            "political"
          ]
        }
      ],
      "formatted_address": "\u865f \u5730\u4e0b 4 \u865f \u8216, Haven Mansion, 108 Woosung St, Jordan, \u9999\u6e2f",
      "geometry": {
        "location": {
          "lat": 22.3057431,
          "lng": 114.1703641
        },
        "location_type": "ROOFTOP",
        "viewport": {
          "northeast": {
            "lat": 22.3070920802915,
            "lng": 114.1717130802915
          },
          "southwest": {
            "lat": 22.30439411970849,
            "lng": 114.1690151197085
          }
        }
      },
      "place_id": "ChIJCfdNAesABDQRnm9ve1bMqFA",
      "plus_code": {
        "compound_code": "854C+74 \u9999\u6e2f",
        "global_code": "7PJP854C+74"
      },
      "types": [
        "establishment",
        "food",
        "point_of_interest",
        "restaurant"
      ]
    }
  ],
  "licno": "2261812749",
  "timestamp": 1564968756,
  "version": "1564966095"
}
