{
  "adr_en": "Tao Yuen Restaurant, SHOP NO. 2, G/F, KWONG TIN SHOPPING CENTRE, KWONG TIN ESTATE, PIK WAN ROAD, LAM TIN, KOWLOON",
  "adr_tc": "\u4e5d\u9f8d\u85cd\u7530\u78a7\u96f2\u9053\u5ee3\u7530\u90a8\u5ee3\u7530\u5546\u5834\u5730\u4e0b2\u865f\u8216 \u6843\u5712\u88fd\u4f5c",
  "geocode_en": [
    {
      "address_components": [
        {
          "long_name": "168",
          "short_name": "168",
          "types": [
            "street_number"
          ]
        },
        {
          "long_name": "Pik Wan Road",
          "short_name": "Pik Wan Rd",
          "types": [
            "route"
          ]
        },
        {
          "long_name": "Kwun Tong",
          "short_name": "Kwun Tong",
          "types": [
            "neighborhood",
            "political"
          ]
        },
        {
          "long_name": "Kowloon",
          "short_name": "Kowloon",
          "types": [
            "administrative_area_level_1",
            "political"
          ]
        },
        {
          "long_name": "Hong Kong",
          "short_name": "HK",
          "types": [
            "country",
            "political"
          ]
        }
      ],
      "formatted_address": "\u865f, 168 Pik Wan Rd, Kwun Tong, Hong Kong",
      "geometry": {
        "location": {
          "lat": 22.3028979,
          "lng": 114.2396449
        },
        "location_type": "ROOFTOP",
        "viewport": {
          "northeast": {
            "lat": 22.3042468802915,
            "lng": 114.2409938802915
          },
          "southwest": {
            "lat": 22.30154891970849,
            "lng": 114.2382959197085
          }
        }
      },
      "partial_match": true,
      "place_id": "ChIJt7IV--EDBDQRPC3cF2U434U",
      "plus_code": {
        "compound_code": "863Q+5V Hong Kong",
        "global_code": "7PJP863Q+5V"
      },
      "types": [
        "establishment",
        "point_of_interest",
        "shopping_mall"
      ]
    },
    {
      "address_components": [
        {
          "long_name": "Pik Wan Road",
          "short_name": "Pik Wan Rd",
          "types": [
            "route"
          ]
        },
        {
          "long_name": "Kowloon",
          "short_name": "Kowloon",
          "types": [
            "administrative_area_level_1",
            "political"
          ]
        },
        {
          "long_name": "Hong Kong",
          "short_name": "HK",
          "types": [
            "country",
            "political"
          ]
        }
      ],
      "formatted_address": "Pik Wan Rd, Hong Kong",
      "geometry": {
        "bounds": {
          "northeast": {
            "lat": 22.3122038,
            "lng": 114.2420218
          },
          "southwest": {
            "lat": 22.2975529,
            "lng": 114.2375638
          }
        },
        "location": {
          "lat": 22.3055576,
          "lng": 114.2386683
        },
        "location_type": "GEOMETRIC_CENTER",
        "viewport": {
          "northeast": {
            "lat": 22.3122038,
            "lng": 114.2420218
          },
          "southwest": {
            "lat": 22.2975529,
            "lng": 114.2375638
          }
        }
      },
      "partial_match": true,
      "place_id": "ChIJizEybeIDBDQRcTDb80blli0",
      "types": [
        "route"
      ]
    }
  ],
  "geocode_tc": [
    {
      "address_components": [
        {
          "long_name": "168",
          "short_name": "168",
          "types": [
            "street_number"
          ]
        },
        {
          "long_name": "Pik Wan Road",
          "short_name": "Pik Wan Rd",
          "types": [
            "route"
          ]
        },
        {
          "long_name": "Kwun Tong",
          "short_name": "Kwun Tong",
          "types": [
            "neighborhood",
            "political"
          ]
        },
        {
          "long_name": "Kowloon",
          "short_name": "Kowloon",
          "types": [
            "administrative_area_level_1",
            "political"
          ]
        },
        {
          "long_name": "\u9999\u6e2f",
          "short_name": "HK",
          "types": [
            "country",
            "political"
          ]
        }
      ],
      "formatted_address": "\u865f, 168 Pik Wan Rd, Kwun Tong, \u9999\u6e2f",
      "geometry": {
        "location": {
          "lat": 22.3028979,
          "lng": 114.2396449
        },
        "location_type": "ROOFTOP",
        "viewport": {
          "northeast": {
            "lat": 22.3042468802915,
            "lng": 114.2409938802915
          },
          "southwest": {
            "lat": 22.30154891970849,
            "lng": 114.2382959197085
          }
        }
      },
      "place_id": "ChIJt7IV--EDBDQRPC3cF2U434U",
      "plus_code": {
        "compound_code": "863Q+5V \u9999\u6e2f",
        "global_code": "7PJP863Q+5V"
      },
      "types": [
        "establishment",
        "point_of_interest",
        "shopping_mall"
      ]
    },
    {
      "address_components": [
        {
          "long_name": "\u5ee3\u7530\u90a8\u5ee3\u9038\u6a13",
          "short_name": "\u5ee3\u7530\u90a8\u5ee3\u9038\u6a13",
          "types": [
            "premise"
          ]
        },
        {
          "long_name": "160",
          "short_name": "160",
          "types": [
            "street_number"
          ]
        },
        {
          "long_name": "\u78a7\u96f2\u9053",
          "short_name": "\u78a7\u96f2\u9053",
          "types": [
            "route"
          ]
        },
        {
          "long_name": "\u9577\u9f8d\u7530",
          "short_name": "\u9577\u9f8d\u7530",
          "types": [
            "neighborhood",
            "political"
          ]
        },
        {
          "long_name": "\u4e5d\u9f8d",
          "short_name": "\u4e5d\u9f8d",
          "types": [
            "administrative_area_level_1",
            "political"
          ]
        },
        {
          "long_name": "\u9999\u6e2f",
          "short_name": "HK",
          "types": [
            "country",
            "political"
          ]
        }
      ],
      "formatted_address": "\u9999\u6e2f\u9577\u9f8d\u7530\u78a7\u96f2\u9053160\u865f\u5ee3\u7530\u90a8\u5ee3\u9038\u6a13",
      "geometry": {
        "location": {
          "lat": 22.3036852,
          "lng": 114.2394058
        },
        "location_type": "ROOFTOP",
        "viewport": {
          "northeast": {
            "lat": 22.3050341802915,
            "lng": 114.2407547802915
          },
          "southwest": {
            "lat": 22.3023362197085,
            "lng": 114.2380568197085
          }
        }
      },
      "place_id": "ChIJYbAs-OEDBDQRgITtRn1uDZw",
      "plus_code": {
        "compound_code": "863Q+FQ \u9999\u6e2f",
        "global_code": "7PJP863Q+FQ"
      },
      "types": [
        "establishment",
        "point_of_interest"
      ]
    }
  ],
  "licno": "2251805027",
  "timestamp": 1564968756,
  "version": "1564966095"
}
