{
  "adr_en": "WISE BRO DESSERT, SHOP D, G/F, LEE FAT HOUSE, NO. 5 YAN LOK SQUARE, YUEN LONG, NEW TERRITORIES",
  "adr_tc": "\u65b0\u754c\u5143\u6717\u4ec1\u6a02\u574a5\u865f\u5229\u767c\u5927\u6a13\u5730\u4e0bD\u92ea \u8070\u5c11\u751c\u54c1",
  "geocode_en": [
    {
      "address_components": [
        {
          "long_name": "Lee Fat House",
          "short_name": "Lee Fat House",
          "types": [
            "premise"
          ]
        },
        {
          "long_name": "5",
          "short_name": "5",
          "types": [
            "street_number"
          ]
        },
        {
          "long_name": "Yan Lok Square",
          "short_name": "Yan Lok Square",
          "types": [
            "route"
          ]
        },
        {
          "long_name": "Yuen Long",
          "short_name": "Yuen Long",
          "types": [
            "neighborhood",
            "political"
          ]
        },
        {
          "long_name": "New Territories",
          "short_name": "New Territories",
          "types": [
            "administrative_area_level_1",
            "political"
          ]
        },
        {
          "long_name": "Hong Kong",
          "short_name": "HK",
          "types": [
            "country",
            "political"
          ]
        }
      ],
      "formatted_address": "Lee Fat House, 5 Yan Lok Square, Yuen Long, Hong Kong",
      "geometry": {
        "bounds": {
          "northeast": {
            "lat": 22.443423,
            "lng": 114.0268981
          },
          "southwest": {
            "lat": 22.443278,
            "lng": 114.026699
          }
        },
        "location": {
          "lat": 22.4433385,
          "lng": 114.0268259
        },
        "location_type": "ROOFTOP",
        "viewport": {
          "northeast": {
            "lat": 22.4446994802915,
            "lng": 114.0281475302915
          },
          "southwest": {
            "lat": 22.4420015197085,
            "lng": 114.0254495697085
          }
        }
      },
      "partial_match": true,
      "place_id": "ChIJz5A5dKDwAzQRKhbo4w39VK4",
      "types": [
        "premise"
      ]
    }
  ],
  "geocode_tc": [
    {
      "address_components": [
        {
          "long_name": "5\u865f",
          "short_name": "5\u865f",
          "types": [
            "street_number"
          ]
        },
        {
          "long_name": "\u4ec1\u6a02\u574a",
          "short_name": "\u4ec1\u6a02\u574a",
          "types": [
            "route"
          ]
        },
        {
          "long_name": "\u5143\u6717",
          "short_name": "\u5143\u6717",
          "types": [
            "neighborhood",
            "political"
          ]
        },
        {
          "long_name": "\u65b0\u754c",
          "short_name": "\u65b0\u754c",
          "types": [
            "administrative_area_level_1",
            "political"
          ]
        },
        {
          "long_name": "\u9999\u6e2f",
          "short_name": "HK",
          "types": [
            "country",
            "political"
          ]
        }
      ],
      "formatted_address": "\u9999\u6e2f\u5143\u6717\u4ec1\u6a02\u574a5\u865f",
      "geometry": {
        "location": {
          "lat": 22.443403,
          "lng": 114.0267696
        },
        "location_type": "ROOFTOP",
        "viewport": {
          "northeast": {
            "lat": 22.4447519802915,
            "lng": 114.0281185802915
          },
          "southwest": {
            "lat": 22.4420540197085,
            "lng": 114.0254206197085
          }
        }
      },
      "place_id": "ChIJBSJpdKDwAzQRXpCEUdb6eg4",
      "plus_code": {
        "compound_code": "C2VG+9P \u9999\u6e2f",
        "global_code": "7PJPC2VG+9P"
      },
      "types": [
        "establishment",
        "food",
        "point_of_interest",
        "store"
      ]
    }
  ],
  "licno": "3194802436",
  "timestamp": 1564975666,
  "version": "1564966095"
}
