{
  "adr_en": "\u9b54\u828b\u9ebb\u8fa3\u96de, SHOP G, G/F, CHEONG NIN BUILDING, 1013-1033 KWAI CHUNG ROAD, KWAI CHUNG, NEW TERRITORIES",
  "adr_tc": "\u65b0\u754c\u8475\u6d8c\u8475\u6d8c\u90531013-1033\u865f\u660c\u5e74\u5927\u5ec8\u5730\u4e0bG\u92ea \u9b54\u828b\u9ebb\u8fa3\u96de",
  "geocode_en": [
    {
      "address_components": [
        {
          "long_name": "Kwong Fai Circuit",
          "short_name": "Kwong Fai Circuit",
          "types": [
            "route"
          ]
        },
        {
          "long_name": "Kwai Chung",
          "short_name": "Kwai Chung",
          "types": [
            "neighborhood",
            "political"
          ]
        },
        {
          "long_name": "New Territories",
          "short_name": "New Territories",
          "types": [
            "administrative_area_level_1",
            "political"
          ]
        },
        {
          "long_name": "Hong Kong",
          "short_name": "HK",
          "types": [
            "country",
            "political"
          ]
        }
      ],
      "formatted_address": "Kwong Fai Circuit, Kwai Chung, Hong Kong",
      "geometry": {
        "location": {
          "lat": 22.3683286,
          "lng": 114.1333945
        },
        "location_type": "GEOMETRIC_CENTER",
        "viewport": {
          "northeast": {
            "lat": 22.3696775802915,
            "lng": 114.1347434802915
          },
          "southwest": {
            "lat": 22.3669796197085,
            "lng": 114.1320455197085
          }
        }
      },
      "partial_match": true,
      "place_id": "ChIJhw0Ij5r4AzQRCBN3rLxTkeI",
      "plus_code": {
        "compound_code": "949M+89 Hong Kong",
        "global_code": "7PJP949M+89"
      },
      "types": [
        "establishment",
        "food",
        "point_of_interest",
        "restaurant"
      ]
    },
    {
      "address_components": [
        {
          "long_name": "Cheong Nin Building",
          "short_name": "Cheong Nin Building",
          "types": [
            "premise"
          ]
        },
        {
          "long_name": "1013",
          "short_name": "1013",
          "types": [
            "street_number"
          ]
        },
        {
          "long_name": "Kwai Chung Road",
          "short_name": "Kwai Chung Rd",
          "types": [
            "route"
          ]
        },
        {
          "long_name": "Kwai Chung",
          "short_name": "Kwai Chung",
          "types": [
            "neighborhood",
            "political"
          ]
        },
        {
          "long_name": "New Territories",
          "short_name": "New Territories",
          "types": [
            "administrative_area_level_1",
            "political"
          ]
        },
        {
          "long_name": "Hong Kong",
          "short_name": "HK",
          "types": [
            "country",
            "political"
          ]
        }
      ],
      "formatted_address": "Cheong Nin Building, 1013 Kwai Chung Rd, Kwai Chung, Hong Kong",
      "geometry": {
        "bounds": {
          "northeast": {
            "lat": 22.368185,
            "lng": 114.133725
          },
          "southwest": {
            "lat": 22.36767,
            "lng": 114.1333346
          }
        },
        "location": {
          "lat": 22.3679163,
          "lng": 114.1334845
        },
        "location_type": "ROOFTOP",
        "viewport": {
          "northeast": {
            "lat": 22.3692764802915,
            "lng": 114.1348787802915
          },
          "southwest": {
            "lat": 22.3665785197085,
            "lng": 114.1321808197085
          }
        }
      },
      "partial_match": true,
      "place_id": "ChIJf0Ezi5r4AzQRLKTPT0qWF4s",
      "types": [
        "premise"
      ]
    }
  ],
  "geocode_tc": [
    {
      "address_components": [
        {
          "long_name": "\u5149\u8f1d\u570d",
          "short_name": "\u5149\u8f1d\u570d",
          "types": [
            "route"
          ]
        },
        {
          "long_name": "\u8475\u6d8c",
          "short_name": "\u8475\u6d8c",
          "types": [
            "neighborhood",
            "political"
          ]
        },
        {
          "long_name": "\u65b0\u754c",
          "short_name": "\u65b0\u754c",
          "types": [
            "administrative_area_level_1",
            "political"
          ]
        },
        {
          "long_name": "\u9999\u6e2f",
          "short_name": "HK",
          "types": [
            "country",
            "political"
          ]
        }
      ],
      "formatted_address": "\u9999\u6e2f\u8475\u6d8c\u5149\u8f1d\u570d",
      "geometry": {
        "location": {
          "lat": 22.3683286,
          "lng": 114.1333945
        },
        "location_type": "GEOMETRIC_CENTER",
        "viewport": {
          "northeast": {
            "lat": 22.3696775802915,
            "lng": 114.1347434802915
          },
          "southwest": {
            "lat": 22.3669796197085,
            "lng": 114.1320455197085
          }
        }
      },
      "place_id": "ChIJhw0Ij5r4AzQRCBN3rLxTkeI",
      "plus_code": {
        "compound_code": "949M+89 \u9999\u6e2f",
        "global_code": "7PJP949M+89"
      },
      "types": [
        "establishment",
        "food",
        "point_of_interest",
        "restaurant"
      ]
    }
  ],
  "licno": "2291801601",
  "timestamp": 1564968756,
  "version": "1564966095"
}
