{
  "adr_en": "\u6cf0\u82d1, G/F, 1/F & 2/F, DD 10, LOT 643, 15 SOK KWU WAN FIRST STREET, SOK KWU WAN, LAMMA ISLAND, NEW TERRITORIES",
  "adr_tc": "\u5357\u4e2b\u5cf6\u7d22\u7f5f\u7063\u7b2c\u4e00\u885715\u865f10\u7d04643\u5730\u6bb5\u5730\u4e0b\u81f32\u6a13 \u6cf0\u82d1",
  "geocode_en": [
    {
      "address_components": [
        {
          "long_name": "Sok Kwu Wan First Street",
          "short_name": "Sok Kwu Wan First St",
          "types": [
            "route"
          ]
        },
        {
          "long_name": "New Territories",
          "short_name": "New Territories",
          "types": [
            "administrative_area_level_1",
            "political"
          ]
        },
        {
          "long_name": "Hong Kong",
          "short_name": "HK",
          "types": [
            "country",
            "political"
          ]
        }
      ],
      "formatted_address": "Sok Kwu Wan First St, Hong Kong",
      "geometry": {
        "bounds": {
          "northeast": {
            "lat": 22.2061866,
            "lng": 114.1316829
          },
          "southwest": {
            "lat": 22.2034398,
            "lng": 114.1307019
          }
        },
        "location": {
          "lat": 22.2050191,
          "lng": 114.1311601
        },
        "location_type": "GEOMETRIC_CENTER",
        "viewport": {
          "northeast": {
            "lat": 22.2061866,
            "lng": 114.1325413802915
          },
          "southwest": {
            "lat": 22.2034398,
            "lng": 114.1298434197085
          }
        }
      },
      "partial_match": true,
      "place_id": "Eh9Tb2sgS3d1IFdhbiBGaXJzdCBTdCwgSG9uZyBLb25nIi4qLAoUChIJZajywidVATQRIUWfbqHLmvoSFAoSCbfGciXoAAQ0EciRB_GyaP4i",
      "types": [
        "route"
      ]
    }
  ],
  "geocode_tc": [
    {
      "address_components": [
        {
          "long_name": "\u7d22\u7f5f\u7063\u7b2c\u4e00\u8857",
          "short_name": "\u7d22\u7f5f\u7063\u7b2c\u4e00\u8857",
          "types": [
            "route"
          ]
        },
        {
          "long_name": "\u9999\u6e2f",
          "short_name": "HK",
          "types": [
            "country",
            "political"
          ]
        }
      ],
      "formatted_address": "\u9999\u6e2f\u7d22\u7f5f\u7063\u7b2c\u4e00\u8857",
      "geometry": {
        "bounds": {
          "northeast": {
            "lat": 22.2062133,
            "lng": 114.131673
          },
          "southwest": {
            "lat": 22.2034371,
            "lng": 114.1305583
          }
        },
        "location": {
          "lat": 22.2048183,
          "lng": 114.1310783
        },
        "location_type": "GEOMETRIC_CENTER",
        "viewport": {
          "northeast": {
            "lat": 22.2062133,
            "lng": 114.1324646302915
          },
          "southwest": {
            "lat": 22.2034371,
            "lng": 114.1297666697085
          }
        }
      },
      "partial_match": true,
      "place_id": "ChIJZajywidVATQRIUWfbqHLmvo",
      "types": [
        "route"
      ]
    }
  ],
  "licno": "2217001412",
  "timestamp": 1564968756,
  "version": "1564966095"
}
