{
  "adr_en": "\u5c1a\u725b, SHOP E, G/F, HING WONG BUILDING, 2 SAI CHING STREET, YUEN LONG, NEW TERRITORIES",
  "adr_tc": "\u65b0\u754c\u5143\u6717\u897f\u83c1\u88572\u865f\u8208\u65fa\u6a13\u5730\u4e0b1E\u92ea \u5c1a\u725b",
  "geocode_en": [
    {
      "address_components": [
        {
          "long_name": "Hing Wong Building",
          "short_name": "Hing Wong Building",
          "types": [
            "premise"
          ]
        },
        {
          "long_name": "2",
          "short_name": "2",
          "types": [
            "street_number"
          ]
        },
        {
          "long_name": "Sai Ching Street",
          "short_name": "Sai Ching St",
          "types": [
            "route"
          ]
        },
        {
          "long_name": "Yuen Long",
          "short_name": "Yuen Long",
          "types": [
            "neighborhood",
            "political"
          ]
        },
        {
          "long_name": "New Territories",
          "short_name": "New Territories",
          "types": [
            "administrative_area_level_1",
            "political"
          ]
        },
        {
          "long_name": "Hong Kong",
          "short_name": "HK",
          "types": [
            "country",
            "political"
          ]
        }
      ],
      "formatted_address": "Hing Wong Building, 2 Sai Ching St, Yuen Long, Hong Kong",
      "geometry": {
        "bounds": {
          "northeast": {
            "lat": 22.4419672,
            "lng": 114.0269069
          },
          "southwest": {
            "lat": 22.4418655,
            "lng": 114.0267079
          }
        },
        "location": {
          "lat": 22.4419487,
          "lng": 114.0268615
        },
        "location_type": "ROOFTOP",
        "viewport": {
          "northeast": {
            "lat": 22.4432653302915,
            "lng": 114.0281563802915
          },
          "southwest": {
            "lat": 22.4405673697085,
            "lng": 114.0254584197085
          }
        }
      },
      "partial_match": true,
      "place_id": "ChIJPzGDkwr6AzQRMmJRW3cprFg",
      "types": [
        "premise"
      ]
    }
  ],
  "geocode_tc": [
    {
      "address_components": [
        {
          "long_name": "\u5730\u4e0b1E\u92ea \u5c1a",
          "short_name": "\u5730\u4e0b1E\u92ea \u5c1a",
          "types": [
            "subpremise"
          ]
        },
        {
          "long_name": "\u8208\u65fa\u6a13",
          "short_name": "\u8208\u65fa\u6a13",
          "types": [
            "premise"
          ]
        },
        {
          "long_name": "2",
          "short_name": "2",
          "types": [
            "street_number"
          ]
        },
        {
          "long_name": "\u897f\u83c1\u8857",
          "short_name": "\u897f\u83c1\u8857",
          "types": [
            "route"
          ]
        },
        {
          "long_name": "\u5143\u6717",
          "short_name": "\u5143\u6717",
          "types": [
            "neighborhood",
            "political"
          ]
        },
        {
          "long_name": "\u65b0\u754c",
          "short_name": "\u65b0\u754c",
          "types": [
            "administrative_area_level_1",
            "political"
          ]
        },
        {
          "long_name": "\u9999\u6e2f",
          "short_name": "HK",
          "types": [
            "country",
            "political"
          ]
        }
      ],
      "formatted_address": "\u9999\u6e2f\u5143\u6717\u897f\u83c1\u88572\u865f\u8208\u65fa\u6a13\u5730\u4e0b1E\u92ea \u5c1a",
      "geometry": {
        "bounds": {
          "northeast": {
            "lat": 22.4419672,
            "lng": 114.0269069
          },
          "southwest": {
            "lat": 22.4418655,
            "lng": 114.0267079
          }
        },
        "location": {
          "lat": 22.4419487,
          "lng": 114.0268615
        },
        "location_type": "ROOFTOP",
        "viewport": {
          "northeast": {
            "lat": 22.4432653302915,
            "lng": 114.0281563802915
          },
          "southwest": {
            "lat": 22.4405673697085,
            "lng": 114.0254584197085
          }
        }
      },
      "partial_match": true,
      "place_id": "EknlnLDkuIsxRemLqiDlsJosIEhpbmcgV29uZyBCdWlsZGluZywgMiBTYWkgQ2hpbmcgU3QsIFl1ZW4gTG9uZywgSG9uZyBLb25nIisaKQoWChQKEgk_MYOTCvoDNBEyYlFbdymsWBIP5Zyw5LiLMUXpi6og5bCa",
      "types": [
        "subpremise"
      ]
    }
  ],
  "licno": "2294805446",
  "timestamp": 1564975666,
  "version": "1564966095"
}
