{
  "adr_en": "Gurkha, SHOP B, LG/F., HO LEE COMMERCIAL BUILDING, NOS. 38, 42 & 44 D'AGUILAR STREET, HONG KONG",
  "adr_tc": "\u9999\u6e2f\u5fb7\u5df1\u7acb\u885738,42\u53ca44\u865f\u597d\u5229\u5546\u696d\u5927\u5ec8\u5730\u4e0b\u4f4e\u5c64B\u8216 Gurkha",
  "geocode_en": [
    {
      "address_components": [
        {
          "long_name": "Hong Kong Island",
          "short_name": "Hong Kong Island",
          "types": [
            "administrative_area_level_1",
            "political"
          ]
        },
        {
          "long_name": "Hong Kong",
          "short_name": "HK",
          "types": [
            "country",
            "political"
          ]
        }
      ],
      "formatted_address": "Shop B, LG/F., Ho Lee Commercial Building, Nos. 38, 42 & 44 D'Aguilar Street, Hong Kong Central, Hong Kong",
      "geometry": {
        "location": {
          "lat": 22.2807677,
          "lng": 114.1553846
        },
        "location_type": "GEOMETRIC_CENTER",
        "viewport": {
          "northeast": {
            "lat": 22.28211668029151,
            "lng": 114.1567335802915
          },
          "southwest": {
            "lat": 22.2794187197085,
            "lng": 114.1540356197085
          }
        }
      },
      "place_id": "ChIJBzvNKHsABDQRz_csRWi_MKI",
      "plus_code": {
        "compound_code": "75J4+85 Hong Kong",
        "global_code": "7PJP75J4+85"
      },
      "types": [
        "bar",
        "establishment",
        "point_of_interest"
      ]
    }
  ],
  "geocode_tc": [
    {
      "address_components": [
        {
          "long_name": "\u597d\u5229\u5546\u696d\u5927\u5ec8",
          "short_name": "\u597d\u5229\u5546\u696d\u5927\u5ec8",
          "types": [
            "premise"
          ]
        },
        {
          "long_name": "38-44",
          "short_name": "38-44",
          "types": [
            "street_number"
          ]
        },
        {
          "long_name": "\u5fb7\u5df1\u7acb\u8857",
          "short_name": "\u5fb7\u5df1\u7acb\u8857",
          "types": [
            "route"
          ]
        },
        {
          "long_name": "\u4e2d\u74b0",
          "short_name": "\u4e2d\u74b0",
          "types": [
            "neighborhood",
            "political"
          ]
        },
        {
          "long_name": "\u9999\u6e2f\u5cf6",
          "short_name": "\u9999\u6e2f\u5cf6",
          "types": [
            "administrative_area_level_1",
            "political"
          ]
        },
        {
          "long_name": "\u9999\u6e2f",
          "short_name": "HK",
          "types": [
            "country",
            "political"
          ]
        }
      ],
      "formatted_address": "\u9999\u6e2f\u4e2d\u74b0\u5fb7\u5df1\u7acb\u885738-44\u865f\u597d\u5229\u5546\u696d\u5927\u5ec8",
      "geometry": {
        "bounds": {
          "northeast": {
            "lat": 22.28093,
            "lng": 114.15551
          },
          "southwest": {
            "lat": 22.2806429,
            "lng": 114.155225
          }
        },
        "location": {
          "lat": 22.2807677,
          "lng": 114.1553846
        },
        "location_type": "ROOFTOP",
        "viewport": {
          "northeast": {
            "lat": 22.2821354302915,
            "lng": 114.1567164802915
          },
          "southwest": {
            "lat": 22.2794374697085,
            "lng": 114.1540185197085
          }
        }
      },
      "partial_match": true,
      "place_id": "ChIJx-pqKXsABDQRntquCwR4PAU",
      "types": [
        "premise"
      ]
    },
    {
      "address_components": [
        {
          "long_name": "Hong Kong Island",
          "short_name": "Hong Kong Island",
          "types": [
            "administrative_area_level_1",
            "political"
          ]
        },
        {
          "long_name": "\u9999\u6e2f",
          "short_name": "HK",
          "types": [
            "country",
            "political"
          ]
        }
      ],
      "formatted_address": "Shop B, LG/F., Ho Lee Commercial Building, Nos. 38, 42 & 44 D'Aguilar Street, Hong Kong Central, \u9999\u6e2f",
      "geometry": {
        "location": {
          "lat": 22.2807677,
          "lng": 114.1553846
        },
        "location_type": "GEOMETRIC_CENTER",
        "viewport": {
          "northeast": {
            "lat": 22.28211668029151,
            "lng": 114.1567335802915
          },
          "southwest": {
            "lat": 22.2794187197085,
            "lng": 114.1540356197085
          }
        }
      },
      "partial_match": true,
      "place_id": "ChIJBzvNKHsABDQRz_csRWi_MKI",
      "plus_code": {
        "compound_code": "75J4+85 \u9999\u6e2f",
        "global_code": "7PJP75J4+85"
      },
      "types": [
        "bar",
        "establishment",
        "point_of_interest"
      ]
    }
  ],
  "licno": "3118805013",
  "timestamp": 1564975666,
  "version": "1564966095"
}
