{
  "adr_en": "\u5408\u5229\u7c89\u9eb5, G/F, 19A-B YIN HING STREET, SAN PO KONG, WONG TAI SIN, KOWLOON",
  "adr_tc": "\u4e5d\u9f8d\u65b0\u84b2\u5d17\u884d\u6176\u885719A\u53caB\u8216\u5730\u4e0b \u5408\u5229\u7c89\u9eb5",
  "geocode_en": [
    {
      "address_components": [
        {
          "long_name": "Hong Kong",
          "short_name": "HK",
          "types": [
            "country",
            "political"
          ]
        }
      ],
      "formatted_address": "Hong Kong, \u65b0\u84b2\u5d17\u884d\u6176\u885719\u865fA\u8216\u5730\u4e0b",
      "geometry": {
        "location": {
          "lat": 22.335812,
          "lng": 114.195002
        },
        "location_type": "GEOMETRIC_CENTER",
        "viewport": {
          "northeast": {
            "lat": 22.3371609802915,
            "lng": 114.1963509802915
          },
          "southwest": {
            "lat": 22.3344630197085,
            "lng": 114.1936530197085
          }
        }
      },
      "partial_match": true,
      "place_id": "ChIJZ81WAtcGBDQRU5cecCLn-CM",
      "plus_code": {
        "compound_code": "85PW+82 Hong Kong",
        "global_code": "7PJP85PW+82"
      },
      "types": [
        "establishment",
        "food",
        "point_of_interest",
        "restaurant"
      ]
    },
    {
      "address_components": [
        {
          "long_name": "G",
          "short_name": "G",
          "types": [
            "subpremise"
          ]
        },
        {
          "long_name": "19",
          "short_name": "19",
          "types": [
            "street_number"
          ]
        },
        {
          "long_name": "Yin Hing Street",
          "short_name": "Yin Hing St",
          "types": [
            "route"
          ]
        },
        {
          "long_name": "San Po Kong",
          "short_name": "San Po Kong",
          "types": [
            "neighborhood",
            "political"
          ]
        },
        {
          "long_name": "Kowloon",
          "short_name": "Kowloon",
          "types": [
            "administrative_area_level_1",
            "political"
          ]
        },
        {
          "long_name": "Hong Kong",
          "short_name": "HK",
          "types": [
            "country",
            "political"
          ]
        }
      ],
      "formatted_address": "G, 19 Yin Hing St, San Po Kong, Hong Kong",
      "geometry": {
        "location": {
          "lat": 22.3357626,
          "lng": 114.1950147
        },
        "location_type": "RANGE_INTERPOLATED",
        "viewport": {
          "northeast": {
            "lat": 22.3371115802915,
            "lng": 114.1963636802915
          },
          "southwest": {
            "lat": 22.3344136197085,
            "lng": 114.1936657197085
          }
        }
      },
      "partial_match": true,
      "place_id": "EilHLCAxOSBZaW4gSGluZyBTdCwgU2FuIFBvIEtvbmcsIEhvbmcgS29uZyIhGh8KGhIYChQKEgmPX2ED1wYENBERF_WTYTzRpBATEgFH",
      "types": [
        "subpremise"
      ]
    },
    {
      "address_components": [
        {
          "long_name": "F",
          "short_name": "F",
          "types": [
            "subpremise"
          ]
        },
        {
          "long_name": "19",
          "short_name": "19",
          "types": [
            "street_number"
          ]
        },
        {
          "long_name": "Yin Hing Street",
          "short_name": "Yin Hing St",
          "types": [
            "route"
          ]
        },
        {
          "long_name": "San Po Kong",
          "short_name": "San Po Kong",
          "types": [
            "neighborhood",
            "political"
          ]
        },
        {
          "long_name": "Kowloon",
          "short_name": "Kowloon",
          "types": [
            "administrative_area_level_1",
            "political"
          ]
        },
        {
          "long_name": "Hong Kong",
          "short_name": "HK",
          "types": [
            "country",
            "political"
          ]
        }
      ],
      "formatted_address": "F, 19 Yin Hing St, San Po Kong, Hong Kong",
      "geometry": {
        "location": {
          "lat": 22.3357626,
          "lng": 114.1950147
        },
        "location_type": "RANGE_INTERPOLATED",
        "viewport": {
          "northeast": {
            "lat": 22.3371115802915,
            "lng": 114.1963636802915
          },
          "southwest": {
            "lat": 22.3344136197085,
            "lng": 114.1936657197085
          }
        }
      },
      "partial_match": true,
      "place_id": "EilGLCAxOSBZaW4gSGluZyBTdCwgU2FuIFBvIEtvbmcsIEhvbmcgS29uZyIhGh8KGhIYChQKEgmPX2ED1wYENBERF_WTYTzRpBATEgFG",
      "types": [
        "subpremise"
      ]
    }
  ],
  "geocode_tc": [
    {
      "address_components": [
        {
          "long_name": "\u9999\u6e2f",
          "short_name": "HK",
          "types": [
            "country",
            "political"
          ]
        }
      ],
      "formatted_address": "\u9999\u6e2f\u65b0\u84b2\u5d17\u884d\u6176\u885719\u865fA\u8216\u5730\u4e0b",
      "geometry": {
        "location": {
          "lat": 22.335812,
          "lng": 114.195002
        },
        "location_type": "GEOMETRIC_CENTER",
        "viewport": {
          "northeast": {
            "lat": 22.3371609802915,
            "lng": 114.1963509802915
          },
          "southwest": {
            "lat": 22.3344630197085,
            "lng": 114.1936530197085
          }
        }
      },
      "place_id": "ChIJZ81WAtcGBDQRU5cecCLn-CM",
      "plus_code": {
        "compound_code": "85PW+82 \u9999\u6e2f",
        "global_code": "7PJP85PW+82"
      },
      "types": [
        "establishment",
        "food",
        "point_of_interest",
        "restaurant"
      ]
    }
  ],
  "licno": "2253070997",
  "timestamp": 1564968756,
  "version": "1564966095"
}
