{
  "adr_en": "\u91d1\u5229\u4f86, G/F., 54B HOI PONG ROAD WEST, LEI YUE MUN, KOWLOON",
  "adr_tc": "\u4e5d\u9f8d\u9bc9\u9b5a\u9580 \u6d77\u508d\u9053\u897f54B\u865f\u5730\u4e0b \u91d1\u5229\u4f86",
  "geocode_en": [
    {
      "address_components": [
        {
          "long_name": "20-22",
          "short_name": "20-22",
          "types": [
            "street_number"
          ]
        },
        {
          "long_name": "Hoi Pong Road West",
          "short_name": "Hoi Pong Road West",
          "types": [
            "route"
          ]
        },
        {
          "long_name": "Kowloon",
          "short_name": "Kowloon",
          "types": [
            "administrative_area_level_1",
            "political"
          ]
        },
        {
          "long_name": "Hong Kong",
          "short_name": "HK",
          "types": [
            "country",
            "political"
          ]
        }
      ],
      "formatted_address": "20-22 Hoi Pong Road West, Hong Kong",
      "geometry": {
        "location": {
          "lat": 22.2906782,
          "lng": 114.2385033
        },
        "location_type": "ROOFTOP",
        "viewport": {
          "northeast": {
            "lat": 22.2920271802915,
            "lng": 114.2398522802915
          },
          "southwest": {
            "lat": 22.2893292197085,
            "lng": 114.2371543197085
          }
        }
      },
      "place_id": "ChIJ5Sl6cGIBBDQR3_zviFsiXEA",
      "plus_code": {
        "compound_code": "76RQ+7C Hong Kong",
        "global_code": "7PJP76RQ+7C"
      },
      "types": [
        "establishment",
        "food",
        "point_of_interest",
        "restaurant"
      ]
    }
  ],
  "geocode_tc": [
    {
      "address_components": [
        {
          "long_name": "\u9999\u6e2f",
          "short_name": "HK",
          "types": [
            "country",
            "political"
          ]
        }
      ],
      "formatted_address": "\u9999\u6e2f\u9bc9\u9b5a\u9580\u6d77\u508d\u9053\u897f54B\u865f\u5730\u4e0b",
      "geometry": {
        "location": {
          "lat": 22.291549,
          "lng": 114.238794
        },
        "location_type": "GEOMETRIC_CENTER",
        "viewport": {
          "northeast": {
            "lat": 22.2928979802915,
            "lng": 114.2401429802915
          },
          "southwest": {
            "lat": 22.2902000197085,
            "lng": 114.2374450197085
          }
        }
      },
      "place_id": "ChIJoawWCWIBBDQR8R2IGUD29WU",
      "plus_code": {
        "compound_code": "76RQ+JG \u9999\u6e2f",
        "global_code": "7PJP76RQ+JG"
      },
      "types": [
        "establishment",
        "food",
        "point_of_interest",
        "restaurant"
      ]
    }
  ],
  "licno": "2251229683",
  "timestamp": 1564968756,
  "version": "1564966095"
}
