{
  "adr_en": "\u8a31\u7559\u5c71, SHOP NO. G21, FU SHIN SHOPPING CENTRE, FU SHIN ESTATE, TAI PO, NEW TERRITORIES",
  "adr_tc": "\u65b0\u754c\u5927\u57d4\u5bcc\u5584\u90a8\u5bcc\u5584\u5546\u5834G21\u865f\u8216 \u8a31\u7559\u5c71",
  "geocode_en": [
    {
      "address_components": [
        {
          "long_name": "Hong Kong",
          "short_name": "HK",
          "types": [
            "country",
            "political"
          ]
        }
      ],
      "formatted_address": "Hong Kong, \u5927\u57d4\u5bcc\u5584\u6751\u5bcc\u5584\u5546\u5834\u5730\u4e0b21\u865f\u8216",
      "geometry": {
        "location": {
          "lat": 22.4539254,
          "lng": 114.1747877
        },
        "location_type": "GEOMETRIC_CENTER",
        "viewport": {
          "northeast": {
            "lat": 22.4552743802915,
            "lng": 114.1761366802915
          },
          "southwest": {
            "lat": 22.4525764197085,
            "lng": 114.1734387197085
          }
        }
      },
      "partial_match": true,
      "place_id": "ChIJG7rFRE8IBDQR8URdzqPvo6k",
      "plus_code": {
        "compound_code": "F53F+HW Hong Kong",
        "global_code": "7PJPF53F+HW"
      },
      "types": [
        "establishment",
        "food",
        "point_of_interest"
      ]
    },
    {
      "address_components": [
        {
          "long_name": "12",
          "short_name": "12",
          "types": [
            "street_number"
          ]
        },
        {
          "long_name": "On Po Road",
          "short_name": "On Po Rd",
          "types": [
            "route"
          ]
        },
        {
          "long_name": "Tai Po",
          "short_name": "Tai Po",
          "types": [
            "neighborhood",
            "political"
          ]
        },
        {
          "long_name": "New Territories",
          "short_name": "New Territories",
          "types": [
            "administrative_area_level_1",
            "political"
          ]
        },
        {
          "long_name": "Hong Kong",
          "short_name": "HK",
          "types": [
            "country",
            "political"
          ]
        }
      ],
      "formatted_address": "12 On Po Rd, Tai Po, Hong Kong",
      "geometry": {
        "location": {
          "lat": 22.4538932,
          "lng": 114.1745201
        },
        "location_type": "ROOFTOP",
        "viewport": {
          "northeast": {
            "lat": 22.4552421802915,
            "lng": 114.1758690802915
          },
          "southwest": {
            "lat": 22.4525442197085,
            "lng": 114.1731711197085
          }
        }
      },
      "partial_match": true,
      "place_id": "ChIJT9DAWk8IBDQRJdCFcURykW4",
      "plus_code": {
        "compound_code": "F53F+HR Hong Kong",
        "global_code": "7PJPF53F+HR"
      },
      "types": [
        "establishment",
        "point_of_interest",
        "shopping_mall"
      ]
    }
  ],
  "geocode_tc": [
    {
      "address_components": [
        {
          "long_name": "\u9999\u6e2f",
          "short_name": "HK",
          "types": [
            "country",
            "political"
          ]
        }
      ],
      "formatted_address": "\u9999\u6e2f\u5927\u57d4\u5bcc\u5584\u6751\u5bcc\u5584\u5546\u5834\u5730\u4e0b21\u865f\u8216",
      "geometry": {
        "location": {
          "lat": 22.4539254,
          "lng": 114.1747877
        },
        "location_type": "GEOMETRIC_CENTER",
        "viewport": {
          "northeast": {
            "lat": 22.4552743802915,
            "lng": 114.1761366802915
          },
          "southwest": {
            "lat": 22.4525764197085,
            "lng": 114.1734387197085
          }
        }
      },
      "place_id": "ChIJG7rFRE8IBDQR8URdzqPvo6k",
      "plus_code": {
        "compound_code": "F53F+HW \u9999\u6e2f",
        "global_code": "7PJPF53F+HW"
      },
      "types": [
        "establishment",
        "food",
        "point_of_interest"
      ]
    }
  ],
  "licno": "3195000569",
  "timestamp": 1564975666,
  "version": "1564966095"
}
