{
  "adr_en": "Mou Mou Club, THE WHOLE OF 6/F, KING WAH CENTRE, NO. 628 NATHAN ROAD, MONG KOK, KOWLOON",
  "adr_tc": "\u4e5d\u9f8d\u65fa\u89d2\u5f4c\u6566\u9053628\u865f\u74ca\u83ef\u4e2d\u5fc36\u6a13\u5168\u5c64 \u725b\u6dae\u934b",
  "geocode_en": [
    {
      "address_components": [
        {
          "long_name": "Mong Kok",
          "short_name": "Mong Kok",
          "types": [
            "neighborhood",
            "political"
          ]
        },
        {
          "long_name": "Hong Kong",
          "short_name": "HK",
          "types": [
            "country",
            "political"
          ]
        }
      ],
      "formatted_address": "\u74ca\u83ef\u4e2d\u5fc36\u6a13\u5168\u5c64, Mong Kok, Hong Kong",
      "geometry": {
        "location": {
          "lat": 22.317764,
          "lng": 114.16991
        },
        "location_type": "GEOMETRIC_CENTER",
        "viewport": {
          "northeast": {
            "lat": 22.31911298029151,
            "lng": 114.1712589802915
          },
          "southwest": {
            "lat": 22.3164150197085,
            "lng": 114.1685610197085
          }
        }
      },
      "partial_match": true,
      "place_id": "ChIJLTAXSuQBBDQRiYpXypN-Kdg",
      "plus_code": {
        "compound_code": "8599+4X Hong Kong",
        "global_code": "7PJP8599+4X"
      },
      "types": [
        "establishment",
        "food",
        "point_of_interest",
        "restaurant"
      ]
    },
    {
      "address_components": [
        {
          "long_name": "King Wah Centre",
          "short_name": "King Wah Centre",
          "types": [
            "premise"
          ]
        },
        {
          "long_name": "628",
          "short_name": "628",
          "types": [
            "street_number"
          ]
        },
        {
          "long_name": "Nathan Road",
          "short_name": "Nathan Rd",
          "types": [
            "route"
          ]
        },
        {
          "long_name": "Mong Kok",
          "short_name": "Mong Kok",
          "types": [
            "neighborhood",
            "political"
          ]
        },
        {
          "long_name": "Kowloon",
          "short_name": "Kowloon",
          "types": [
            "administrative_area_level_1",
            "political"
          ]
        },
        {
          "long_name": "Hong Kong",
          "short_name": "HK",
          "types": [
            "country",
            "political"
          ]
        }
      ],
      "formatted_address": "King Wah Centre, 628 Nathan Rd, Mong Kok, Hong Kong",
      "geometry": {
        "bounds": {
          "northeast": {
            "lat": 22.3180511,
            "lng": 114.1700219
          },
          "southwest": {
            "lat": 22.317621,
            "lng": 114.169789
          }
        },
        "location": {
          "lat": 22.3178746,
          "lng": 114.1698988
        },
        "location_type": "ROOFTOP",
        "viewport": {
          "northeast": {
            "lat": 22.3191850302915,
            "lng": 114.1712544302915
          },
          "southwest": {
            "lat": 22.3164870697085,
            "lng": 114.1685564697085
          }
        }
      },
      "partial_match": true,
      "place_id": "ChIJr0F4pccABDQRDOHv-4Zw0Vc",
      "types": [
        "premise"
      ]
    }
  ],
  "geocode_tc": [
    {
      "address_components": [
        {
          "long_name": "\u4e5d\u9f8d\u65fa\u89d2\u5f4c\u6566\u9053628\u865f\u74ca\u83ef\u4e2d\u5fc312\u6a13",
          "short_name": "\u4e5d\u9f8d\u65fa\u89d2\u5f4c\u6566\u9053628\u865f\u74ca\u83ef\u4e2d\u5fc312\u6a13",
          "types": [
            "neighborhood",
            "political"
          ]
        },
        {
          "long_name": "\u4e5d\u9f8d",
          "short_name": "\u4e5d\u9f8d",
          "types": [
            "administrative_area_level_1",
            "political"
          ]
        },
        {
          "long_name": "\u9999\u6e2f",
          "short_name": "HK",
          "types": [
            "country",
            "political"
          ]
        }
      ],
      "formatted_address": "\u9999\u6e2f\u4e5d\u9f8d\u65fa\u89d2\u5f4c\u6566\u9053628\u865f\u74ca\u83ef\u4e2d\u5fc312\u6a13",
      "geometry": {
        "location": {
          "lat": 22.317836,
          "lng": 114.169905
        },
        "location_type": "GEOMETRIC_CENTER",
        "viewport": {
          "northeast": {
            "lat": 22.3191849802915,
            "lng": 114.1712539802915
          },
          "southwest": {
            "lat": 22.3164870197085,
            "lng": 114.1685560197085
          }
        }
      },
      "place_id": "ChIJqTo5pccABDQRSUrpoVzAtWE",
      "plus_code": {
        "compound_code": "8599+4X \u9999\u6e2f",
        "global_code": "7PJP8599+4X"
      },
      "types": [
        "establishment",
        "food",
        "point_of_interest",
        "restaurant"
      ]
    }
  ],
  "licno": "2262808761",
  "timestamp": 1564968756,
  "version": "1564966095"
}
