{
  "adr_en": "\u6717\u8c6c\u7238\u7238\u5c0f\u5eda, BLOCK D, G/F, TMTL 198, WAH HING BLDG, CASTLE PEAK ROAD, TUEN MUN, NEW TERRITORIES",
  "adr_tc": "\u65b0\u754c\u5c6f\u9580\u5c6f\u9580\u5e02\u5730\u6bb5198\u865f\u9752\u5c71\u516c\u8def\u5c6f\u9580\u83ef\u8208\u5927\u5ec8D\u5ea7\u5730 \u4e0b \u6717\u8c6c\u7238\u7238\u5c0f\u5eda",
  "geocode_en": [
    {
      "address_components": [
        {
          "long_name": "Tsing Ling Path",
          "short_name": "Tsing Ling Path",
          "types": [
            "route"
          ]
        },
        {
          "long_name": "Hong Kong",
          "short_name": "HK",
          "types": [
            "country",
            "political"
          ]
        }
      ],
      "formatted_address": "Hong Kong, Tsing Ling Path, \u5c6f \u9580\u4e95 \u8ca1 \u8857 \u83ef\u8208 \u5927\u53a6",
      "geometry": {
        "location": {
          "lat": 22.4018135,
          "lng": 113.9782036
        },
        "location_type": "GEOMETRIC_CENTER",
        "viewport": {
          "northeast": {
            "lat": 22.4031624802915,
            "lng": 113.9795525802915
          },
          "southwest": {
            "lat": 22.4004645197085,
            "lng": 113.9768546197085
          }
        }
      },
      "partial_match": true,
      "place_id": "ChIJq6q2Qh_7AzQRLkOCyEi-iEY",
      "plus_code": {
        "compound_code": "CX2H+P7 Hong Kong",
        "global_code": "7PJMCX2H+P7"
      },
      "types": [
        "establishment",
        "food",
        "point_of_interest",
        "restaurant"
      ]
    },
    {
      "address_components": [
        {
          "long_name": "Castle Peak Road (Ting Kau)",
          "short_name": "Castle Peak Rd (Ting Kau)",
          "types": [
            "route"
          ]
        },
        {
          "long_name": "New Territories",
          "short_name": "New Territories",
          "types": [
            "administrative_area_level_1",
            "political"
          ]
        },
        {
          "long_name": "Hong Kong",
          "short_name": "HK",
          "types": [
            "country",
            "political"
          ]
        }
      ],
      "formatted_address": "Castle Peak Rd (Ting Kau), Hong Kong",
      "geometry": {
        "bounds": {
          "northeast": {
            "lat": 22.3712368,
            "lng": 114.097857
          },
          "southwest": {
            "lat": 22.3633289,
            "lng": 114.0681266
          }
        },
        "location": {
          "lat": 22.3681879,
          "lng": 114.0842682
        },
        "location_type": "GEOMETRIC_CENTER",
        "viewport": {
          "northeast": {
            "lat": 22.3712368,
            "lng": 114.097857
          },
          "southwest": {
            "lat": 22.3633289,
            "lng": 114.0681266
          }
        }
      },
      "partial_match": true,
      "place_id": "ChIJf_1cez35AzQRNjSNkrv4RgY",
      "types": [
        "route"
      ]
    }
  ],
  "geocode_tc": [
    {
      "address_components": [
        {
          "long_name": "\u9752\u83f1\u5f91",
          "short_name": "\u9752\u83f1\u5f91",
          "types": [
            "route"
          ]
        },
        {
          "long_name": "\u9999\u6e2f",
          "short_name": "HK",
          "types": [
            "country",
            "political"
          ]
        }
      ],
      "formatted_address": "\u9999\u6e2f\u9752\u83f1\u5f91\u5c6f \u9580\u4e95 \u8ca1 \u8857 \u83ef\u8208 \u5927\u53a6",
      "geometry": {
        "location": {
          "lat": 22.4018135,
          "lng": 113.9782036
        },
        "location_type": "GEOMETRIC_CENTER",
        "viewport": {
          "northeast": {
            "lat": 22.4031624802915,
            "lng": 113.9795525802915
          },
          "southwest": {
            "lat": 22.4004645197085,
            "lng": 113.9768546197085
          }
        }
      },
      "partial_match": true,
      "place_id": "ChIJq6q2Qh_7AzQRLkOCyEi-iEY",
      "plus_code": {
        "compound_code": "CX2H+P7 \u9999\u6e2f",
        "global_code": "7PJMCX2H+P7"
      },
      "types": [
        "establishment",
        "food",
        "point_of_interest",
        "restaurant"
      ]
    },
    {
      "address_components": [
        {
          "long_name": "198",
          "short_name": "198",
          "types": [
            "street_number"
          ]
        },
        {
          "long_name": "\u9752\u5c71\u516c\u8def\u65b0\u589f\u6bb5",
          "short_name": "\u9752\u5c71\u516c\u8def\u65b0\u589f\u6bb5",
          "types": [
            "route"
          ]
        },
        {
          "long_name": "\u65b0\u589f",
          "short_name": "\u65b0\u589f",
          "types": [
            "neighborhood",
            "political"
          ]
        },
        {
          "long_name": "\u65b0\u754c",
          "short_name": "\u65b0\u754c",
          "types": [
            "administrative_area_level_1",
            "political"
          ]
        },
        {
          "long_name": "\u9999\u6e2f",
          "short_name": "HK",
          "types": [
            "country",
            "political"
          ]
        }
      ],
      "formatted_address": "\u9999\u6e2f\u65b0\u589f\u9752\u5c71\u516c\u8def\u65b0\u589f\u6bb5198\u865f",
      "geometry": {
        "location": {
          "lat": 22.4001487,
          "lng": 113.9777383
        },
        "location_type": "RANGE_INTERPOLATED",
        "viewport": {
          "northeast": {
            "lat": 22.4014976802915,
            "lng": 113.9790872802915
          },
          "southwest": {
            "lat": 22.3987997197085,
            "lng": 113.9763893197085
          }
        }
      },
      "partial_match": true,
      "place_id": "EjIxOTggQ2FzdGxlIFBlYWsgUm9hZCAoU2FuIEh1aSksIFNhbiBIdWksIEhvbmcgS29uZyIbEhkKFAoSCROzRKkY-wM0Ee_Ouw9uaL0pEMYB",
      "types": [
        "street_address"
      ]
    },
    {
      "address_components": [
        {
          "long_name": "1\u865f",
          "short_name": "1\u865f",
          "types": [
            "premise"
          ]
        },
        {
          "long_name": "Tuen Shun Street",
          "short_name": "Tuen Shun St",
          "types": [
            "route"
          ]
        },
        {
          "long_name": "Tuen Mun",
          "short_name": "Tuen Mun",
          "types": [
            "neighborhood",
            "political"
          ]
        },
        {
          "long_name": "New Territories",
          "short_name": "New Territories",
          "types": [
            "administrative_area_level_1",
            "political"
          ]
        },
        {
          "long_name": "\u9999\u6e2f",
          "short_name": "HK",
          "types": [
            "country",
            "political"
          ]
        }
      ],
      "formatted_address": "1\u865f, Tuen Shun St, Tuen Mun, \u9999\u6e2f",
      "geometry": {
        "location": {
          "lat": 22.3930855,
          "lng": 113.9764459
        },
        "location_type": "ROOFTOP",
        "viewport": {
          "northeast": {
            "lat": 22.3944344802915,
            "lng": 113.9777948802915
          },
          "southwest": {
            "lat": 22.3917365197085,
            "lng": 113.9750969197085
          }
        }
      },
      "partial_match": true,
      "place_id": "ChIJASQPcT37AzQRBlhSGahsxls",
      "plus_code": {
        "compound_code": "9XVG+6H \u9999\u6e2f\u5c6f\u9580",
        "global_code": "7PJM9XVG+6H"
      },
      "types": [
        "establishment",
        "point_of_interest",
        "shopping_mall"
      ]
    }
  ],
  "licno": "2293000372",
  "timestamp": 1564968756,
  "version": "1564966095"
}
