{
  "adr_en": "Shabu Sai, SHOP 10, 1/F., ABERDEEN CENTRE, SITE 4, ABERDEEN, HONG KONG",
  "adr_tc": "\u9999\u6e2f\u9999\u6e2f\u4ed4\u9999\u6e2f\u4ed4\u4e2d\u5fc3\u7b2c\u56db\u671f\u4e00\u6a1310\u865f\u92ea \u83dc\u83dc\u934b",
  "geocode_en": [
    {
      "address_components": [
        {
          "long_name": "Sha Tin Centre Street",
          "short_name": "Sha Tin Centre St",
          "types": [
            "route"
          ]
        },
        {
          "long_name": "Sha Tin",
          "short_name": "Sha Tin",
          "types": [
            "neighborhood",
            "political"
          ]
        },
        {
          "long_name": "New Territories",
          "short_name": "New Territories",
          "types": [
            "administrative_area_level_1",
            "political"
          ]
        },
        {
          "long_name": "Hong Kong",
          "short_name": "HK",
          "types": [
            "country",
            "political"
          ]
        }
      ],
      "formatted_address": "A132b, L1, New Town Plaza Phase 3, 18, Sha Tin Centre St, Sha Tin, Hong Kong",
      "geometry": {
        "location": {
          "lat": 22.3804345,
          "lng": 114.1873393
        },
        "location_type": "GEOMETRIC_CENTER",
        "viewport": {
          "northeast": {
            "lat": 22.3817834802915,
            "lng": 114.1886882802915
          },
          "southwest": {
            "lat": 22.3790855197085,
            "lng": 114.1859903197085
          }
        }
      },
      "partial_match": true,
      "place_id": "ChIJURWzaawHBDQRIScfMIT3LbU",
      "plus_code": {
        "compound_code": "95JP+5W Hong Kong",
        "global_code": "7PJP95JP+5W"
      },
      "types": [
        "establishment",
        "food",
        "point_of_interest",
        "restaurant"
      ]
    },
    {
      "address_components": [
        {
          "long_name": "Aberdeen",
          "short_name": "Aberdeen",
          "types": [
            "neighborhood",
            "political"
          ]
        },
        {
          "long_name": "Hong Kong Island",
          "short_name": "Hong Kong Island",
          "types": [
            "administrative_area_level_1",
            "political"
          ]
        },
        {
          "long_name": "Hong Kong",
          "short_name": "HK",
          "types": [
            "country",
            "political"
          ]
        }
      ],
      "formatted_address": "Aberdeen, Hong Kong",
      "geometry": {
        "bounds": {
          "northeast": {
            "lat": 22.2559258,
            "lng": 114.1636027
          },
          "southwest": {
            "lat": 22.2463701,
            "lng": 114.1481103
          }
        },
        "location": {
          "lat": 22.2483068,
          "lng": 114.1524398
        },
        "location_type": "APPROXIMATE",
        "viewport": {
          "northeast": {
            "lat": 22.2559258,
            "lng": 114.1636027
          },
          "southwest": {
            "lat": 22.2463701,
            "lng": 114.1481103
          }
        }
      },
      "partial_match": true,
      "place_id": "ChIJCQeMtAMABDQRtnosFGW9dB4",
      "types": [
        "neighborhood",
        "political"
      ]
    }
  ],
  "geocode_tc": [
    {
      "address_components": [
        {
          "long_name": "\u5357\u5be7\u8857",
          "short_name": "\u5357\u5be7\u8857",
          "types": [
            "route"
          ]
        },
        {
          "long_name": "\u9999\u6e2f\u4ed4",
          "short_name": "\u9999\u6e2f\u4ed4",
          "types": [
            "neighborhood",
            "political"
          ]
        },
        {
          "long_name": "\u9999\u6e2f\u5cf6",
          "short_name": "\u9999\u6e2f\u5cf6",
          "types": [
            "administrative_area_level_1",
            "political"
          ]
        },
        {
          "long_name": "\u9999\u6e2f",
          "short_name": "HK",
          "types": [
            "country",
            "political"
          ]
        }
      ],
      "formatted_address": "\u9999\u6e2f\u9999\u6e2f\u4ed4\u5357\u5be7\u8857",
      "geometry": {
        "location": {
          "lat": 22.2488004,
          "lng": 114.1538683
        },
        "location_type": "GEOMETRIC_CENTER",
        "viewport": {
          "northeast": {
            "lat": 22.2501493802915,
            "lng": 114.1552172802915
          },
          "southwest": {
            "lat": 22.2474514197085,
            "lng": 114.1525193197085
          }
        }
      },
      "partial_match": true,
      "place_id": "ChIJ1xJyPgMABDQRXv0m3mw5APg",
      "plus_code": {
        "compound_code": "65X3+GG \u9999\u6e2f\u9999\u6e2f\u4ed4",
        "global_code": "7PJP65X3+GG"
      },
      "types": [
        "establishment",
        "point_of_interest",
        "shopping_mall"
      ]
    },
    {
      "address_components": [
        {
          "long_name": "\u9999\u6e2f\u4ed4",
          "short_name": "\u9999\u6e2f\u4ed4",
          "types": [
            "neighborhood",
            "political"
          ]
        },
        {
          "long_name": "\u9999\u6e2f\u5cf6",
          "short_name": "\u9999\u6e2f\u5cf6",
          "types": [
            "administrative_area_level_1",
            "political"
          ]
        },
        {
          "long_name": "\u9999\u6e2f",
          "short_name": "HK",
          "types": [
            "country",
            "political"
          ]
        }
      ],
      "formatted_address": "\u9999\u6e2f\u9999\u6e2f\u4ed4",
      "geometry": {
        "location": {
          "lat": 22.2483204,
          "lng": 114.1545012
        },
        "location_type": "GEOMETRIC_CENTER",
        "viewport": {
          "northeast": {
            "lat": 22.2496693802915,
            "lng": 114.1558501802915
          },
          "southwest": {
            "lat": 22.2469714197085,
            "lng": 114.1531522197085
          }
        }
      },
      "partial_match": true,
      "place_id": "ChIJ0efADRMBBDQRc1l6r63eKbA",
      "plus_code": {
        "compound_code": "65X3+8R \u9999\u6e2f",
        "global_code": "7PJP65X3+8R"
      },
      "types": [
        "establishment",
        "food",
        "point_of_interest",
        "restaurant"
      ]
    }
  ],
  "licno": "2215802130",
  "timestamp": 1564968756,
  "version": "1564966095"
}
