{
  "adr_en": "\u5916\u5a46\u9178\u8fa3\u7c89, SHOP NO. 24, G/F, TAK CHEONG BUILDING, 1001 KWAI CHUNG ROAD, KWAI CHUNG, NEW TERRITORIES",
  "adr_tc": "\u65b0\u754c\u8475\u6d8c\u8475\u6d8c\u90531001\u865f \u5fb7\u660c\u5927\u5ec8\u5730\u4e0b24\u865f\u92ea \u5916\u5a46\u9178\u8fa3\u7c89",
  "geocode_en": [
    {
      "address_components": [
        {
          "long_name": "\u9178\u8fa3\u7c89, SHOP",
          "short_name": "\u9178\u8fa3\u7c89, SHOP",
          "types": [
            "subpremise"
          ]
        },
        {
          "long_name": "Tak Cheong Building",
          "short_name": "Tak Cheong Building",
          "types": [
            "premise"
          ]
        },
        {
          "long_name": "1001",
          "short_name": "1001",
          "types": [
            "street_number"
          ]
        },
        {
          "long_name": "Kwai Chung Road",
          "short_name": "Kwai Chung Rd",
          "types": [
            "route"
          ]
        },
        {
          "long_name": "Kwai Chung",
          "short_name": "Kwai Chung",
          "types": [
            "neighborhood",
            "political"
          ]
        },
        {
          "long_name": "New Territories",
          "short_name": "New Territories",
          "types": [
            "administrative_area_level_1",
            "political"
          ]
        },
        {
          "long_name": "Hong Kong",
          "short_name": "HK",
          "types": [
            "country",
            "political"
          ]
        }
      ],
      "formatted_address": "\u9178\u8fa3\u7c89, SHOP, Tak Cheong Building, 1001 Kwai Chung Rd, Kwai Chung, Hong Kong",
      "geometry": {
        "bounds": {
          "northeast": {
            "lat": 22.367537,
            "lng": 114.1335149
          },
          "southwest": {
            "lat": 22.367006,
            "lng": 114.1329171
          }
        },
        "location": {
          "lat": 22.3672988,
          "lng": 114.1332523
        },
        "location_type": "ROOFTOP",
        "viewport": {
          "northeast": {
            "lat": 22.3686204802915,
            "lng": 114.1345649802915
          },
          "southwest": {
            "lat": 22.3659225197085,
            "lng": 114.1318670197085
          }
        }
      },
      "partial_match": true,
      "place_id": "Ek_phbjovqPnsoksIFNIT1AsIFRhayBDaGVvbmcgQnVpbGRpbmcsIDEwMDEgS3dhaSBDaHVuZyBSZCwgS3dhaSBDaHVuZywgSG9uZyBLb25nIisaKQoWChQKEgl1VpBmmvgDNBFyCTUchbc-JxIP6YW46L6j57KJLCBTSE9Q",
      "types": [
        "subpremise"
      ]
    },
    {
      "address_components": [
        {
          "long_name": "\u8fa3\u7c89, SHOP NO",
          "short_name": "\u8fa3\u7c89, SHOP NO",
          "types": [
            "subpremise"
          ]
        },
        {
          "long_name": "Tak Cheong Building",
          "short_name": "Tak Cheong Building",
          "types": [
            "premise"
          ]
        },
        {
          "long_name": "1001",
          "short_name": "1001",
          "types": [
            "street_number"
          ]
        },
        {
          "long_name": "Kwai Chung Road",
          "short_name": "Kwai Chung Rd",
          "types": [
            "route"
          ]
        },
        {
          "long_name": "Kwai Chung",
          "short_name": "Kwai Chung",
          "types": [
            "neighborhood",
            "political"
          ]
        },
        {
          "long_name": "New Territories",
          "short_name": "New Territories",
          "types": [
            "administrative_area_level_1",
            "political"
          ]
        },
        {
          "long_name": "Hong Kong",
          "short_name": "HK",
          "types": [
            "country",
            "political"
          ]
        }
      ],
      "formatted_address": "\u8fa3\u7c89, SHOP NO, Tak Cheong Building, 1001 Kwai Chung Rd, Kwai Chung, Hong Kong",
      "geometry": {
        "bounds": {
          "northeast": {
            "lat": 22.367537,
            "lng": 114.1335149
          },
          "southwest": {
            "lat": 22.367006,
            "lng": 114.1329171
          }
        },
        "location": {
          "lat": 22.3672988,
          "lng": 114.1332523
        },
        "location_type": "ROOFTOP",
        "viewport": {
          "northeast": {
            "lat": 22.3686204802915,
            "lng": 114.1345649802915
          },
          "southwest": {
            "lat": 22.3659225197085,
            "lng": 114.1318670197085
          }
        }
      },
      "partial_match": true,
      "place_id": "Ek_ovqPnsoksIFNIT1AgTk8sIFRhayBDaGVvbmcgQnVpbGRpbmcsIDEwMDEgS3dhaSBDaHVuZyBSZCwgS3dhaSBDaHVuZywgSG9uZyBLb25nIisaKQoWChQKEgl1VpBmmvgDNBFyCTUchbc-JxIP6L6j57KJLCBTSE9QIE5P",
      "types": [
        "subpremise"
      ]
    },
    {
      "address_components": [
        {
          "long_name": "SHOP NO. 24, G",
          "short_name": "SHOP NO. 24, G",
          "types": [
            "subpremise"
          ]
        },
        {
          "long_name": "Tak Cheong Building",
          "short_name": "Tak Cheong Building",
          "types": [
            "premise"
          ]
        },
        {
          "long_name": "1001",
          "short_name": "1001",
          "types": [
            "street_number"
          ]
        },
        {
          "long_name": "Kwai Chung Road",
          "short_name": "Kwai Chung Rd",
          "types": [
            "route"
          ]
        },
        {
          "long_name": "Kwai Chung",
          "short_name": "Kwai Chung",
          "types": [
            "neighborhood",
            "political"
          ]
        },
        {
          "long_name": "New Territories",
          "short_name": "New Territories",
          "types": [
            "administrative_area_level_1",
            "political"
          ]
        },
        {
          "long_name": "Hong Kong",
          "short_name": "HK",
          "types": [
            "country",
            "political"
          ]
        }
      ],
      "formatted_address": "SHOP NO. 24, G, Tak Cheong Building, 1001 Kwai Chung Rd, Kwai Chung, Hong Kong",
      "geometry": {
        "bounds": {
          "northeast": {
            "lat": 22.367537,
            "lng": 114.1335149
          },
          "southwest": {
            "lat": 22.367006,
            "lng": 114.1329171
          }
        },
        "location": {
          "lat": 22.3672988,
          "lng": 114.1332523
        },
        "location_type": "ROOFTOP",
        "viewport": {
          "northeast": {
            "lat": 22.3686204802915,
            "lng": 114.1345649802915
          },
          "southwest": {
            "lat": 22.3659225197085,
            "lng": 114.1318670197085
          }
        }
      },
      "partial_match": true,
      "place_id": "Ek5TSE9QIE5PLiAyNCwgRywgVGFrIENoZW9uZyBCdWlsZGluZywgMTAwMSBLd2FpIENodW5nIFJkLCBLd2FpIENodW5nLCBIb25nIEtvbmciKhooChYKFAoSCXVWkGaa-AM0EXIJNRyFtz4nEg5TSE9QIE5PLiAyNCwgRw",
      "types": [
        "subpremise"
      ]
    },
    {
      "address_components": [
        {
          "long_name": "Tak Cheong Building",
          "short_name": "Tak Cheong Building",
          "types": [
            "premise"
          ]
        },
        {
          "long_name": "1001",
          "short_name": "1001",
          "types": [
            "street_number"
          ]
        },
        {
          "long_name": "Kwai Chung Road",
          "short_name": "Kwai Chung Rd",
          "types": [
            "route"
          ]
        },
        {
          "long_name": "Kwai Chung",
          "short_name": "Kwai Chung",
          "types": [
            "neighborhood",
            "political"
          ]
        },
        {
          "long_name": "New Territories",
          "short_name": "New Territories",
          "types": [
            "administrative_area_level_1",
            "political"
          ]
        },
        {
          "long_name": "Hong Kong",
          "short_name": "HK",
          "types": [
            "country",
            "political"
          ]
        }
      ],
      "formatted_address": "Tak Cheong Building, 1001 Kwai Chung Rd, Kwai Chung, Hong Kong",
      "geometry": {
        "bounds": {
          "northeast": {
            "lat": 22.367537,
            "lng": 114.1335149
          },
          "southwest": {
            "lat": 22.367006,
            "lng": 114.1329171
          }
        },
        "location": {
          "lat": 22.3672988,
          "lng": 114.1332523
        },
        "location_type": "ROOFTOP",
        "viewport": {
          "northeast": {
            "lat": 22.3686204802915,
            "lng": 114.1345649802915
          },
          "southwest": {
            "lat": 22.3659225197085,
            "lng": 114.1318670197085
          }
        }
      },
      "partial_match": true,
      "place_id": "ChIJdVaQZpr4AzQRcgk1HIW3Pic",
      "types": [
        "premise"
      ]
    }
  ],
  "geocode_tc": [
    {
      "address_components": [
        {
          "long_name": "100-102\u865f",
          "short_name": "100-102\u865f",
          "types": [
            "street_number"
          ]
        },
        {
          "long_name": "\u8343\u666f\u570d",
          "short_name": "\u8343\u666f\u570d",
          "types": [
            "route"
          ]
        },
        {
          "long_name": "\u8343\u7063",
          "short_name": "\u8343\u7063",
          "types": [
            "neighborhood",
            "political"
          ]
        },
        {
          "long_name": "\u65b0\u754c",
          "short_name": "\u65b0\u754c",
          "types": [
            "administrative_area_level_1",
            "political"
          ]
        },
        {
          "long_name": "\u9999\u6e2f",
          "short_name": "HK",
          "types": [
            "country",
            "political"
          ]
        }
      ],
      "formatted_address": "\u9999\u6e2f\u8343\u7063\u8343\u666f\u570d100-102\u865f",
      "geometry": {
        "location": {
          "lat": 22.3789155,
          "lng": 114.1072684
        },
        "location_type": "ROOFTOP",
        "viewport": {
          "northeast": {
            "lat": 22.3802644802915,
            "lng": 114.1086173802915
          },
          "southwest": {
            "lat": 22.37756651970849,
            "lng": 114.1059194197085
          }
        }
      },
      "place_id": "ChIJ3eWQZpr4AzQRvnwH8pgk_G8",
      "plus_code": {
        "compound_code": "94H4+HW \u9999\u6e2f\u8343\u7063",
        "global_code": "7PJP94H4+HW"
      },
      "types": [
        "establishment",
        "food",
        "point_of_interest",
        "restaurant"
      ]
    }
  ],
  "licno": "3191000464",
  "timestamp": 1564975666,
  "version": "1564966095"
}
