{
  "adr_en": "\u516b\u65b9\u96f2\u96c6, SHOP B, G/F., NOS. 19, 21 & 21A NORTH POINT ROAD, NORTH POINT, HONG KONG",
  "adr_tc": "\u9999\u6e2f\u5317\u89d2\u5317\u89d2\u905319,21\u53ca21A\u865f\u5730\u4e0bB\u8216 \u516b\u65b9\u96f2\u96c6",
  "geocode_en": [
    {
      "address_components": [
        {
          "long_name": "\u5317\u89d2\u5c0f\u6a13",
          "short_name": "\u5317\u89d2\u5c0f\u6a13",
          "types": [
            "premise"
          ]
        },
        {
          "long_name": "19-21A",
          "short_name": "19-21A",
          "types": [
            "street_number"
          ]
        },
        {
          "long_name": "North Point Road",
          "short_name": "North Point Rd",
          "types": [
            "route"
          ]
        },
        {
          "long_name": "North Point",
          "short_name": "North Point",
          "types": [
            "neighborhood",
            "political"
          ]
        },
        {
          "long_name": "Hong Kong Island",
          "short_name": "Hong Kong Island",
          "types": [
            "administrative_area_level_1",
            "political"
          ]
        },
        {
          "long_name": "Hong Kong",
          "short_name": "HK",
          "types": [
            "country",
            "political"
          ]
        }
      ],
      "formatted_address": "Hong Kong, North Point, North Point Rd, 19-21A\u865f\u5317\u89d2\u5c0f\u6a13",
      "geometry": {
        "bounds": {
          "northeast": {
            "lat": 22.2913451,
            "lng": 114.1964481
          },
          "southwest": {
            "lat": 22.291179,
            "lng": 114.196269
          }
        },
        "location": {
          "lat": 22.2912742,
          "lng": 114.1963484
        },
        "location_type": "ROOFTOP",
        "viewport": {
          "northeast": {
            "lat": 22.2926110302915,
            "lng": 114.1977075302915
          },
          "southwest": {
            "lat": 22.2899130697085,
            "lng": 114.1950095697085
          }
        }
      },
      "partial_match": true,
      "place_id": "ChIJ4f1mcQMBBDQRDNdcfL7k684",
      "types": [
        "premise"
      ]
    }
  ],
  "geocode_tc": [
    {
      "address_components": [
        {
          "long_name": "\u5730\u4e0b2\u865f\u8216",
          "short_name": "\u5730\u4e0b2\u865f\u8216",
          "types": [
            "subpremise"
          ]
        },
        {
          "long_name": "\u9d3b\u65e5\u5927\u5ec8",
          "short_name": "\u9d3b\u65e5\u5927\u5ec8",
          "types": [
            "premise"
          ]
        },
        {
          "long_name": "\u5317\u89d2\u9053",
          "short_name": "\u5317\u89d2\u9053",
          "types": [
            "route"
          ]
        },
        {
          "long_name": "\u5317\u89d2",
          "short_name": "\u5317\u89d2",
          "types": [
            "neighborhood",
            "political"
          ]
        },
        {
          "long_name": "\u9999\u6e2f\u5cf6",
          "short_name": "\u9999\u6e2f\u5cf6",
          "types": [
            "administrative_area_level_1",
            "political"
          ]
        },
        {
          "long_name": "\u9999\u6e2f",
          "short_name": "HK",
          "types": [
            "country",
            "political"
          ]
        }
      ],
      "formatted_address": "\u9999\u6e2f\u5317\u89d2\u5317\u89d2\u9053\u9d3b\u65e5\u5927\u5ec8\u5730\u4e0b2\u865f\u8216",
      "geometry": {
        "location": {
          "lat": 22.2909782,
          "lng": 114.1964959
        },
        "location_type": "ROOFTOP",
        "viewport": {
          "northeast": {
            "lat": 22.2923271802915,
            "lng": 114.1978448802915
          },
          "southwest": {
            "lat": 22.28962921970849,
            "lng": 114.1951469197085
          }
        }
      },
      "place_id": "ChIJ3SGXdwMBBDQRojXwKRDXZ2w",
      "plus_code": {
        "compound_code": "75RW+9H \u9999\u6e2f",
        "global_code": "7PJP75RW+9H"
      },
      "types": [
        "establishment",
        "food",
        "point_of_interest",
        "restaurant"
      ]
    },
    {
      "address_components": [
        {
          "long_name": "\u9999\u6e2f",
          "short_name": "HK",
          "types": [
            "country",
            "political"
          ]
        }
      ],
      "formatted_address": "Shop L6A, LG/F., Fitfort, 560 King's Road, North Point, Hong Kong, \u9999\u6e2f",
      "geometry": {
        "location": {
          "lat": 22.2916691,
          "lng": 114.2036748
        },
        "location_type": "GEOMETRIC_CENTER",
        "viewport": {
          "northeast": {
            "lat": 22.2930180802915,
            "lng": 114.2050237802915
          },
          "southwest": {
            "lat": 22.2903201197085,
            "lng": 114.2023258197085
          }
        }
      },
      "place_id": "ChIJrT69UAUBBDQRQSqimY_fwGM",
      "plus_code": {
        "compound_code": "76R3+MF \u9999\u6e2f",
        "global_code": "7PJP76R3+MF"
      },
      "types": [
        "establishment",
        "food",
        "point_of_interest",
        "restaurant"
      ]
    }
  ],
  "licno": "3111803522",
  "timestamp": 1564975666,
  "version": "1564966095"
}
