{
  "adr_en": "FULUM RESTAURANT (THE KING OF ROASTED GOOSE), SHOP 5-6, G/F & SHOP 8, 1/F, CANARYSIDE, 8 SHUNG SHUN STREET, YAU TONG, KWUN TONG, KOWLOON",
  "adr_tc": "\u4e5d\u9f8d\u89c0\u5858\u6cb9\u5858\u5d07\u4fe1\u88578\u865f\u9bc9\u7063\u5929\u4e0b\u5730\u4e0b 5-6\u865f\u8216\u53ca1\u6a138\u865f\u8216 \u5bcc\u81e8\u9152\u5bb6(\u71d2\u9d5d\u5927\u738b)",
  "geocode_en": [
    {
      "address_components": [
        {
          "long_name": "Canaryside",
          "short_name": "Canaryside",
          "types": [
            "premise"
          ]
        },
        {
          "long_name": "8",
          "short_name": "8",
          "types": [
            "street_number"
          ]
        },
        {
          "long_name": "Shung Shun Street",
          "short_name": "Shung Shun St",
          "types": [
            "route"
          ]
        },
        {
          "long_name": "Yau Tong",
          "short_name": "Yau Tong",
          "types": [
            "neighborhood",
            "political"
          ]
        },
        {
          "long_name": "Kowloon",
          "short_name": "Kowloon",
          "types": [
            "administrative_area_level_1",
            "political"
          ]
        },
        {
          "long_name": "Hong Kong",
          "short_name": "HK",
          "types": [
            "country",
            "political"
          ]
        }
      ],
      "formatted_address": "Canaryside, 8 Shung Shun St, Yau Tong, Hong Kong",
      "geometry": {
        "bounds": {
          "northeast": {
            "lat": 22.292774,
            "lng": 114.2377289
          },
          "southwest": {
            "lat": 22.292409,
            "lng": 114.2373329
          }
        },
        "location": {
          "lat": 22.2925737,
          "lng": 114.2375405
        },
        "location_type": "ROOFTOP",
        "viewport": {
          "northeast": {
            "lat": 22.2939404802915,
            "lng": 114.2388798802915
          },
          "southwest": {
            "lat": 22.2912425197085,
            "lng": 114.2361819197085
          }
        }
      },
      "partial_match": true,
      "place_id": "ChIJh10iIGIBBDQRrvpIpL_xCbQ",
      "types": [
        "premise"
      ]
    }
  ],
  "geocode_tc": [
    {
      "address_components": [
        {
          "long_name": "\u9999\u6e2f",
          "short_name": "HK",
          "types": [
            "country",
            "political"
          ]
        }
      ],
      "formatted_address": "\u9999\u6e2f\u6cb9\u5858\u795f\u4fe1\u88578\u865f\u9bc9\u7063\u5929\u4e0b\u5730\u4e0b5-6\u865f\u8216\u53ca\u4e00\u6a138\u865f",
      "geometry": {
        "location": {
          "lat": 22.292592,
          "lng": 114.237531
        },
        "location_type": "GEOMETRIC_CENTER",
        "viewport": {
          "northeast": {
            "lat": 22.2939409802915,
            "lng": 114.2388799802915
          },
          "southwest": {
            "lat": 22.2912430197085,
            "lng": 114.2361820197085
          }
        }
      },
      "place_id": "ChIJD2ciIGIBBDQRTF7UPadNCE4",
      "plus_code": {
        "compound_code": "76VQ+22 \u9999\u6e2f",
        "global_code": "7PJP76VQ+22"
      },
      "types": [
        "establishment",
        "food",
        "point_of_interest",
        "restaurant"
      ]
    }
  ],
  "licno": "2251803988",
  "timestamp": 1564968756,
  "version": "1564966095"
}
