{
  "adr_en": "TOSCANA RESTAURANT & BAR, SHOP 1 & 2, LG/F, KWAI PO BUILDING, 112 LEI MUK ROAD, KWAI CHUNG, NEW TERRITORIES",
  "adr_tc": "\u65b0\u754c\u8475\u6d8c\u68a8\u6728\u9053112\u865f\u8475\u5bf6\u5927\u5ec8\u4f4e\u5c64\u5730\u4e0b1\u53ca2\u865f\u92ea TOSCANA RESTAURANT & BAR",
  "geocode_en": [
    {
      "address_components": [
        {
          "long_name": "Hong Kong",
          "short_name": "HK",
          "types": [
            "country",
            "political"
          ]
        }
      ],
      "formatted_address": "Hong Kong, \u8475\u6d8c \u68a8\u6728\u9053102-116\u865f\u8475\u5bf6\u5927\u5ec8\u5730\u4e0b",
      "geometry": {
        "location": {
          "lat": 22.3709178,
          "lng": 114.1380499
        },
        "location_type": "GEOMETRIC_CENTER",
        "viewport": {
          "northeast": {
            "lat": 22.3722667802915,
            "lng": 114.1393988802915
          },
          "southwest": {
            "lat": 22.36956881970849,
            "lng": 114.1367009197085
          }
        }
      },
      "partial_match": true,
      "place_id": "ChIJFRF_oIT4AzQREX3tsAKiWTg",
      "plus_code": {
        "compound_code": "94CQ+96 Hong Kong",
        "global_code": "7PJP94CQ+96"
      },
      "types": [
        "establishment",
        "food",
        "point_of_interest",
        "restaurant"
      ]
    },
    {
      "address_components": [
        {
          "long_name": "Kwai Po Building",
          "short_name": "Kwai Po Building",
          "types": [
            "premise"
          ]
        },
        {
          "long_name": "102",
          "short_name": "102",
          "types": [
            "street_number"
          ]
        },
        {
          "long_name": "Lei Muk Road",
          "short_name": "Lei Muk Rd",
          "types": [
            "route"
          ]
        },
        {
          "long_name": "Shek Yam",
          "short_name": "Shek Yam",
          "types": [
            "neighborhood",
            "political"
          ]
        },
        {
          "long_name": "New Territories",
          "short_name": "New Territories",
          "types": [
            "administrative_area_level_1",
            "political"
          ]
        },
        {
          "long_name": "Hong Kong",
          "short_name": "HK",
          "types": [
            "country",
            "political"
          ]
        }
      ],
      "formatted_address": "Kwai Po Building, 102 Lei Muk Rd, Shek Yam, Hong Kong",
      "geometry": {
        "bounds": {
          "northeast": {
            "lat": 22.3709761,
            "lng": 114.138482
          },
          "southwest": {
            "lat": 22.370454,
            "lng": 114.1378796
          }
        },
        "location": {
          "lat": 22.3707591,
          "lng": 114.1381274
        },
        "location_type": "ROOFTOP",
        "viewport": {
          "northeast": {
            "lat": 22.3720640302915,
            "lng": 114.1395297802915
          },
          "southwest": {
            "lat": 22.3693660697085,
            "lng": 114.1368318197085
          }
        }
      },
      "partial_match": true,
      "place_id": "ChIJi9TRWIP4AzQR3DBbdv0Fnoc",
      "types": [
        "premise"
      ]
    }
  ],
  "geocode_tc": [
    {
      "address_components": [
        {
          "long_name": "\u9999\u6e2f",
          "short_name": "HK",
          "types": [
            "country",
            "political"
          ]
        }
      ],
      "formatted_address": "\u9999\u6e2f\u8475\u6d8c \u68a8\u6728\u9053102-116\u865f\u8475\u5bf6\u5927\u5ec8\u5730\u4e0b",
      "geometry": {
        "location": {
          "lat": 22.3709178,
          "lng": 114.1380499
        },
        "location_type": "GEOMETRIC_CENTER",
        "viewport": {
          "northeast": {
            "lat": 22.3722667802915,
            "lng": 114.1393988802915
          },
          "southwest": {
            "lat": 22.36956881970849,
            "lng": 114.1367009197085
          }
        }
      },
      "partial_match": true,
      "place_id": "ChIJFRF_oIT4AzQREX3tsAKiWTg",
      "plus_code": {
        "compound_code": "94CQ+96 \u9999\u6e2f",
        "global_code": "7PJP94CQ+96"
      },
      "types": [
        "establishment",
        "food",
        "point_of_interest",
        "restaurant"
      ]
    },
    {
      "address_components": [
        {
          "long_name": "\u53ca2\u865f\u92ea",
          "short_name": "\u53ca2\u865f\u92ea",
          "types": [
            "subpremise"
          ]
        },
        {
          "long_name": "\u8475\u5bf6\u5927\u5ec8",
          "short_name": "\u8475\u5bf6\u5927\u5ec8",
          "types": [
            "premise"
          ]
        },
        {
          "long_name": "102",
          "short_name": "102",
          "types": [
            "street_number"
          ]
        },
        {
          "long_name": "\u68a8\u6728\u9053",
          "short_name": "\u68a8\u6728\u9053",
          "types": [
            "route"
          ]
        },
        {
          "long_name": "\u77f3\u852d",
          "short_name": "\u77f3\u852d",
          "types": [
            "neighborhood",
            "political"
          ]
        },
        {
          "long_name": "\u65b0\u754c",
          "short_name": "\u65b0\u754c",
          "types": [
            "administrative_area_level_1",
            "political"
          ]
        },
        {
          "long_name": "\u9999\u6e2f",
          "short_name": "HK",
          "types": [
            "country",
            "political"
          ]
        }
      ],
      "formatted_address": "\u9999\u6e2f\u77f3\u852d\u68a8\u6728\u9053102\u865f\u8475\u5bf6\u5927\u5ec8\u53ca2\u865f\u92ea",
      "geometry": {
        "bounds": {
          "northeast": {
            "lat": 22.3709761,
            "lng": 114.138482
          },
          "southwest": {
            "lat": 22.370454,
            "lng": 114.1378796
          }
        },
        "location": {
          "lat": 22.3707591,
          "lng": 114.1381274
        },
        "location_type": "ROOFTOP",
        "viewport": {
          "northeast": {
            "lat": 22.3720640302915,
            "lng": 114.1395297802915
          },
          "southwest": {
            "lat": 22.3693660697085,
            "lng": 114.1368318197085
          }
        }
      },
      "partial_match": true,
      "place_id": "EkHlj4oy6Jmf6YuqLCBLd2FpIFBvIEJ1aWxkaW5nLCAxMDIgTGVpIE11ayBSZCwgU2hlayBZYW0sIEhvbmcgS29uZyImGiQKFgoUChIJi9TRWIP4AzQR3DBbdv0FnocSCuWPijLomZ_pi6o",
      "types": [
        "subpremise"
      ]
    }
  ],
  "licno": "3191800776",
  "timestamp": 1564975666,
  "version": "1564966095"
}
