{
  "adr_en": "LIFE CAFE, SHOP 13, G/F, KAI CHEONG MANSION, 11-13 TING KOK ROAD, TAI PO, NEW TERRITORIES",
  "adr_tc": "\u65b0\u754c\u5927\u57d4\u6c40\u89d2\u8def11-13\u865f\u5553\u660c\u6a13\u5730\u4e0b13\u92ea \u679c\u5b50",
  "geocode_en": [
    {
      "address_components": [
        {
          "long_name": "13\u865f",
          "short_name": "13\u865f",
          "types": [
            "street_number"
          ]
        },
        {
          "long_name": "Ting Kok Road",
          "short_name": "Ting Kok Rd",
          "types": [
            "route"
          ]
        },
        {
          "long_name": "Tai Po",
          "short_name": "Tai Po",
          "types": [
            "neighborhood",
            "political"
          ]
        },
        {
          "long_name": "New Territories",
          "short_name": "New Territories",
          "types": [
            "administrative_area_level_1",
            "political"
          ]
        },
        {
          "long_name": "Hong Kong",
          "short_name": "HK",
          "types": [
            "country",
            "political"
          ]
        }
      ],
      "formatted_address": "13\u865f Ting Kok Rd, Tai Po, Hong Kong",
      "geometry": {
        "location": {
          "lat": 22.4519677,
          "lng": 114.1651122
        },
        "location_type": "ROOFTOP",
        "viewport": {
          "northeast": {
            "lat": 22.4533166802915,
            "lng": 114.1664611802915
          },
          "southwest": {
            "lat": 22.4506187197085,
            "lng": 114.1637632197085
          }
        }
      },
      "partial_match": true,
      "place_id": "ChIJx0pzkWkJBDQRv8StHVsI-yw",
      "plus_code": {
        "compound_code": "F528+Q2 Hong Kong",
        "global_code": "7PJPF528+Q2"
      },
      "types": [
        "establishment",
        "food",
        "point_of_interest",
        "restaurant"
      ]
    }
  ],
  "geocode_tc": [
    {
      "address_components": [
        {
          "long_name": "\u6c40\u89d2\u8def",
          "short_name": "\u6c40\u89d2\u8def",
          "types": [
            "route"
          ]
        },
        {
          "long_name": "\u5927\u57d4",
          "short_name": "\u5927\u57d4",
          "types": [
            "neighborhood",
            "political"
          ]
        },
        {
          "long_name": "\u65b0\u754c",
          "short_name": "\u65b0\u754c",
          "types": [
            "administrative_area_level_1",
            "political"
          ]
        },
        {
          "long_name": "\u9999\u6e2f",
          "short_name": "HK",
          "types": [
            "country",
            "political"
          ]
        }
      ],
      "formatted_address": "\u9999\u6e2f\u5927\u57d4\u6c40\u89d2\u8def",
      "geometry": {
        "bounds": {
          "northeast": {
            "lat": 22.4592903,
            "lng": 114.18178
          },
          "southwest": {
            "lat": 22.4503666,
            "lng": 114.164132
          }
        },
        "location": {
          "lat": 22.455778,
          "lng": 114.173015
        },
        "location_type": "GEOMETRIC_CENTER",
        "viewport": {
          "northeast": {
            "lat": 22.4592903,
            "lng": 114.18178
          },
          "southwest": {
            "lat": 22.4503666,
            "lng": 114.164132
          }
        }
      },
      "partial_match": true,
      "place_id": "Eh5UaW5nIEtvayBSZCwgVGFpIFBvLCBIb25nIEtvbmciLiosChQKEgnD6JYAAwkENBEtN7MIMefFVBIUChIJveMMmTwIBDQRAuZCal0gg_4",
      "types": [
        "route"
      ]
    }
  ],
  "licno": "2295802073",
  "timestamp": 1564975666,
  "version": "1564966095"
}
