{
  "adr_en": "Blueprint 2.0, 3/F (PORTION A & PORTION B), DORSET HOUSE, TAIKOO PLACE, 979 KING'S ROAD, QUARRY BAY, HONG KONG",
  "adr_tc": "\u9999\u6e2f\u9c02\u9b5a\u6d8c\u82f1\u7687\u9053979\u865f \u592a\u53e4\u574a\u591a\u76db\u5927\u5ec8\u4e09\u6a13(A\u90e8\u4efd\u53caB\u90e8\u4efd) Blueprint 2.0",
  "geocode_en": [
    {
      "address_components": [
        {
          "long_name": "Quarry Bay",
          "short_name": "Quarry Bay",
          "types": [
            "neighborhood",
            "political"
          ]
        },
        {
          "long_name": "Hong Kong Island",
          "short_name": "Hong Kong Island",
          "types": [
            "administrative_area_level_1",
            "political"
          ]
        },
        {
          "long_name": "Hong Kong",
          "short_name": "HK",
          "types": [
            "country",
            "political"
          ]
        }
      ],
      "formatted_address": "2/F, Dorset House, Taikoo Place, 979 King's Road, Quarry Bay, Hong Kong",
      "geometry": {
        "location": {
          "lat": 22.287181,
          "lng": 114.21208
        },
        "location_type": "GEOMETRIC_CENTER",
        "viewport": {
          "northeast": {
            "lat": 22.2885299802915,
            "lng": 114.2134289802915
          },
          "southwest": {
            "lat": 22.2858320197085,
            "lng": 114.2107310197085
          }
        }
      },
      "place_id": "ChIJ4_9PiwwBBDQRo9us5Jco_4M",
      "plus_code": {
        "compound_code": "76P6+VR Quarry Bay, Hong Kong",
        "global_code": "7PJP76P6+VR"
      },
      "types": [
        "establishment",
        "point_of_interest"
      ]
    }
  ],
  "geocode_tc": [
    {
      "address_components": [
        {
          "long_name": "\u9999\u6e2f",
          "short_name": "HK",
          "types": [
            "country",
            "political"
          ]
        }
      ],
      "formatted_address": "\u9999\u6e2f\u82f1\u7687\u9053979\u865f",
      "geometry": {
        "location": {
          "lat": 22.287096,
          "lng": 114.211803
        },
        "location_type": "GEOMETRIC_CENTER",
        "viewport": {
          "northeast": {
            "lat": 22.2884449802915,
            "lng": 114.2131519802915
          },
          "southwest": {
            "lat": 22.2857470197085,
            "lng": 114.2104540197085
          }
        }
      },
      "place_id": "ChIJh5y7XQwBBDQRL_-rCe1MFiE",
      "plus_code": {
        "compound_code": "76P6+RP \u9999\u6e2f",
        "global_code": "7PJP76P6+RP"
      },
      "types": [
        "establishment",
        "point_of_interest"
      ]
    }
  ],
  "licno": "2211807492",
  "timestamp": 1564966180,
  "version": "1564966095"
}
