{
  "adr_en": "Starbucks Coffee, SHOP NO. G02, G/F., CENTURY LINK, 6 YING HONG STREET, TUNG CHUNG, LANTAU ISLAND, NEW TERRITORIES",
  "adr_tc": "\u65b0\u754c\u5927\u5dbc\u5c71\u6771\u6d8c\u8fce\u5eb7\u88576\u865f  \u6771\u74b0\u5546\u5834\u5730\u4e0bG02\u865f\u8216 Starbucks Coffee",
  "geocode_en": [
    {
      "address_components": [
        {
          "long_name": "G/F",
          "short_name": "G/F",
          "types": [
            "floor"
          ]
        },
        {
          "long_name": "6",
          "short_name": "6",
          "types": [
            "street_number"
          ]
        },
        {
          "long_name": "Ying Hong Street",
          "short_name": "Ying Hong St",
          "types": [
            "route"
          ]
        },
        {
          "long_name": "Tung Chung",
          "short_name": "Tung Chung",
          "types": [
            "neighborhood",
            "political"
          ]
        },
        {
          "long_name": "New Territories",
          "short_name": "New Territories",
          "types": [
            "administrative_area_level_1",
            "political"
          ]
        },
        {
          "long_name": "Hong Kong",
          "short_name": "HK",
          "types": [
            "country",
            "political"
          ]
        }
      ],
      "formatted_address": "G/F, 6 Ying Hong St, Tung Chung, Hong Kong",
      "geometry": {
        "location": {
          "lat": 22.296015,
          "lng": 113.9501572
        },
        "location_type": "ROOFTOP",
        "viewport": {
          "northeast": {
            "lat": 22.29736398029151,
            "lng": 113.9515061802915
          },
          "southwest": {
            "lat": 22.2946660197085,
            "lng": 113.9488082197085
          }
        }
      },
      "partial_match": true,
      "place_id": "ChIJeeZHaojjAzQRUxwyUFOb0I8",
      "plus_code": {
        "compound_code": "7XW2+C3 Hong Kong",
        "global_code": "7PJM7XW2+C3"
      },
      "types": [
        "establishment",
        "point_of_interest"
      ]
    }
  ],
  "geocode_tc": [
    {
      "address_components": [
        {
          "long_name": "6",
          "short_name": "6",
          "types": [
            "street_number"
          ]
        },
        {
          "long_name": "\u8fce\u5eb7\u8857",
          "short_name": "\u8fce\u5eb7\u8857",
          "types": [
            "route"
          ]
        },
        {
          "long_name": "\u6771\u6d8c",
          "short_name": "\u6771\u6d8c",
          "types": [
            "neighborhood",
            "political"
          ]
        },
        {
          "long_name": "\u65b0\u754c",
          "short_name": "\u65b0\u754c",
          "types": [
            "administrative_area_level_1",
            "political"
          ]
        },
        {
          "long_name": "\u9999\u6e2f",
          "short_name": "HK",
          "types": [
            "country",
            "political"
          ]
        }
      ],
      "formatted_address": "\u9999\u6e2f\u6771\u6d8c\u8fce\u5eb7\u88576\u865f",
      "geometry": {
        "bounds": {
          "northeast": {
            "lat": 22.2954435,
            "lng": 113.949014
          },
          "southwest": {
            "lat": 22.2952177,
            "lng": 113.9486464
          }
        },
        "location": {
          "lat": 22.2952931,
          "lng": 113.9488605
        },
        "location_type": "ROOFTOP",
        "viewport": {
          "northeast": {
            "lat": 22.2966795802915,
            "lng": 113.9501791802915
          },
          "southwest": {
            "lat": 22.2939816197085,
            "lng": 113.9474812197085
          }
        }
      },
      "partial_match": true,
      "place_id": "ChIJQ4b1ObTiAzQR5F9_PJlH1aM",
      "types": [
        "establishment",
        "premise"
      ]
    }
  ],
  "licno": "3117800969",
  "timestamp": 1564975666,
  "version": "1564966095"
}
