{
  "adr_en": "\u9ad8\u660e\u7028\u7c89, SHOP B, G/F, YAN ON BUILDING, 28-30 MA TAU CHUNG ROAD, TO KWA WAN, KOWLOON",
  "adr_tc": "\u4e5d\u9f8d\u571f\u74dc\u7063\u99ac\u982d\u6d8c\u905328-30\u865f\u4ec1\u5b89\u5927\u5ec8\u5730\u4e0bB\u92ea \u9ad8\u660e\u7028\u7c89",
  "geocode_en": [
    {
      "address_components": [
        {
          "long_name": "28",
          "short_name": "28",
          "types": [
            "street_number"
          ]
        },
        {
          "long_name": "Ma Tau Chung Road",
          "short_name": "Ma Tau Chung Rd",
          "types": [
            "route"
          ]
        },
        {
          "long_name": "To Kwa Wan",
          "short_name": "To Kwa Wan",
          "types": [
            "neighborhood",
            "political"
          ]
        },
        {
          "long_name": "Kowloon",
          "short_name": "Kowloon",
          "types": [
            "administrative_area_level_1",
            "political"
          ]
        },
        {
          "long_name": "Hong Kong",
          "short_name": "HK",
          "types": [
            "country",
            "political"
          ]
        }
      ],
      "formatted_address": "28 Ma Tau Chung Rd, To Kwa Wan, Hong Kong",
      "geometry": {
        "location": {
          "lat": 22.3221203,
          "lng": 114.1876888
        },
        "location_type": "ROOFTOP",
        "viewport": {
          "northeast": {
            "lat": 22.3234692802915,
            "lng": 114.1890377802915
          },
          "southwest": {
            "lat": 22.3207713197085,
            "lng": 114.1863398197085
          }
        }
      },
      "partial_match": true,
      "place_id": "ChIJJ9YSkNYABDQRS48i2VAaMbg",
      "plus_code": {
        "compound_code": "85CQ+R3 To Kwa Wan, Hong Kong",
        "global_code": "7PJP85CQ+R3"
      },
      "types": [
        "establishment",
        "food",
        "point_of_interest",
        "restaurant"
      ]
    },
    {
      "address_components": [
        {
          "long_name": "Yan On Building",
          "short_name": "Yan On Building",
          "types": [
            "premise"
          ]
        },
        {
          "long_name": "28-30",
          "short_name": "28-30",
          "types": [
            "street_number"
          ]
        },
        {
          "long_name": "Ma Tau Chung Road",
          "short_name": "Ma Tau Chung Rd",
          "types": [
            "route"
          ]
        },
        {
          "long_name": "To Kwa Wan",
          "short_name": "To Kwa Wan",
          "types": [
            "neighborhood",
            "political"
          ]
        },
        {
          "long_name": "Kowloon",
          "short_name": "Kowloon",
          "types": [
            "administrative_area_level_1",
            "political"
          ]
        },
        {
          "long_name": "Hong Kong",
          "short_name": "HK",
          "types": [
            "country",
            "political"
          ]
        }
      ],
      "formatted_address": "Yan On Building, 28-30 Ma Tau Chung Rd, To Kwa Wan, Hong Kong",
      "geometry": {
        "bounds": {
          "northeast": {
            "lat": 22.322183,
            "lng": 114.187905
          },
          "southwest": {
            "lat": 22.322052,
            "lng": 114.1877131
          }
        },
        "location": {
          "lat": 22.3221222,
          "lng": 114.1878146
        },
        "location_type": "ROOFTOP",
        "viewport": {
          "northeast": {
            "lat": 22.3234664802915,
            "lng": 114.1891580302915
          },
          "southwest": {
            "lat": 22.3207685197085,
            "lng": 114.1864600697085
          }
        }
      },
      "partial_match": true,
      "place_id": "ChIJ5T_7j9YABDQR2vcjmlfdsvY",
      "types": [
        "premise"
      ]
    }
  ],
  "geocode_tc": [
    {
      "address_components": [
        {
          "long_name": "\u4ec1\u5b89\u5927\u6a13",
          "short_name": "\u4ec1\u5b89\u5927\u6a13",
          "types": [
            "premise"
          ]
        },
        {
          "long_name": "28-30",
          "short_name": "28-30",
          "types": [
            "street_number"
          ]
        },
        {
          "long_name": "\u99ac\u982d\u6d8c\u9053",
          "short_name": "\u99ac\u982d\u6d8c\u9053",
          "types": [
            "route"
          ]
        },
        {
          "long_name": "\u571f\u74dc\u7063",
          "short_name": "\u571f\u74dc\u7063",
          "types": [
            "neighborhood",
            "political"
          ]
        },
        {
          "long_name": "\u4e5d\u9f8d",
          "short_name": "\u4e5d\u9f8d",
          "types": [
            "administrative_area_level_1",
            "political"
          ]
        },
        {
          "long_name": "\u9999\u6e2f",
          "short_name": "HK",
          "types": [
            "country",
            "political"
          ]
        }
      ],
      "formatted_address": "\u9999\u6e2f\u571f\u74dc\u7063\u99ac\u982d\u6d8c\u905328-30\u865f\u4ec1\u5b89\u5927\u6a13",
      "geometry": {
        "bounds": {
          "northeast": {
            "lat": 22.322183,
            "lng": 114.187905
          },
          "southwest": {
            "lat": 22.322052,
            "lng": 114.1877131
          }
        },
        "location": {
          "lat": 22.3221222,
          "lng": 114.1878146
        },
        "location_type": "ROOFTOP",
        "viewport": {
          "northeast": {
            "lat": 22.3234664802915,
            "lng": 114.1891580302915
          },
          "southwest": {
            "lat": 22.3207685197085,
            "lng": 114.1864600697085
          }
        }
      },
      "partial_match": true,
      "place_id": "ChIJ5T_7j9YABDQR2vcjmlfdsvY",
      "types": [
        "premise"
      ]
    },
    {
      "address_components": [
        {
          "long_name": "28",
          "short_name": "28",
          "types": [
            "street_number"
          ]
        },
        {
          "long_name": "\u99ac\u982d\u6d8c\u9053",
          "short_name": "\u99ac\u982d\u6d8c\u9053",
          "types": [
            "route"
          ]
        },
        {
          "long_name": "\u571f\u74dc\u7063",
          "short_name": "\u571f\u74dc\u7063",
          "types": [
            "neighborhood",
            "political"
          ]
        },
        {
          "long_name": "\u4e5d\u9f8d",
          "short_name": "\u4e5d\u9f8d",
          "types": [
            "administrative_area_level_1",
            "political"
          ]
        },
        {
          "long_name": "\u9999\u6e2f",
          "short_name": "HK",
          "types": [
            "country",
            "political"
          ]
        }
      ],
      "formatted_address": "\u9999\u6e2f\u571f\u74dc\u7063\u99ac\u982d\u6d8c\u905328\u865f",
      "geometry": {
        "location": {
          "lat": 22.3221203,
          "lng": 114.1876888
        },
        "location_type": "ROOFTOP",
        "viewport": {
          "northeast": {
            "lat": 22.3234692802915,
            "lng": 114.1890377802915
          },
          "southwest": {
            "lat": 22.3207713197085,
            "lng": 114.1863398197085
          }
        }
      },
      "partial_match": true,
      "place_id": "ChIJJ9YSkNYABDQRS48i2VAaMbg",
      "plus_code": {
        "compound_code": "85CQ+R3 \u9999\u6e2f\u571f\u74dc\u7063",
        "global_code": "7PJP85CQ+R3"
      },
      "types": [
        "establishment",
        "food",
        "point_of_interest",
        "restaurant"
      ]
    }
  ],
  "licno": "2252806391",
  "timestamp": 1564968756,
  "version": "1564966095"
}
