{
  "adr_en": "Caf'e de Coral, SHOP A, G/F, BLOCK B, TOWN CENTRE, FAIRVIEW PARK, YUEN LONG, NEW TERRITORIES",
  "adr_tc": "\u65b0\u754c\u5143\u6717\u9326\u7e61\u82b1\u5712\u5e02\u4e2d\u5fc3B\u5ea7\u5730\u4e0bA \u8216 \u5927\u5bb6\u6a02",
  "geocode_en": [
    {
      "address_components": [
        {
          "long_name": "Fairpark Boulevard",
          "short_name": "Fairpark Boulevard",
          "types": [
            "route"
          ]
        },
        {
          "long_name": "Yuen Long",
          "short_name": "Yuen Long",
          "types": [
            "neighborhood",
            "political"
          ]
        },
        {
          "long_name": "New Territories",
          "short_name": "New Territories",
          "types": [
            "administrative_area_level_1",
            "political"
          ]
        },
        {
          "long_name": "Hong Kong",
          "short_name": "HK",
          "types": [
            "country",
            "political"
          ]
        }
      ],
      "formatted_address": "Block G, Town Centre, Fairpark Boulevard, Yuen Long, Hong Kong",
      "geometry": {
        "location": {
          "lat": 22.4780591,
          "lng": 114.0443408
        },
        "location_type": "GEOMETRIC_CENTER",
        "viewport": {
          "northeast": {
            "lat": 22.4794080802915,
            "lng": 114.0456897802915
          },
          "southwest": {
            "lat": 22.4767101197085,
            "lng": 114.0429918197085
          }
        }
      },
      "partial_match": true,
      "place_id": "ChIJr6he79TwAzQRA1elpWTXnl8",
      "plus_code": {
        "compound_code": "F2HV+6P Hong Kong",
        "global_code": "7PJPF2HV+6P"
      },
      "types": [
        "establishment",
        "point_of_interest"
      ]
    }
  ],
  "geocode_tc": [
    {
      "address_components": [
        {
          "long_name": "\u9999\u6e2f",
          "short_name": "HK",
          "types": [
            "country",
            "political"
          ]
        }
      ],
      "formatted_address": "\u9999\u6e2f\u5143\u6717\u9326\u7e61\u82b1\u5712\u5e02\u4e2d\u5fc3B\u5ea7\u5730\u4e0bA\u865f\u8216",
      "geometry": {
        "location": {
          "lat": 22.4775971,
          "lng": 114.0454764
        },
        "location_type": "GEOMETRIC_CENTER",
        "viewport": {
          "northeast": {
            "lat": 22.4789460802915,
            "lng": 114.0468253802915
          },
          "southwest": {
            "lat": 22.4762481197085,
            "lng": 114.0441274197085
          }
        }
      },
      "place_id": "ChIJ3YaVodPwAzQRPsCvSHQqD4Y",
      "plus_code": {
        "compound_code": "F2HW+25 \u9999\u6e2f",
        "global_code": "7PJPF2HW+25"
      },
      "types": [
        "establishment",
        "food",
        "point_of_interest",
        "restaurant"
      ]
    }
  ],
  "licno": "2294802492",
  "timestamp": 1564975666,
  "version": "1564966095"
}
