{
  "adr_en": "\u5fb7\u8208\u7f8e\u98df\u4e2d\u5fc3, SHOP NOS 4, 5 & 33, LEVEL 3, HILTON PLAZA, 3-9 SHATIN CENTRE STREET, SHA TIN, NEW TERRITORIES",
  "adr_tc": "\u65b0\u754c\u6c99\u7530 \u6c99\u7530\u6b63\u88573-9\u865f \u5e0c\u723e\u9813\u4e2d\u5fc33\u6a13 4,5\u53ca33\u865f\u92ea \u5fb7\u8208\u7f8e\u98df\u4e2d\u5fc3",
  "geocode_en": [
    {
      "address_components": [
        {
          "long_name": "Hong Kong",
          "short_name": "HK",
          "types": [
            "country",
            "political"
          ]
        }
      ],
      "formatted_address": "Hong Kong, \u6c99\u7530 \u6c99\u7530\u6b63\u88573-9\u865f \u5e0c\u723e\u9813\u4e2d\u5fc33\u6a13 4, 5\u53ca33\u865f\u8216",
      "geometry": {
        "location": {
          "lat": 22.3793381,
          "lng": 114.1868607
        },
        "location_type": "GEOMETRIC_CENTER",
        "viewport": {
          "northeast": {
            "lat": 22.3806870802915,
            "lng": 114.1882096802915
          },
          "southwest": {
            "lat": 22.3779891197085,
            "lng": 114.1855117197085
          }
        }
      },
      "partial_match": true,
      "place_id": "ChIJ4-kUC6wHBDQRHQxmJi2zXB8",
      "plus_code": {
        "compound_code": "95HP+PP Hong Kong",
        "global_code": "7PJP95HP+PP"
      },
      "types": [
        "establishment",
        "food",
        "point_of_interest",
        "restaurant"
      ]
    },
    {
      "address_components": [
        {
          "long_name": "Hilton Plaza Block A",
          "short_name": "Hilton Plaza Block A",
          "types": [
            "premise"
          ]
        },
        {
          "long_name": "3-9",
          "short_name": "3-9",
          "types": [
            "street_number"
          ]
        },
        {
          "long_name": "Sha Tin Centre Street",
          "short_name": "Sha Tin Centre St",
          "types": [
            "route"
          ]
        },
        {
          "long_name": "Sha Tin",
          "short_name": "Sha Tin",
          "types": [
            "neighborhood",
            "political"
          ]
        },
        {
          "long_name": "New Territories",
          "short_name": "New Territories",
          "types": [
            "administrative_area_level_1",
            "political"
          ]
        },
        {
          "long_name": "Hong Kong",
          "short_name": "HK",
          "types": [
            "country",
            "political"
          ]
        }
      ],
      "formatted_address": "\u865f, Hilton Plaza Block A, 3-9 Sha Tin Centre St, Sha Tin, Hong Kong",
      "geometry": {
        "location": {
          "lat": 22.3793495,
          "lng": 114.1868134
        },
        "location_type": "ROOFTOP",
        "viewport": {
          "northeast": {
            "lat": 22.3806984802915,
            "lng": 114.1881623802915
          },
          "southwest": {
            "lat": 22.3780005197085,
            "lng": 114.1854644197085
          }
        }
      },
      "partial_match": true,
      "place_id": "ChIJQ7etDawHBDQRUZ0y7h_1Vqc",
      "plus_code": {
        "compound_code": "95HP+PP Hong Kong",
        "global_code": "7PJP95HP+PP"
      },
      "types": [
        "establishment",
        "point_of_interest",
        "shopping_mall"
      ]
    }
  ],
  "geocode_tc": [
    {
      "address_components": [
        {
          "long_name": "\u9999\u6e2f",
          "short_name": "HK",
          "types": [
            "country",
            "political"
          ]
        }
      ],
      "formatted_address": "\u9999\u6e2f\u6c99\u7530 \u6c99\u7530\u6b63\u88573-9\u865f \u5e0c\u723e\u9813\u4e2d\u5fc33\u6a13 4, 5\u53ca33\u865f\u8216",
      "geometry": {
        "location": {
          "lat": 22.3793381,
          "lng": 114.1868607
        },
        "location_type": "GEOMETRIC_CENTER",
        "viewport": {
          "northeast": {
            "lat": 22.3806870802915,
            "lng": 114.1882096802915
          },
          "southwest": {
            "lat": 22.3779891197085,
            "lng": 114.1855117197085
          }
        }
      },
      "place_id": "ChIJ4-kUC6wHBDQRHQxmJi2zXB8",
      "plus_code": {
        "compound_code": "95HP+PP \u9999\u6e2f",
        "global_code": "7PJP95HP+PP"
      },
      "types": [
        "establishment",
        "food",
        "point_of_interest",
        "restaurant"
      ]
    },
    {
      "address_components": [
        {
          "long_name": "\u9999\u6e2f",
          "short_name": "HK",
          "types": [
            "country",
            "political"
          ]
        }
      ],
      "formatted_address": "\u9999\u6e2f\u6c99\u7530\u6c99\u7530\u6b63\u88573-9\u865f\u5e0c\u723e\u9813\u4e2d\u5fc3\u5546\u58343\u6a133\u865f\u8216",
      "geometry": {
        "location": {
          "lat": 22.3793538,
          "lng": 114.1868276
        },
        "location_type": "GEOMETRIC_CENTER",
        "viewport": {
          "northeast": {
            "lat": 22.3807027802915,
            "lng": 114.1881765802915
          },
          "southwest": {
            "lat": 22.3780048197085,
            "lng": 114.1854786197085
          }
        }
      },
      "place_id": "ChIJa_gADawHBDQR_7UP03maHm0",
      "plus_code": {
        "compound_code": "95HP+PP \u9999\u6e2f",
        "global_code": "7PJP95HP+PP"
      },
      "types": [
        "establishment",
        "food",
        "point_of_interest",
        "restaurant"
      ]
    }
  ],
  "licno": "2297001629",
  "timestamp": 1564975666,
  "version": "1564966095"
}
