{
  "adr_en": "SUSHI TACHI, SHOP 1-2, G/F, FOO TAT BUILDING, 50 SOY STREET, MONG KOK, KOWLOON",
  "adr_tc": "\u4e5d\u9f8d\u65fa\u89d2\u8c49\u6cb9\u885750\u865f\u5bcc\u9054\u5927\u5ec8\u5730\u4e0b1-2\u865f\u8216 \u7acb\u9ba8",
  "geocode_en": [
    {
      "address_components": [
        {
          "long_name": "Mong Kok",
          "short_name": "Mong Kok",
          "types": [
            "neighborhood",
            "political"
          ]
        },
        {
          "long_name": "Kowloon",
          "short_name": "Kowloon",
          "types": [
            "administrative_area_level_1",
            "political"
          ]
        },
        {
          "long_name": "Hong Kong",
          "short_name": "HK",
          "types": [
            "country",
            "political"
          ]
        }
      ],
      "formatted_address": "Mong Kok, Hong Kong",
      "geometry": {
        "location": {
          "lat": 22.3166724,
          "lng": 114.1715329
        },
        "location_type": "GEOMETRIC_CENTER",
        "viewport": {
          "northeast": {
            "lat": 22.3180213802915,
            "lng": 114.1728818802915
          },
          "southwest": {
            "lat": 22.31532341970849,
            "lng": 114.1701839197085
          }
        }
      },
      "partial_match": true,
      "place_id": "ChIJWaGPNtMBBDQRWcGze6k-KXI",
      "plus_code": {
        "compound_code": "858C+MJ Hong Kong",
        "global_code": "7PJP858C+MJ"
      },
      "types": [
        "establishment",
        "food",
        "point_of_interest",
        "restaurant"
      ]
    },
    {
      "address_components": [
        {
          "long_name": "Foo Tat Building",
          "short_name": "Foo Tat Building",
          "types": [
            "premise"
          ]
        },
        {
          "long_name": "50",
          "short_name": "50",
          "types": [
            "street_number"
          ]
        },
        {
          "long_name": "Soy Street",
          "short_name": "Soy St",
          "types": [
            "route"
          ]
        },
        {
          "long_name": "Mong Kok",
          "short_name": "Mong Kok",
          "types": [
            "neighborhood",
            "political"
          ]
        },
        {
          "long_name": "Kowloon",
          "short_name": "Kowloon",
          "types": [
            "administrative_area_level_1",
            "political"
          ]
        },
        {
          "long_name": "Hong Kong",
          "short_name": "HK",
          "types": [
            "country",
            "political"
          ]
        }
      ],
      "formatted_address": "Foo Tat Building, 50 Soy St, Mong Kok, Hong Kong",
      "geometry": {
        "bounds": {
          "northeast": {
            "lat": 22.316797,
            "lng": 114.1715751
          },
          "southwest": {
            "lat": 22.316562,
            "lng": 114.171176
          }
        },
        "location": {
          "lat": 22.3166811,
          "lng": 114.171385
        },
        "location_type": "ROOFTOP",
        "viewport": {
          "northeast": {
            "lat": 22.3180284802915,
            "lng": 114.1727245302915
          },
          "southwest": {
            "lat": 22.3153305197085,
            "lng": 114.1700265697085
          }
        }
      },
      "partial_match": true,
      "place_id": "ChIJ52QQ-sYABDQR7IVaS57mLRE",
      "types": [
        "premise"
      ]
    }
  ],
  "geocode_tc": [
    {
      "address_components": [
        {
          "long_name": "\u5bcc\u9054\u5927\u5ec8",
          "short_name": "\u5bcc\u9054\u5927\u5ec8",
          "types": [
            "premise"
          ]
        },
        {
          "long_name": "\u5730\u4e0b",
          "short_name": "\u5730\u4e0b",
          "types": [
            "neighborhood",
            "political"
          ]
        },
        {
          "long_name": "\u9999\u6e2f",
          "short_name": "HK",
          "types": [
            "country",
            "political"
          ]
        }
      ],
      "formatted_address": "\u9999\u6e2f\u5730\u4e0b\u5bcc\u9054\u5927\u5ec8\u65fa\u89d2\u8c49\u6cb9\u885750\u865f1~2\u865f\u8216",
      "geometry": {
        "location": {
          "lat": 22.3166445,
          "lng": 114.1715634
        },
        "location_type": "ROOFTOP",
        "viewport": {
          "northeast": {
            "lat": 22.3179934802915,
            "lng": 114.1729123802915
          },
          "southwest": {
            "lat": 22.3152955197085,
            "lng": 114.1702144197085
          }
        }
      },
      "place_id": "ChIJAdKPOxgBBDQRkAbs0JeXaH0",
      "plus_code": {
        "compound_code": "858C+MJ \u9999\u6e2f",
        "global_code": "7PJP858C+MJ"
      },
      "types": [
        "establishment",
        "food",
        "point_of_interest",
        "restaurant"
      ]
    }
  ],
  "licno": "2262813758",
  "timestamp": 1564968756,
  "version": "1564966095"
}
