{
  "adr_en": "Super Super, UNIT 5E538C, LEVEL 5, PASSENGER TERMINAL 1, HONG KONG INTERNATIONAL AIRPORT, LANTAU, HONG KONG",
  "adr_tc": "\u9999\u6e2f\u5927\u5dbc\u5c71\u9999\u6e2f\u570b\u969b\u6a5f\u58341\u865f\u5ba2\u904b\u5927\u6a13\u7b2c\u4e94\u5c645E538C\u5ba4 \u4e00\u7ca5\u9eb5",
  "geocode_en": [
    {
      "address_components": [
        {
          "long_name": "Terminal 1",
          "short_name": "Terminal 1",
          "types": [
            "premise"
          ]
        },
        {
          "long_name": "1",
          "short_name": "1",
          "types": [
            "street_number"
          ]
        },
        {
          "long_name": "Sky Plaza Road",
          "short_name": "Sky Plaza Rd",
          "types": [
            "route"
          ]
        },
        {
          "long_name": "Chek Lap Kok",
          "short_name": "Chek Lap Kok",
          "types": [
            "neighborhood",
            "political"
          ]
        },
        {
          "long_name": "New Territories",
          "short_name": "New Territories",
          "types": [
            "administrative_area_level_1",
            "political"
          ]
        },
        {
          "long_name": "Hong Kong",
          "short_name": "HK",
          "types": [
            "country",
            "political"
          ]
        }
      ],
      "formatted_address": "Terminal 1, 1 Sky Plaza Rd, Chek Lap Kok, Hong Kong",
      "geometry": {
        "bounds": {
          "northeast": {
            "lat": 22.3191184,
            "lng": 113.9368968
          },
          "southwest": {
            "lat": 22.3090605,
            "lng": 113.9224508
          }
        },
        "location": {
          "lat": 22.3149715,
          "lng": 113.9340063
        },
        "location_type": "ROOFTOP",
        "viewport": {
          "northeast": {
            "lat": 22.3191184,
            "lng": 113.9368968
          },
          "southwest": {
            "lat": 22.3090605,
            "lng": 113.9224508
          }
        }
      },
      "partial_match": true,
      "place_id": "ChIJqxT79-fiAzQRDoLwPiPZ8Do",
      "types": [
        "premise"
      ]
    }
  ],
  "geocode_tc": [
    {
      "address_components": [
        {
          "long_name": "\u9999\u6e2f",
          "short_name": "HK",
          "types": [
            "country",
            "political"
          ]
        }
      ],
      "formatted_address": "\u9999\u6e2f\u8d64\u9c72\u89d2\u9999\u6e2f\u570b\u969b\u6a5f\u58341\u865f\u5ba2\u904b\u5927\u6a13\u7b2c\u4e94\u5c64\u62b5\u6e2f\u5c64\u5165\u5883\u5927\u5802\u524d\u5340\u57df(\u7981\u5340)",
      "geometry": {
        "location": {
          "lat": 22.3146798,
          "lng": 113.9339089
        },
        "location_type": "GEOMETRIC_CENTER",
        "viewport": {
          "northeast": {
            "lat": 22.3160287802915,
            "lng": 113.9352578802915
          },
          "southwest": {
            "lat": 22.3133308197085,
            "lng": 113.9325599197085
          }
        }
      },
      "place_id": "ChIJqQeD8dziAzQRJ1GjRgBnrms",
      "plus_code": {
        "compound_code": "8W7M+VH \u9999\u6e2f",
        "global_code": "7PJM8W7M+VH"
      },
      "types": [
        "establishment",
        "food",
        "point_of_interest",
        "restaurant"
      ]
    }
  ],
  "licno": "2217800758",
  "timestamp": 1564968756,
  "version": "1564966095"
}
