{
  "adr_en": "Tsui Wah Restaurant, G/F, 1/F, 2/F & MAJOR PORTION OF 3/F, 485 LOCKHART ROAD, CAUSEWAY BAY, HONG KONG",
  "adr_tc": "\u9999\u6e2f\u9285\u947c\u7063\u99f1\u514b\u9053485\u865f \u5730\u4e0b\uff0c1\u6a13\uff0c2\u6a13\u53ca3\u6a13\uff08\u4e3b\u8981\u90e8\u4efd\uff09 \u7fe0\u83ef\u9910\u5ef3",
  "geocode_en": [
    {
      "address_components": [
        {
          "long_name": "3",
          "short_name": "3",
          "types": [
            "subpremise"
          ]
        },
        {
          "long_name": "Evernew House",
          "short_name": "Evernew House",
          "types": [
            "premise"
          ]
        },
        {
          "long_name": "485",
          "short_name": "485",
          "types": [
            "street_number"
          ]
        },
        {
          "long_name": "Lockhart Road",
          "short_name": "Lockhart Rd",
          "types": [
            "route"
          ]
        },
        {
          "long_name": "Causeway Bay",
          "short_name": "Causeway Bay",
          "types": [
            "neighborhood",
            "political"
          ]
        },
        {
          "long_name": "Hong Kong Island",
          "short_name": "Hong Kong Island",
          "types": [
            "administrative_area_level_1",
            "political"
          ]
        },
        {
          "long_name": "Hong Kong",
          "short_name": "HK",
          "types": [
            "country",
            "political"
          ]
        }
      ],
      "formatted_address": "3, Evernew House, 485 Lockhart Rd, Causeway Bay, Hong Kong",
      "geometry": {
        "bounds": {
          "northeast": {
            "lat": 22.28077,
            "lng": 114.182775
          },
          "southwest": {
            "lat": 22.2806309,
            "lng": 114.1826571
          }
        },
        "location": {
          "lat": 22.2807061,
          "lng": 114.1827058
        },
        "location_type": "ROOFTOP",
        "viewport": {
          "northeast": {
            "lat": 22.2820494302915,
            "lng": 114.1840650302915
          },
          "southwest": {
            "lat": 22.27935146970849,
            "lng": 114.1813670697085
          }
        }
      },
      "partial_match": true,
      "place_id": "EjozLCBFdmVybmV3IEhvdXNlLCA0ODUgTG9ja2hhcnQgUmQsIENhdXNld2F5IEJheSwgSG9uZyBLb25nIh0aGwoWChQKEgkBnJDhVgAENBF65_Re0iJOVRIBMw",
      "types": [
        "subpremise"
      ]
    },
    {
      "address_components": [
        {
          "long_name": "F",
          "short_name": "F",
          "types": [
            "subpremise"
          ]
        },
        {
          "long_name": "Evernew House",
          "short_name": "Evernew House",
          "types": [
            "premise"
          ]
        },
        {
          "long_name": "485",
          "short_name": "485",
          "types": [
            "street_number"
          ]
        },
        {
          "long_name": "Lockhart Road",
          "short_name": "Lockhart Rd",
          "types": [
            "route"
          ]
        },
        {
          "long_name": "Causeway Bay",
          "short_name": "Causeway Bay",
          "types": [
            "neighborhood",
            "political"
          ]
        },
        {
          "long_name": "Hong Kong Island",
          "short_name": "Hong Kong Island",
          "types": [
            "administrative_area_level_1",
            "political"
          ]
        },
        {
          "long_name": "Hong Kong",
          "short_name": "HK",
          "types": [
            "country",
            "political"
          ]
        }
      ],
      "formatted_address": "F, Evernew House, 485 Lockhart Rd, Causeway Bay, Hong Kong",
      "geometry": {
        "bounds": {
          "northeast": {
            "lat": 22.28077,
            "lng": 114.182775
          },
          "southwest": {
            "lat": 22.2806309,
            "lng": 114.1826571
          }
        },
        "location": {
          "lat": 22.2807061,
          "lng": 114.1827058
        },
        "location_type": "ROOFTOP",
        "viewport": {
          "northeast": {
            "lat": 22.2820494302915,
            "lng": 114.1840650302915
          },
          "southwest": {
            "lat": 22.27935146970849,
            "lng": 114.1813670697085
          }
        }
      },
      "partial_match": true,
      "place_id": "EjpGLCBFdmVybmV3IEhvdXNlLCA0ODUgTG9ja2hhcnQgUmQsIENhdXNld2F5IEJheSwgSG9uZyBLb25nIh0aGwoWChQKEgkBnJDhVgAENBF65_Re0iJOVRIBRg",
      "types": [
        "subpremise"
      ]
    }
  ],
  "geocode_tc": [
    {
      "address_components": [
        {
          "long_name": "\u6052\u666f\u5927\u5ec8",
          "short_name": "\u6052\u666f\u5927\u5ec8",
          "types": [
            "premise"
          ]
        },
        {
          "long_name": "485",
          "short_name": "485",
          "types": [
            "street_number"
          ]
        },
        {
          "long_name": "\u99f1\u514b\u9053",
          "short_name": "\u99f1\u514b\u9053",
          "types": [
            "route"
          ]
        },
        {
          "long_name": "\u9285\u947c\u7063",
          "short_name": "\u9285\u947c\u7063",
          "types": [
            "neighborhood",
            "political"
          ]
        },
        {
          "long_name": "\u9999\u6e2f\u5cf6",
          "short_name": "\u9999\u6e2f\u5cf6",
          "types": [
            "administrative_area_level_1",
            "political"
          ]
        },
        {
          "long_name": "\u9999\u6e2f",
          "short_name": "HK",
          "types": [
            "country",
            "political"
          ]
        }
      ],
      "formatted_address": "\u9999\u6e2f\u9285\u947c\u7063\u99f1\u514b\u9053485\u865f\u6052\u666f\u5927\u5ec8",
      "geometry": {
        "bounds": {
          "northeast": {
            "lat": 22.28077,
            "lng": 114.182775
          },
          "southwest": {
            "lat": 22.2806309,
            "lng": 114.1826571
          }
        },
        "location": {
          "lat": 22.2807061,
          "lng": 114.1827058
        },
        "location_type": "ROOFTOP",
        "viewport": {
          "northeast": {
            "lat": 22.2820494302915,
            "lng": 114.1840650302915
          },
          "southwest": {
            "lat": 22.27935146970849,
            "lng": 114.1813670697085
          }
        }
      },
      "partial_match": true,
      "place_id": "ChIJAZyQ4VYABDQReuf0XtIiTlU",
      "types": [
        "premise"
      ]
    }
  ],
  "licno": "2212086137",
  "timestamp": 1564966180,
  "version": "1564966095"
}
