{
  "adr_en": "\u963f\u6842(\u5357\u5be7\u98a8\u5473)\u8001\u53cb\u7c89, SHOP NO. 13, G/F, PHASE 3, SUNSHINE CITY, 8 ON SHING STREET, MA ON SHAN, SHA TIN, NEW TERRITORIES",
  "adr_tc": "\u65b0\u754c\u6c99\u7530\u99ac\u978d\u5c71\u978d\u8aa0\u88578\u865f\u65b0\u6e2f\u57ce\u4e09\u671f\u5730\u4e0b13\u865f\u92ea \u963f\u6842(\u5357\u5be7\u98a8\u5473)\u8001\u53cb\u7c89",
  "geocode_en": [
    {
      "address_components": [
        {
          "long_name": "Nanning",
          "short_name": "Nanning",
          "types": [
            "locality",
            "political"
          ]
        },
        {
          "long_name": "Guangxi",
          "short_name": "Guangxi",
          "types": [
            "administrative_area_level_1",
            "political"
          ]
        },
        {
          "long_name": "China",
          "short_name": "CN",
          "types": [
            "country",
            "political"
          ]
        }
      ],
      "formatted_address": "Nanning, Guangxi, China",
      "geometry": {
        "bounds": {
          "northeast": {
            "lat": 24.0329433,
            "lng": 109.6216459
          },
          "southwest": {
            "lat": 22.2041839,
            "lng": 107.3293227
          }
        },
        "location": {
          "lat": 22.817002,
          "lng": 108.366543
        },
        "location_type": "APPROXIMATE",
        "viewport": {
          "northeast": {
            "lat": 22.9946779,
            "lng": 108.5449219
          },
          "southwest": {
            "lat": 22.6490502,
            "lng": 108.0271912
          }
        }
      },
      "partial_match": true,
      "place_id": "ChIJefRg2ylhsTYRsr_pIoJJUoA",
      "types": [
        "locality",
        "political"
      ]
    },
    {
      "address_components": [
        {
          "long_name": "18\u865f",
          "short_name": "18\u865f",
          "types": [
            "street_number"
          ]
        },
        {
          "long_name": "On Luk Street",
          "short_name": "On Luk St",
          "types": [
            "route"
          ]
        },
        {
          "long_name": "Ma On Shan",
          "short_name": "Ma On Shan",
          "types": [
            "neighborhood",
            "political"
          ]
        },
        {
          "long_name": "New Territories",
          "short_name": "New Territories",
          "types": [
            "administrative_area_level_1",
            "political"
          ]
        },
        {
          "long_name": "Hong Kong",
          "short_name": "HK",
          "types": [
            "country",
            "political"
          ]
        }
      ],
      "formatted_address": "18\u865f On Luk St, Ma On Shan, Hong Kong",
      "geometry": {
        "location": {
          "lat": 22.4241753,
          "lng": 114.23178
        },
        "location_type": "ROOFTOP",
        "viewport": {
          "northeast": {
            "lat": 22.4255242802915,
            "lng": 114.2331289802915
          },
          "southwest": {
            "lat": 22.4228263197085,
            "lng": 114.2304310197085
          }
        }
      },
      "partial_match": true,
      "place_id": "ChIJRZaLm2QABDQRddp9jBmJSc0",
      "plus_code": {
        "compound_code": "C6FJ+MP Ma On Shan, Hong Kong",
        "global_code": "7PJPC6FJ+MP"
      },
      "types": [
        "establishment",
        "point_of_interest",
        "shopping_mall"
      ]
    },
    {
      "address_components": [
        {
          "long_name": "8",
          "short_name": "8",
          "types": [
            "street_number"
          ]
        },
        {
          "long_name": "On Shing Street",
          "short_name": "On Shing St",
          "types": [
            "route"
          ]
        },
        {
          "long_name": "Ma On Shan",
          "short_name": "Ma On Shan",
          "types": [
            "neighborhood",
            "political"
          ]
        },
        {
          "long_name": "New Territories",
          "short_name": "New Territories",
          "types": [
            "administrative_area_level_1",
            "political"
          ]
        },
        {
          "long_name": "Hong Kong",
          "short_name": "HK",
          "types": [
            "country",
            "political"
          ]
        }
      ],
      "formatted_address": "8 On Shing St, Ma On Shan, Hong Kong",
      "geometry": {
        "location": {
          "lat": 22.4223848,
          "lng": 114.2319178
        },
        "location_type": "ROOFTOP",
        "viewport": {
          "northeast": {
            "lat": 22.4237337802915,
            "lng": 114.2332667802915
          },
          "southwest": {
            "lat": 22.4210358197085,
            "lng": 114.2305688197085
          }
        }
      },
      "partial_match": true,
      "place_id": "ChIJyQCr47EIBDQRGqgdvtzlWlk",
      "plus_code": {
        "compound_code": "C6CJ+XQ Hong Kong",
        "global_code": "7PJPC6CJ+XQ"
      },
      "types": [
        "street_address"
      ]
    }
  ],
  "geocode_tc": [
    {
      "address_components": [
        {
          "long_name": "\u9999\u6e2f",
          "short_name": "HK",
          "types": [
            "country",
            "political"
          ]
        }
      ],
      "formatted_address": "\u9999\u6e2f\u99ac\u978d\u5c71\u978d\u8aa0\u88578\u865f\u65b0\u6e2f\u57ce\u4e09\u671f\u5730\u4e0b13\u865f\u8216",
      "geometry": {
        "location": {
          "lat": 22.4226228,
          "lng": 114.2318165
        },
        "location_type": "GEOMETRIC_CENTER",
        "viewport": {
          "northeast": {
            "lat": 22.4239717802915,
            "lng": 114.2331654802915
          },
          "southwest": {
            "lat": 22.4212738197085,
            "lng": 114.2304675197085
          }
        }
      },
      "place_id": "ChIJqR2H6LEIBDQRxFQPmJIi2T4",
      "plus_code": {
        "compound_code": "C6FJ+2P \u9999\u6e2f",
        "global_code": "7PJPC6FJ+2P"
      },
      "types": [
        "establishment",
        "food",
        "point_of_interest",
        "restaurant"
      ]
    }
  ],
  "licno": "3197800583",
  "timestamp": 1564975666,
  "version": "1564966095"
}
