{
  "adr_en": "\u6d69\u98df\u51b0\u5ba4, SHOP 5, G/F, YUEN TUNG BUILDING, 18 CHEONG SHING PATH, YUEN LONG, NEW TERRITORIES",
  "adr_tc": "\u65b0\u754c\u5143\u6717\u660c\u76db\u5f9118\u865f\u5143\u901a\u6a13\u5730\u4e0b5\u865f\u92ea \u6d69\u98df\u51b0\u5ba4",
  "geocode_en": [
    {
      "address_components": [
        {
          "long_name": "18",
          "short_name": "18",
          "types": [
            "street_number"
          ]
        },
        {
          "long_name": "Cheung Shing Path",
          "short_name": "Cheung Shing Path",
          "types": [
            "route"
          ]
        },
        {
          "long_name": "Yuen Long",
          "short_name": "Yuen Long",
          "types": [
            "neighborhood",
            "political"
          ]
        },
        {
          "long_name": "Hong Kong",
          "short_name": "HK",
          "types": [
            "country",
            "political"
          ]
        }
      ],
      "formatted_address": "\u865f, 18 Cheung Shing Path, Yuen Long, Hong Kong",
      "geometry": {
        "location": {
          "lat": 22.4433972,
          "lng": 114.0253511
        },
        "location_type": "ROOFTOP",
        "viewport": {
          "northeast": {
            "lat": 22.4447461802915,
            "lng": 114.0267000802915
          },
          "southwest": {
            "lat": 22.4420482197085,
            "lng": 114.0240021197085
          }
        }
      },
      "partial_match": true,
      "place_id": "ChIJodSxAKDwAzQRKXUWaWcVYuc",
      "plus_code": {
        "compound_code": "C2VG+94 Hong Kong",
        "global_code": "7PJPC2VG+94"
      },
      "types": [
        "establishment",
        "food",
        "point_of_interest",
        "restaurant"
      ]
    },
    {
      "address_components": [
        {
          "long_name": "Yuen Tung Building",
          "short_name": "Yuen Tung Building",
          "types": [
            "premise"
          ]
        },
        {
          "long_name": "18",
          "short_name": "18",
          "types": [
            "street_number"
          ]
        },
        {
          "long_name": "Cheong Shing Path",
          "short_name": "Cheong Shing Path",
          "types": [
            "route"
          ]
        },
        {
          "long_name": "Yuen Long",
          "short_name": "Yuen Long",
          "types": [
            "neighborhood",
            "political"
          ]
        },
        {
          "long_name": "New Territories",
          "short_name": "New Territories",
          "types": [
            "administrative_area_level_1",
            "political"
          ]
        },
        {
          "long_name": "Hong Kong",
          "short_name": "HK",
          "types": [
            "country",
            "political"
          ]
        }
      ],
      "formatted_address": "Yuen Tung Building, 18 Cheong Shing Path, Yuen Long, Hong Kong",
      "geometry": {
        "bounds": {
          "northeast": {
            "lat": 22.443399,
            "lng": 114.02547
          },
          "southwest": {
            "lat": 22.4432729,
            "lng": 114.025025
          }
        },
        "location": {
          "lat": 22.4433398,
          "lng": 114.0251534
        },
        "location_type": "ROOFTOP",
        "viewport": {
          "northeast": {
            "lat": 22.4446849302915,
            "lng": 114.0265964802915
          },
          "southwest": {
            "lat": 22.4419869697085,
            "lng": 114.0238985197085
          }
        }
      },
      "partial_match": true,
      "place_id": "ChIJpYBwqgr6AzQRaMugBF9tIkY",
      "types": [
        "premise"
      ]
    }
  ],
  "geocode_tc": [
    {
      "address_components": [
        {
          "long_name": "18",
          "short_name": "18",
          "types": [
            "street_number"
          ]
        },
        {
          "long_name": "Cheung Shing Path",
          "short_name": "Cheung Shing Path",
          "types": [
            "route"
          ]
        },
        {
          "long_name": "Yuen Long",
          "short_name": "Yuen Long",
          "types": [
            "neighborhood",
            "political"
          ]
        },
        {
          "long_name": "\u9999\u6e2f",
          "short_name": "HK",
          "types": [
            "country",
            "political"
          ]
        }
      ],
      "formatted_address": "\u865f, 18 Cheung Shing Path, Yuen Long, \u9999\u6e2f",
      "geometry": {
        "location": {
          "lat": 22.4433972,
          "lng": 114.0253511
        },
        "location_type": "ROOFTOP",
        "viewport": {
          "northeast": {
            "lat": 22.4447461802915,
            "lng": 114.0267000802915
          },
          "southwest": {
            "lat": 22.4420482197085,
            "lng": 114.0240021197085
          }
        }
      },
      "place_id": "ChIJodSxAKDwAzQRKXUWaWcVYuc",
      "plus_code": {
        "compound_code": "C2VG+94 \u9999\u6e2f",
        "global_code": "7PJPC2VG+94"
      },
      "types": [
        "establishment",
        "food",
        "point_of_interest",
        "restaurant"
      ]
    }
  ],
  "licno": "2294804063",
  "timestamp": 1564975666,
  "version": "1564966095"
}
