{
  "adr_en": "SHUSHO, FLAT A, 9/F., CARFIELD COMMERCIAL BUILDING, 75-77 WYNDHAM STREET, CENTRAL, HONG KONG",
  "adr_tc": "\u9999\u6e2f\u4e2d\u74b0\u96f2\u54b8\u885775\u81f377\u865f\u5609\u5146\u5546\u696d\u5927\u5ec89\u6a13A\u92ea \u9996\u76f8",
  "geocode_en": [
    {
      "address_components": [
        {
          "long_name": "FLAT A",
          "short_name": "FLAT A",
          "types": [
            "subpremise"
          ]
        },
        {
          "long_name": "Carfield Commercial Building",
          "short_name": "Carfield Commercial Building",
          "types": [
            "premise"
          ]
        },
        {
          "long_name": "75-77",
          "short_name": "75-77",
          "types": [
            "street_number"
          ]
        },
        {
          "long_name": "Wyndham Street",
          "short_name": "Wyndham St",
          "types": [
            "route"
          ]
        },
        {
          "long_name": "Central",
          "short_name": "Central",
          "types": [
            "neighborhood",
            "political"
          ]
        },
        {
          "long_name": "Hong Kong Island",
          "short_name": "Hong Kong Island",
          "types": [
            "administrative_area_level_1",
            "political"
          ]
        },
        {
          "long_name": "Hong Kong",
          "short_name": "HK",
          "types": [
            "country",
            "political"
          ]
        }
      ],
      "formatted_address": "FLAT A, Carfield Commercial Building, 75-77 Wyndham St, Central, Hong Kong",
      "geometry": {
        "bounds": {
          "northeast": {
            "lat": 22.2819132,
            "lng": 114.1548336
          },
          "southwest": {
            "lat": 22.2817819,
            "lng": 114.1546925
          }
        },
        "location": {
          "lat": 22.2818436,
          "lng": 114.1547683
        },
        "location_type": "ROOFTOP",
        "viewport": {
          "northeast": {
            "lat": 22.2831965302915,
            "lng": 114.1561120302915
          },
          "southwest": {
            "lat": 22.2804985697085,
            "lng": 114.1534140697085
          }
        }
      },
      "partial_match": true,
      "place_id": "EkpGTEFUIEEsIENhcmZpZWxkIENvbW1lcmNpYWwgQnVpbGRpbmcsIDc1LTc3IFd5bmRoYW0gU3QsIENlbnRyYWwsIEhvbmcgS29uZyIiGiAKFgoUChIJY_TbOHsABDQRQEOI-ma3YVQSBkZMQVQgQQ",
      "types": [
        "subpremise"
      ]
    }
  ],
  "geocode_tc": [
    {
      "address_components": [
        {
          "long_name": "\u5609\u5146\u5546\u696d\u5927\u5ec8",
          "short_name": "\u5609\u5146\u5546\u696d\u5927\u5ec8",
          "types": [
            "premise"
          ]
        },
        {
          "long_name": "75-77",
          "short_name": "75-77",
          "types": [
            "street_number"
          ]
        },
        {
          "long_name": "\u96f2\u54b8\u8857",
          "short_name": "\u96f2\u54b8\u8857",
          "types": [
            "route"
          ]
        },
        {
          "long_name": "\u4e2d\u74b0",
          "short_name": "\u4e2d\u74b0",
          "types": [
            "neighborhood",
            "political"
          ]
        },
        {
          "long_name": "\u9999\u6e2f\u5cf6",
          "short_name": "\u9999\u6e2f\u5cf6",
          "types": [
            "administrative_area_level_1",
            "political"
          ]
        },
        {
          "long_name": "\u9999\u6e2f",
          "short_name": "HK",
          "types": [
            "country",
            "political"
          ]
        }
      ],
      "formatted_address": "\u9999\u6e2f\u4e2d\u74b0\u96f2\u54b8\u885775-77\u865f\u5609\u5146\u5546\u696d\u5927\u5ec8",
      "geometry": {
        "bounds": {
          "northeast": {
            "lat": 22.2819132,
            "lng": 114.1548336
          },
          "southwest": {
            "lat": 22.2817819,
            "lng": 114.1546925
          }
        },
        "location": {
          "lat": 22.2818436,
          "lng": 114.1547683
        },
        "location_type": "ROOFTOP",
        "viewport": {
          "northeast": {
            "lat": 22.2831965302915,
            "lng": 114.1561120302915
          },
          "southwest": {
            "lat": 22.2804985697085,
            "lng": 114.1534140697085
          }
        }
      },
      "partial_match": true,
      "place_id": "ChIJY_TbOHsABDQRQEOI-ma3YVQ",
      "types": [
        "premise"
      ]
    }
  ],
  "licno": "3118808270",
  "timestamp": 1564975666,
  "version": "1564966095"
}
