{
  "adr_en": "Cafe de Coral, CONCESSION KOW 12A, KOWLOON STATION, KOWLOON",
  "adr_tc": "\u4e5d\u9f8d\u6a5f\u9435\u7ad912A\u865f\u8216 \u5927\u5bb6\u6a02",
  "geocode_en": [
    {
      "address_components": [
        {
          "long_name": "Hong Kong",
          "short_name": "HK",
          "types": [
            "country",
            "political"
          ]
        }
      ],
      "formatted_address": "Hong Kong, \u4f55\u6587\u7530\u7267\u611b\u885730\u865f\u516c\u958b\u5927\u5b78\u5e73\u53f0",
      "geometry": {
        "location": {
          "lat": 22.316182,
          "lng": 114.180339
        },
        "location_type": "GEOMETRIC_CENTER",
        "viewport": {
          "northeast": {
            "lat": 22.3175309802915,
            "lng": 114.1816879802915
          },
          "southwest": {
            "lat": 22.31483301970849,
            "lng": 114.1789900197085
          }
        }
      },
      "partial_match": true,
      "place_id": "ChIJNXuA0NoABDQRS50mj093jKE",
      "plus_code": {
        "compound_code": "858J+F4 Hong Kong",
        "global_code": "7PJP858J+F4"
      },
      "types": [
        "establishment",
        "food",
        "point_of_interest",
        "restaurant"
      ]
    },
    {
      "address_components": [
        {
          "long_name": "Kowloon Station",
          "short_name": "Kowloon Station",
          "types": [
            "establishment",
            "point_of_interest",
            "subway_station",
            "transit_station"
          ]
        },
        {
          "long_name": "West Kowloon",
          "short_name": "West Kowloon",
          "types": [
            "neighborhood",
            "political"
          ]
        },
        {
          "long_name": "Kowloon",
          "short_name": "Kowloon",
          "types": [
            "administrative_area_level_1",
            "political"
          ]
        },
        {
          "long_name": "Hong Kong",
          "short_name": "HK",
          "types": [
            "country",
            "political"
          ]
        }
      ],
      "formatted_address": "Kowloon Station, West Kowloon, Hong Kong",
      "geometry": {
        "location": {
          "lat": 22.304306,
          "lng": 114.161475
        },
        "location_type": "GEOMETRIC_CENTER",
        "viewport": {
          "northeast": {
            "lat": 22.3056549802915,
            "lng": 114.1628239802915
          },
          "southwest": {
            "lat": 22.3029570197085,
            "lng": 114.1601260197085
          }
        }
      },
      "partial_match": true,
      "place_id": "ChIJ472jVpEABDQRWsZwVBozssw",
      "plus_code": {
        "compound_code": "8536+PH Hong Kong",
        "global_code": "7PJP8536+PH"
      },
      "types": [
        "establishment",
        "point_of_interest",
        "subway_station",
        "transit_station"
      ]
    }
  ],
  "geocode_tc": [
    {
      "address_components": [
        {
          "long_name": "\u9999\u6e2f",
          "short_name": "HK",
          "types": [
            "country",
            "political"
          ]
        }
      ],
      "formatted_address": "\u9999\u6e2f\u5c16\u6c99\u5480\u67ef\u58eb\u7538\u9053\u897f1\u865f\u6e2f\u9435\u4e5d\u9f8d\u7ad963\u8216",
      "geometry": {
        "location": {
          "lat": 22.3048155,
          "lng": 114.1619118
        },
        "location_type": "GEOMETRIC_CENTER",
        "viewport": {
          "northeast": {
            "lat": 22.3061644802915,
            "lng": 114.1632607802915
          },
          "southwest": {
            "lat": 22.3034665197085,
            "lng": 114.1605628197085
          }
        }
      },
      "place_id": "ChIJLxmuAZQABDQRHXGpj07b5XY",
      "plus_code": {
        "compound_code": "8536+WQ \u9999\u6e2f",
        "global_code": "7PJP8536+WQ"
      },
      "types": [
        "establishment",
        "food",
        "point_of_interest",
        "restaurant"
      ]
    }
  ],
  "licno": "3161802667",
  "timestamp": 1564975666,
  "version": "1564966095"
}
