{
  "adr_en": "CHOP BAR, 3/F, CAMERON CENTRE, 57-59 CHATHAM ROAD SOUTH, TSIM SHA TSUI, KOWLOON",
  "adr_tc": "\u4e5d\u9f8d\u5c16\u6c99\u5480\u6f06\u54b8\u9053\u535757-59\u865f \u91d1\u99ac\u502b\u4e2d\u5fc33\u6a13 CHOP BAR",
  "geocode_en": [
    {
      "address_components": [
        {
          "long_name": "Cameron Centre",
          "short_name": "Cameron Centre",
          "types": [
            "premise"
          ]
        },
        {
          "long_name": "57-59",
          "short_name": "57-59",
          "types": [
            "street_number"
          ]
        },
        {
          "long_name": "Chatham Road South",
          "short_name": "Chatham Rd S",
          "types": [
            "route"
          ]
        },
        {
          "long_name": "Tsim Sha Tsui",
          "short_name": "Tsim Sha Tsui",
          "types": [
            "neighborhood",
            "political"
          ]
        },
        {
          "long_name": "Kowloon",
          "short_name": "Kowloon",
          "types": [
            "administrative_area_level_1",
            "political"
          ]
        },
        {
          "long_name": "Hong Kong",
          "short_name": "HK",
          "types": [
            "country",
            "political"
          ]
        }
      ],
      "formatted_address": "Cameron Centre, 57-59 Chatham Rd S, Tsim Sha Tsui, Hong Kong",
      "geometry": {
        "bounds": {
          "northeast": {
            "lat": 22.299357,
            "lng": 114.17568
          },
          "southwest": {
            "lat": 22.2991409,
            "lng": 114.1754499
          }
        },
        "location": {
          "lat": 22.2991935,
          "lng": 114.1755651
        },
        "location_type": "ROOFTOP",
        "viewport": {
          "northeast": {
            "lat": 22.30059793029151,
            "lng": 114.1769139302915
          },
          "southwest": {
            "lat": 22.2978999697085,
            "lng": 114.1742159697085
          }
        }
      },
      "partial_match": true,
      "place_id": "ChIJYX_yW-4ABDQRrKHwpksx3Ac",
      "types": [
        "premise"
      ]
    }
  ],
  "geocode_tc": [
    {
      "address_components": [
        {
          "long_name": "\u91d1\u99ac\u502b\u4e2d\u5fc3",
          "short_name": "\u91d1\u99ac\u502b\u4e2d\u5fc3",
          "types": [
            "premise"
          ]
        },
        {
          "long_name": "57-59",
          "short_name": "57-59",
          "types": [
            "street_number"
          ]
        },
        {
          "long_name": "\u6f06\u54b8\u9053\u5357",
          "short_name": "\u6f06\u54b8\u9053\u5357",
          "types": [
            "route"
          ]
        },
        {
          "long_name": "\u5c16\u6c99\u5480",
          "short_name": "\u5c16\u6c99\u5480",
          "types": [
            "neighborhood",
            "political"
          ]
        },
        {
          "long_name": "\u4e5d\u9f8d",
          "short_name": "\u4e5d\u9f8d",
          "types": [
            "administrative_area_level_1",
            "political"
          ]
        },
        {
          "long_name": "\u9999\u6e2f",
          "short_name": "HK",
          "types": [
            "country",
            "political"
          ]
        }
      ],
      "formatted_address": "\u9999\u6e2f\u5c16\u6c99\u5480\u6f06\u54b8\u9053\u535757-59\u865f\u91d1\u99ac\u502b\u4e2d\u5fc3",
      "geometry": {
        "bounds": {
          "northeast": {
            "lat": 22.299357,
            "lng": 114.17568
          },
          "southwest": {
            "lat": 22.2991409,
            "lng": 114.1754499
          }
        },
        "location": {
          "lat": 22.2991935,
          "lng": 114.1755651
        },
        "location_type": "ROOFTOP",
        "viewport": {
          "northeast": {
            "lat": 22.30059793029151,
            "lng": 114.1769139302915
          },
          "southwest": {
            "lat": 22.2978999697085,
            "lng": 114.1742159697085
          }
        }
      },
      "partial_match": true,
      "place_id": "ChIJYX_yW-4ABDQRrKHwpksx3Ac",
      "types": [
        "premise"
      ]
    },
    {
      "address_components": [
        {
          "long_name": "15",
          "short_name": "15",
          "types": [
            "street_number"
          ]
        },
        {
          "long_name": "\u8afe\u58eb\u4f5b\u81fa",
          "short_name": "\u8afe\u58eb\u4f5b\u81fa",
          "types": [
            "route"
          ]
        },
        {
          "long_name": "\u5c16\u6c99\u5480",
          "short_name": "\u5c16\u6c99\u5480",
          "types": [
            "neighborhood",
            "political"
          ]
        },
        {
          "long_name": "\u4e5d\u9f8d",
          "short_name": "\u4e5d\u9f8d",
          "types": [
            "administrative_area_level_1",
            "political"
          ]
        },
        {
          "long_name": "\u9999\u6e2f",
          "short_name": "HK",
          "types": [
            "country",
            "political"
          ]
        }
      ],
      "formatted_address": "\u9999\u6e2f\u5c16\u6c99\u5480\u8afe\u58eb\u4f5b\u81fa15\u865f",
      "geometry": {
        "location": {
          "lat": 22.3011232,
          "lng": 114.1740455
        },
        "location_type": "ROOFTOP",
        "viewport": {
          "northeast": {
            "lat": 22.3024721802915,
            "lng": 114.1753944802915
          },
          "southwest": {
            "lat": 22.2997742197085,
            "lng": 114.1726965197085
          }
        }
      },
      "partial_match": true,
      "place_id": "ChIJ08R7me4ABDQRQKnksAC5gRk",
      "plus_code": {
        "compound_code": "852F+CJ \u9999\u6e2f",
        "global_code": "7PJP852F+CJ"
      },
      "types": [
        "establishment",
        "food",
        "point_of_interest",
        "restaurant"
      ]
    }
  ],
  "licno": "3161801567",
  "timestamp": 1564975666,
  "version": "1564966095"
}
