{
  "adr_en": "MIXX, 20/F., TIMES TOWER, 391-407 JAFFE ROAD, WAN CHAI, HONG KONG",
  "adr_tc": "\u9999\u6e2f\u7063\u4ed4 \u8b1d\u6590\u9053391-407\u865f  \u65b0\u6642\u4ee3\u4e2d\u5fc3 20\u6a13 MIXX",
  "geocode_en": [
    {
      "address_components": [
        {
          "long_name": "Times Tower",
          "short_name": "Times Tower",
          "types": [
            "premise"
          ]
        },
        {
          "long_name": "393",
          "short_name": "393",
          "types": [
            "street_number"
          ]
        },
        {
          "long_name": "Jaffe Road",
          "short_name": "Jaffe Rd",
          "types": [
            "route"
          ]
        },
        {
          "long_name": "Wan Chai",
          "short_name": "Wan Chai",
          "types": [
            "neighborhood",
            "political"
          ]
        },
        {
          "long_name": "Hong Kong Island",
          "short_name": "Hong Kong Island",
          "types": [
            "administrative_area_level_1",
            "political"
          ]
        },
        {
          "long_name": "Hong Kong",
          "short_name": "HK",
          "types": [
            "country",
            "political"
          ]
        }
      ],
      "formatted_address": "Times Tower, 393 Jaffe Rd, Wan Chai, Hong Kong",
      "geometry": {
        "bounds": {
          "northeast": {
            "lat": 22.2802694,
            "lng": 114.1802213
          },
          "southwest": {
            "lat": 22.2800642,
            "lng": 114.17994
          }
        },
        "location": {
          "lat": 22.2801986,
          "lng": 114.1800469
        },
        "location_type": "ROOFTOP",
        "viewport": {
          "northeast": {
            "lat": 22.2815157802915,
            "lng": 114.1814296302915
          },
          "southwest": {
            "lat": 22.2788178197085,
            "lng": 114.1787316697085
          }
        }
      },
      "partial_match": true,
      "place_id": "ChIJRXQXWlcABDQRUv996C3Zdog",
      "types": [
        "premise"
      ]
    }
  ],
  "geocode_tc": [
    {
      "address_components": [
        {
          "long_name": "\u65b0\u6642\u4ee3\u4e2d\u5fc3",
          "short_name": "\u65b0\u6642\u4ee3\u4e2d\u5fc3",
          "types": [
            "premise"
          ]
        },
        {
          "long_name": "393",
          "short_name": "393",
          "types": [
            "street_number"
          ]
        },
        {
          "long_name": "\u8b1d\u6590\u9053",
          "short_name": "\u8b1d\u6590\u9053",
          "types": [
            "route"
          ]
        },
        {
          "long_name": "\u7063\u4ed4",
          "short_name": "\u7063\u4ed4",
          "types": [
            "neighborhood",
            "political"
          ]
        },
        {
          "long_name": "\u9999\u6e2f\u5cf6",
          "short_name": "\u9999\u6e2f\u5cf6",
          "types": [
            "administrative_area_level_1",
            "political"
          ]
        },
        {
          "long_name": "\u9999\u6e2f",
          "short_name": "HK",
          "types": [
            "country",
            "political"
          ]
        }
      ],
      "formatted_address": "\u9999\u6e2f\u7063\u4ed4\u8b1d\u6590\u9053393\u865f\u65b0\u6642\u4ee3\u4e2d\u5fc3",
      "geometry": {
        "bounds": {
          "northeast": {
            "lat": 22.2802694,
            "lng": 114.1802213
          },
          "southwest": {
            "lat": 22.2800642,
            "lng": 114.17994
          }
        },
        "location": {
          "lat": 22.2801986,
          "lng": 114.1800469
        },
        "location_type": "ROOFTOP",
        "viewport": {
          "northeast": {
            "lat": 22.2815157802915,
            "lng": 114.1814296302915
          },
          "southwest": {
            "lat": 22.2788178197085,
            "lng": 114.1787316697085
          }
        }
      },
      "partial_match": true,
      "place_id": "ChIJRXQXWlcABDQRUv996C3Zdog",
      "types": [
        "premise"
      ]
    }
  ],
  "licno": "3112806485",
  "timestamp": 1564975666,
  "version": "1564966095"
}
