{
  "adr_en": "Agnes b. Cafe L.P.G., G/F (MAJOR PORTION), CHUNG SHAN HOUSE, 8 & 10 GOUGH STREET, HONG KONG",
  "adr_tc": "\u9999\u6e2f\u6b4c\u8ce6\u88578\u53ca10\u865f\u4e2d\u5c71\u6a13\u5730\u4e0b(\u4e3b\u8981\u90e8\u4efd) Agnes b. Cafe L.P.G.",
  "geocode_en": [
    {
      "address_components": [
        {
          "long_name": "Hong Kong",
          "short_name": "HK",
          "types": [
            "country",
            "political"
          ]
        }
      ],
      "formatted_address": "Hong Kong, \u4e2d\u74b0\u6b4c\u8ce6\u88578-10\u865f\u4e2d\u5c71\u6a13\u5730\u92ea",
      "geometry": {
        "location": {
          "lat": 22.283997,
          "lng": 114.152822
        },
        "location_type": "GEOMETRIC_CENTER",
        "viewport": {
          "northeast": {
            "lat": 22.2853459802915,
            "lng": 114.1541709802915
          },
          "southwest": {
            "lat": 22.2826480197085,
            "lng": 114.1514730197085
          }
        }
      },
      "partial_match": true,
      "place_id": "ChIJAQDAPGMABDQR_u5GDk2ko2o",
      "plus_code": {
        "compound_code": "75M3+H4 Hong Kong",
        "global_code": "7PJP75M3+H4"
      },
      "types": [
        "cafe",
        "establishment",
        "food",
        "point_of_interest"
      ]
    },
    {
      "address_components": [
        {
          "long_name": "Chung San House",
          "short_name": "Chung San House",
          "types": [
            "premise"
          ]
        },
        {
          "long_name": "2-10",
          "short_name": "2-10",
          "types": [
            "street_number"
          ]
        },
        {
          "long_name": "Gough Street",
          "short_name": "Gough St",
          "types": [
            "route"
          ]
        },
        {
          "long_name": "Central",
          "short_name": "Central",
          "types": [
            "neighborhood",
            "political"
          ]
        },
        {
          "long_name": "Hong Kong Island",
          "short_name": "Hong Kong Island",
          "types": [
            "administrative_area_level_1",
            "political"
          ]
        },
        {
          "long_name": "Hong Kong",
          "short_name": "HK",
          "types": [
            "country",
            "political"
          ]
        }
      ],
      "formatted_address": "Chung San House, 2-10 Gough St, Central, Hong Kong",
      "geometry": {
        "bounds": {
          "northeast": {
            "lat": 22.2840689,
            "lng": 114.152909
          },
          "southwest": {
            "lat": 22.283946,
            "lng": 114.1527091
          }
        },
        "location": {
          "lat": 22.2840111,
          "lng": 114.1527835
        },
        "location_type": "ROOFTOP",
        "viewport": {
          "northeast": {
            "lat": 22.2853564302915,
            "lng": 114.1541580302915
          },
          "southwest": {
            "lat": 22.2826584697085,
            "lng": 114.1514600697085
          }
        }
      },
      "partial_match": true,
      "place_id": "ChIJ9QIafnwABDQRHJFIyIOY-2I",
      "types": [
        "premise"
      ]
    }
  ],
  "geocode_tc": [
    {
      "address_components": [
        {
          "long_name": "\u9999\u6e2f",
          "short_name": "HK",
          "types": [
            "country",
            "political"
          ]
        }
      ],
      "formatted_address": "\u9999\u6e2f\u4e2d\u74b0\u6b4c\u8ce6\u88578-10\u865f\u4e2d\u5c71\u6a13\u5730\u92ea",
      "geometry": {
        "location": {
          "lat": 22.283997,
          "lng": 114.152822
        },
        "location_type": "GEOMETRIC_CENTER",
        "viewport": {
          "northeast": {
            "lat": 22.2853459802915,
            "lng": 114.1541709802915
          },
          "southwest": {
            "lat": 22.2826480197085,
            "lng": 114.1514730197085
          }
        }
      },
      "place_id": "ChIJAQDAPGMABDQR_u5GDk2ko2o",
      "plus_code": {
        "compound_code": "75M3+H4 \u9999\u6e2f",
        "global_code": "7PJP75M3+H4"
      },
      "types": [
        "cafe",
        "establishment",
        "food",
        "point_of_interest"
      ]
    }
  ],
  "licno": "3118804144",
  "timestamp": 1564975666,
  "version": "1564966095"
}
