{
  "adr_en": "PICADA, BLK. C, G/F., 16A ELGIN STREET, CENTRAL, HONG KONG",
  "adr_tc": "\u9999\u6e2f\u4e2d\u74b0\u4f0a\u5229\u8fd1\u885716A\u865f\u5730\u4e0bC\u5ea7 PICADA",
  "geocode_en": [
    {
      "address_components": [
        {
          "long_name": "Central",
          "short_name": "Central",
          "types": [
            "neighborhood",
            "political"
          ]
        },
        {
          "long_name": "Hong Kong Island",
          "short_name": "Hong Kong Island",
          "types": [
            "administrative_area_level_1",
            "political"
          ]
        },
        {
          "long_name": "Hong Kong",
          "short_name": "HK",
          "types": [
            "country",
            "political"
          ]
        }
      ],
      "formatted_address": "2F & 3F LKF 29 Building, 29 Wyndham Street, Central, Hong Kong",
      "geometry": {
        "location": {
          "lat": 22.280123,
          "lng": 114.155259
        },
        "location_type": "GEOMETRIC_CENTER",
        "viewport": {
          "northeast": {
            "lat": 22.2814719802915,
            "lng": 114.1566079802915
          },
          "southwest": {
            "lat": 22.2787740197085,
            "lng": 114.1539100197085
          }
        }
      },
      "partial_match": true,
      "place_id": "ChIJfxcG1HoABDQRsCMIJoJ-X7E",
      "plus_code": {
        "compound_code": "75J4+24 Central, Hong Kong",
        "global_code": "7PJP75J4+24"
      },
      "types": [
        "bar",
        "establishment",
        "food",
        "night_club",
        "point_of_interest",
        "restaurant"
      ]
    },
    {
      "address_components": [
        {
          "long_name": "G",
          "short_name": "G",
          "types": [
            "subpremise"
          ]
        },
        {
          "long_name": "16 Elgin Street",
          "short_name": "16 Elgin Street",
          "types": [
            "premise"
          ]
        },
        {
          "long_name": "16",
          "short_name": "16",
          "types": [
            "street_number"
          ]
        },
        {
          "long_name": "Elgin Street",
          "short_name": "Elgin St",
          "types": [
            "route"
          ]
        },
        {
          "long_name": "Central",
          "short_name": "Central",
          "types": [
            "neighborhood",
            "political"
          ]
        },
        {
          "long_name": "Hong Kong Island",
          "short_name": "Hong Kong Island",
          "types": [
            "administrative_area_level_1",
            "political"
          ]
        },
        {
          "long_name": "Hong Kong",
          "short_name": "HK",
          "types": [
            "country",
            "political"
          ]
        }
      ],
      "formatted_address": "G, 16 Elgin Street, 16 Elgin St, Central, Hong Kong",
      "geometry": {
        "bounds": {
          "northeast": {
            "lat": 22.2821681,
            "lng": 114.152421
          },
          "southwest": {
            "lat": 22.2820739,
            "lng": 114.152334
          }
        },
        "location": {
          "lat": 22.2821238,
          "lng": 114.1523771
        },
        "location_type": "ROOFTOP",
        "viewport": {
          "northeast": {
            "lat": 22.2834699802915,
            "lng": 114.1537264802915
          },
          "southwest": {
            "lat": 22.2807720197085,
            "lng": 114.1510285197085
          }
        }
      },
      "partial_match": true,
      "place_id": "EjNHLCAxNiBFbGdpbiBTdHJlZXQsIDE2IEVsZ2luIFN0LCBDZW50cmFsLCBIb25nIEtvbmciHRobChYKFAoSCfX3lKN7AAQ0EVappVJrm4RrEgFH",
      "types": [
        "subpremise"
      ]
    },
    {
      "address_components": [
        {
          "long_name": "F",
          "short_name": "F",
          "types": [
            "subpremise"
          ]
        },
        {
          "long_name": "16 Elgin Street",
          "short_name": "16 Elgin Street",
          "types": [
            "premise"
          ]
        },
        {
          "long_name": "16",
          "short_name": "16",
          "types": [
            "street_number"
          ]
        },
        {
          "long_name": "Elgin Street",
          "short_name": "Elgin St",
          "types": [
            "route"
          ]
        },
        {
          "long_name": "Central",
          "short_name": "Central",
          "types": [
            "neighborhood",
            "political"
          ]
        },
        {
          "long_name": "Hong Kong Island",
          "short_name": "Hong Kong Island",
          "types": [
            "administrative_area_level_1",
            "political"
          ]
        },
        {
          "long_name": "Hong Kong",
          "short_name": "HK",
          "types": [
            "country",
            "political"
          ]
        }
      ],
      "formatted_address": "F, 16 Elgin Street, 16 Elgin St, Central, Hong Kong",
      "geometry": {
        "bounds": {
          "northeast": {
            "lat": 22.2821681,
            "lng": 114.152421
          },
          "southwest": {
            "lat": 22.2820739,
            "lng": 114.152334
          }
        },
        "location": {
          "lat": 22.2821238,
          "lng": 114.1523771
        },
        "location_type": "ROOFTOP",
        "viewport": {
          "northeast": {
            "lat": 22.2834699802915,
            "lng": 114.1537264802915
          },
          "southwest": {
            "lat": 22.2807720197085,
            "lng": 114.1510285197085
          }
        }
      },
      "partial_match": true,
      "place_id": "EjNGLCAxNiBFbGdpbiBTdHJlZXQsIDE2IEVsZ2luIFN0LCBDZW50cmFsLCBIb25nIEtvbmciHRobChYKFAoSCfX3lKN7AAQ0EVappVJrm4RrEgFG",
      "types": [
        "subpremise"
      ]
    }
  ],
  "geocode_tc": [
    {
      "address_components": [
        {
          "long_name": "Central",
          "short_name": "Central",
          "types": [
            "neighborhood",
            "political"
          ]
        },
        {
          "long_name": "Hong Kong Island",
          "short_name": "Hong Kong Island",
          "types": [
            "administrative_area_level_1",
            "political"
          ]
        },
        {
          "long_name": "\u9999\u6e2f",
          "short_name": "HK",
          "types": [
            "country",
            "political"
          ]
        }
      ],
      "formatted_address": "2F & 3F LKF 29 Building, 29 Wyndham Street, Central, \u9999\u6e2f",
      "geometry": {
        "location": {
          "lat": 22.280123,
          "lng": 114.155259
        },
        "location_type": "GEOMETRIC_CENTER",
        "viewport": {
          "northeast": {
            "lat": 22.2814719802915,
            "lng": 114.1566079802915
          },
          "southwest": {
            "lat": 22.2787740197085,
            "lng": 114.1539100197085
          }
        }
      },
      "partial_match": true,
      "place_id": "ChIJfxcG1HoABDQRsCMIJoJ-X7E",
      "plus_code": {
        "compound_code": "75J4+24 \u9999\u6e2f\u4e2d\u74b0",
        "global_code": "7PJP75J4+24"
      },
      "types": [
        "bar",
        "establishment",
        "food",
        "night_club",
        "point_of_interest",
        "restaurant"
      ]
    }
  ],
  "licno": "3118803628",
  "timestamp": 1564975666,
  "version": "1564966095"
}
