{
  "adr_en": "\u83ef\u82d1\u8336\u9910\u5ef3, SHOP NOS.6,7& 8B, G/F, CHUNG HWA PLAZA, 5B-5F MA HANG CHUNG ROAD &, 55-65 PAU CHUNG STREET, TOKWAWAN, KOWLOON",
  "adr_tc": "\u4e5d\u9f8d\u571f\u74dc\u7063\u99ac\u5751\u6d8c\u90535B-5F\u53ca\u70ae\u4ed7\u885755-65\u865f\u4e2d\u83ef\u5ee3\u5834\u5730\u4e0b 6, 7 \u53ca 8B\u865f\u8216 \u83ef\u82d1\u8336\u9910\u5ef3",
  "geocode_en": [
    {
      "address_components": [
        {
          "long_name": "Hong Kong",
          "short_name": "HK",
          "types": [
            "country",
            "political"
          ]
        }
      ],
      "formatted_address": "Hong Kong, \u571f\u74dc\u7063\u99ac\u5751\u6d8c\u90535B-5F\u865f",
      "geometry": {
        "location": {
          "lat": 22.319852,
          "lng": 114.188918
        },
        "location_type": "GEOMETRIC_CENTER",
        "viewport": {
          "northeast": {
            "lat": 22.3212009802915,
            "lng": 114.1902669802915
          },
          "southwest": {
            "lat": 22.3185030197085,
            "lng": 114.1875690197085
          }
        }
      },
      "partial_match": true,
      "place_id": "ChIJ5f0iq9cABDQRUfUMg_fxegk",
      "plus_code": {
        "compound_code": "859Q+WH Hong Kong",
        "global_code": "7PJP859Q+WH"
      },
      "types": [
        "establishment",
        "food",
        "point_of_interest",
        "restaurant"
      ]
    },
    {
      "address_components": [
        {
          "long_name": "55-65",
          "short_name": "55-65",
          "types": [
            "street_number"
          ]
        },
        {
          "long_name": "Pau Chung Street",
          "short_name": "Pau Chung St",
          "types": [
            "route"
          ]
        },
        {
          "long_name": "To Kwa Wan",
          "short_name": "To Kwa Wan",
          "types": [
            "neighborhood",
            "political"
          ]
        },
        {
          "long_name": "Kowloon",
          "short_name": "Kowloon",
          "types": [
            "administrative_area_level_1",
            "political"
          ]
        },
        {
          "long_name": "Hong Kong",
          "short_name": "HK",
          "types": [
            "country",
            "political"
          ]
        }
      ],
      "formatted_address": "55-65 Pau Chung St, To Kwa Wan, Hong Kong",
      "geometry": {
        "location": {
          "lat": 22.3200301,
          "lng": 114.1888479
        },
        "location_type": "ROOFTOP",
        "viewport": {
          "northeast": {
            "lat": 22.3213790802915,
            "lng": 114.1901968802915
          },
          "southwest": {
            "lat": 22.3186811197085,
            "lng": 114.1874989197085
          }
        }
      },
      "partial_match": true,
      "place_id": "ChIJA8yNVNYABDQRbHmKxk8b8Fc",
      "plus_code": {
        "compound_code": "85CQ+2G Hong Kong",
        "global_code": "7PJP85CQ+2G"
      },
      "types": [
        "street_address"
      ]
    }
  ],
  "geocode_tc": [
    {
      "address_components": [
        {
          "long_name": "5F",
          "short_name": "5F",
          "types": [
            "subpremise"
          ]
        },
        {
          "long_name": "\u4e2d\u83ef\u5927\u5ec8",
          "short_name": "\u4e2d\u83ef\u5927\u5ec8",
          "types": [
            "premise"
          ]
        },
        {
          "long_name": "3A-5",
          "short_name": "3A-5",
          "types": [
            "street_number"
          ]
        },
        {
          "long_name": "\u99ac\u5751\u6d8c\u9053",
          "short_name": "\u99ac\u5751\u6d8c\u9053",
          "types": [
            "route"
          ]
        },
        {
          "long_name": "\u571f\u74dc\u7063",
          "short_name": "\u571f\u74dc\u7063",
          "types": [
            "neighborhood",
            "political"
          ]
        },
        {
          "long_name": "\u4e5d\u9f8d",
          "short_name": "\u4e5d\u9f8d",
          "types": [
            "administrative_area_level_1",
            "political"
          ]
        },
        {
          "long_name": "\u9999\u6e2f",
          "short_name": "HK",
          "types": [
            "country",
            "political"
          ]
        }
      ],
      "formatted_address": "\u9999\u6e2f\u571f\u74dc\u7063\u99ac\u5751\u6d8c\u90533A-5\u865f\u4e2d\u83ef\u5927\u5ec85F",
      "geometry": {
        "bounds": {
          "northeast": {
            "lat": 22.320489,
            "lng": 114.1886951
          },
          "southwest": {
            "lat": 22.320018,
            "lng": 114.1882031
          }
        },
        "location": {
          "lat": 22.3202268,
          "lng": 114.1884299
        },
        "location_type": "ROOFTOP",
        "viewport": {
          "northeast": {
            "lat": 22.3216024802915,
            "lng": 114.1897980802915
          },
          "southwest": {
            "lat": 22.31890451970849,
            "lng": 114.1871001197085
          }
        }
      },
      "partial_match": true,
      "place_id": "EkQ1RiwgQ2h1bmcgSHdhIEJ1aWxkaW5nLCAzQS01IE1hIEhhbmcgQ2h1bmcgUmQsIFRvIEt3YSBXYW4sIEhvbmcgS29uZyIeGhwKFgoUChIJ7ZFG_9YABDQRgDPAw3ecNAoSAjVG",
      "types": [
        "subpremise"
      ]
    },
    {
      "address_components": [
        {
          "long_name": "\u9999\u6e2f",
          "short_name": "HK",
          "types": [
            "country",
            "political"
          ]
        }
      ],
      "formatted_address": "\u9999\u6e2f\u571f\u74dc\u7063\u99ac\u5751\u6d8c\u90535B-5F\u865f",
      "geometry": {
        "location": {
          "lat": 22.319852,
          "lng": 114.188918
        },
        "location_type": "GEOMETRIC_CENTER",
        "viewport": {
          "northeast": {
            "lat": 22.3212009802915,
            "lng": 114.1902669802915
          },
          "southwest": {
            "lat": 22.3185030197085,
            "lng": 114.1875690197085
          }
        }
      },
      "partial_match": true,
      "place_id": "ChIJ5f0iq9cABDQRUfUMg_fxegk",
      "plus_code": {
        "compound_code": "859Q+WH \u9999\u6e2f",
        "global_code": "7PJP859Q+WH"
      },
      "types": [
        "establishment",
        "food",
        "point_of_interest",
        "restaurant"
      ]
    }
  ],
  "licno": "2252801059",
  "timestamp": 1564968756,
  "version": "1564966095"
}
