{
  "adr_en": "Fortune Cuisine, BASEMENT, PARK COMMERCIAL CENTRE, 180 TUNG LO WAN ROAD, HONG KONG",
  "adr_tc": "\u9999\u6e2f\u9285\u947c\u7063\u9053180\u865f\u767e\u6a02\u5546\u696d\u4e2d\u5fc3\u5730\u5eab \u5bb6\u5c45\u8ed2",
  "geocode_en": [
    {
      "address_components": [
        {
          "long_name": "180",
          "short_name": "180",
          "types": [
            "street_number"
          ]
        },
        {
          "long_name": "Tung Lo Wan Road",
          "short_name": "Tung Lo Wan Rd",
          "types": [
            "route"
          ]
        },
        {
          "long_name": "Causeway Bay",
          "short_name": "Causeway Bay",
          "types": [
            "neighborhood",
            "political"
          ]
        },
        {
          "long_name": "Hong Kong Island",
          "short_name": "Hong Kong Island",
          "types": [
            "administrative_area_level_1",
            "political"
          ]
        },
        {
          "long_name": "Hong Kong",
          "short_name": "HK",
          "types": [
            "country",
            "political"
          ]
        }
      ],
      "formatted_address": "180 Tung Lo Wan Rd, Causeway Bay, Hong Kong",
      "geometry": {
        "location": {
          "lat": 22.281995,
          "lng": 114.19208
        },
        "location_type": "ROOFTOP",
        "viewport": {
          "northeast": {
            "lat": 22.2833439802915,
            "lng": 114.1934289802915
          },
          "southwest": {
            "lat": 22.2806460197085,
            "lng": 114.1907310197085
          }
        }
      },
      "place_id": "ChIJ0zAit6oBBDQRuYBu5UQcno4",
      "plus_code": {
        "compound_code": "75JR+QR Hong Kong",
        "global_code": "7PJP75JR+QR"
      },
      "types": [
        "establishment",
        "point_of_interest"
      ]
    }
  ],
  "geocode_tc": [
    {
      "address_components": [
        {
          "long_name": "\u9999\u6e2f",
          "short_name": "HK",
          "types": [
            "country",
            "political"
          ]
        }
      ],
      "formatted_address": "\u9999\u6e2f\u5929\u540e\u9285\u947c\u7063\u9053180\u865f\u767e\u6a02\u5546\u696d\u4e2d\u5fc3\u5730\u5eab",
      "geometry": {
        "location": {
          "lat": 22.2820745,
          "lng": 114.1920177
        },
        "location_type": "GEOMETRIC_CENTER",
        "viewport": {
          "northeast": {
            "lat": 22.2834234802915,
            "lng": 114.1933666802915
          },
          "southwest": {
            "lat": 22.2807255197085,
            "lng": 114.1906687197085
          }
        }
      },
      "place_id": "ChIJwzgCt6oBBDQRQzRCt_78APc",
      "plus_code": {
        "compound_code": "75JR+RR \u9999\u6e2f",
        "global_code": "7PJP75JR+RR"
      },
      "types": [
        "establishment",
        "food",
        "point_of_interest",
        "restaurant"
      ]
    },
    {
      "address_components": [
        {
          "long_name": "\u9999\u6e2f",
          "short_name": "HK",
          "types": [
            "country",
            "political"
          ]
        }
      ],
      "formatted_address": "\u9999\u6e2f\u9285\u947c\u7063\u9053180\u865f\u767e\u6a02\u5546\u696d\u4e2d\u5fc3\u5730\u5eab",
      "geometry": {
        "location": {
          "lat": 22.282108,
          "lng": 114.192159
        },
        "location_type": "GEOMETRIC_CENTER",
        "viewport": {
          "northeast": {
            "lat": 22.2834569802915,
            "lng": 114.1935079802915
          },
          "southwest": {
            "lat": 22.28075901970849,
            "lng": 114.1908100197085
          }
        }
      },
      "place_id": "ChIJ-c65sKoBBDQRnLQ4G9qUmvA",
      "plus_code": {
        "compound_code": "75JR+RV \u9999\u6e2f",
        "global_code": "7PJP75JR+RV"
      },
      "types": [
        "establishment",
        "food",
        "point_of_interest",
        "restaurant"
      ]
    }
  ],
  "licno": "2211801698",
  "timestamp": 1564966180,
  "version": "1564966095"
}
