{
  "adr_en": "Dol Lee Loi Karaoke Night Club, 2/F., 37 DUNDAS STREET, MONG KOK, KOWLOON",
  "adr_tc": "\u4e5d\u9f8d\u65fa\u89d2\u767b\u6253\u58eb\u885737\u865f2/F \u591a\u5229\u4f86\u5361\u62c9OK\u591c\u7e3d\u6703",
  "geocode_en": [
    {
      "address_components": [
        {
          "long_name": "2",
          "short_name": "2",
          "types": [
            "subpremise"
          ]
        },
        {
          "long_name": "37 Dundas Street",
          "short_name": "37 Dundas Street",
          "types": [
            "premise"
          ]
        },
        {
          "long_name": "37",
          "short_name": "37",
          "types": [
            "street_number"
          ]
        },
        {
          "long_name": "Dundas Street",
          "short_name": "Dundas St",
          "types": [
            "route"
          ]
        },
        {
          "long_name": "Mong Kok",
          "short_name": "Mong Kok",
          "types": [
            "neighborhood",
            "political"
          ]
        },
        {
          "long_name": "Kowloon",
          "short_name": "Kowloon",
          "types": [
            "administrative_area_level_1",
            "political"
          ]
        },
        {
          "long_name": "Hong Kong",
          "short_name": "HK",
          "types": [
            "country",
            "political"
          ]
        }
      ],
      "formatted_address": "2, 37 Dundas Street, 37 Dundas St, Mong Kok, Hong Kong",
      "geometry": {
        "bounds": {
          "northeast": {
            "lat": 22.315638,
            "lng": 114.169796
          },
          "southwest": {
            "lat": 22.3153521,
            "lng": 114.1696859
          }
        },
        "location": {
          "lat": 22.3154896,
          "lng": 114.1697479
        },
        "location_type": "ROOFTOP",
        "viewport": {
          "northeast": {
            "lat": 22.3168440302915,
            "lng": 114.1710899302915
          },
          "southwest": {
            "lat": 22.3141460697085,
            "lng": 114.1683919697085
          }
        }
      },
      "partial_match": true,
      "place_id": "EjYyLCAzNyBEdW5kYXMgU3RyZWV0LCAzNyBEdW5kYXMgU3QsIE1vbmcgS29rLCBIb25nIEtvbmciHRobChYKFAoSCT2UoTvHAAQ0EXK_HRGn2OHAEgEy",
      "types": [
        "subpremise"
      ]
    },
    {
      "address_components": [
        {
          "long_name": "F",
          "short_name": "F",
          "types": [
            "subpremise"
          ]
        },
        {
          "long_name": "37 Dundas Street",
          "short_name": "37 Dundas Street",
          "types": [
            "premise"
          ]
        },
        {
          "long_name": "37",
          "short_name": "37",
          "types": [
            "street_number"
          ]
        },
        {
          "long_name": "Dundas Street",
          "short_name": "Dundas St",
          "types": [
            "route"
          ]
        },
        {
          "long_name": "Mong Kok",
          "short_name": "Mong Kok",
          "types": [
            "neighborhood",
            "political"
          ]
        },
        {
          "long_name": "Kowloon",
          "short_name": "Kowloon",
          "types": [
            "administrative_area_level_1",
            "political"
          ]
        },
        {
          "long_name": "Hong Kong",
          "short_name": "HK",
          "types": [
            "country",
            "political"
          ]
        }
      ],
      "formatted_address": "F, 37 Dundas Street, 37 Dundas St, Mong Kok, Hong Kong",
      "geometry": {
        "bounds": {
          "northeast": {
            "lat": 22.315638,
            "lng": 114.169796
          },
          "southwest": {
            "lat": 22.3153521,
            "lng": 114.1696859
          }
        },
        "location": {
          "lat": 22.3154896,
          "lng": 114.1697479
        },
        "location_type": "ROOFTOP",
        "viewport": {
          "northeast": {
            "lat": 22.3168440302915,
            "lng": 114.1710899302915
          },
          "southwest": {
            "lat": 22.3141460697085,
            "lng": 114.1683919697085
          }
        }
      },
      "partial_match": true,
      "place_id": "EjZGLCAzNyBEdW5kYXMgU3RyZWV0LCAzNyBEdW5kYXMgU3QsIE1vbmcgS29rLCBIb25nIEtvbmciHRobChYKFAoSCT2UoTvHAAQ0EXK_HRGn2OHAEgFG",
      "types": [
        "subpremise"
      ]
    }
  ],
  "geocode_tc": [
    {
      "address_components": [
        {
          "long_name": "2",
          "short_name": "2",
          "types": [
            "subpremise"
          ]
        },
        {
          "long_name": "37 Dundas Street",
          "short_name": "37 Dundas Street",
          "types": [
            "premise"
          ]
        },
        {
          "long_name": "Mong Kok",
          "short_name": "Mong Kok",
          "types": [
            "neighborhood",
            "political"
          ]
        },
        {
          "long_name": "Kowloon",
          "short_name": "Kowloon",
          "types": [
            "administrative_area_level_1",
            "political"
          ]
        },
        {
          "long_name": "\u9999\u6e2f",
          "short_name": "HK",
          "types": [
            "country",
            "political"
          ]
        }
      ],
      "formatted_address": "2, 37 Dundas Street, Mong Kok, \u9999\u6e2f",
      "geometry": {
        "location": {
          "lat": 22.3154814,
          "lng": 114.1698022
        },
        "location_type": "ROOFTOP",
        "viewport": {
          "northeast": {
            "lat": 22.3168303802915,
            "lng": 114.1711511802915
          },
          "southwest": {
            "lat": 22.3141324197085,
            "lng": 114.1684532197085
          }
        }
      },
      "partial_match": true,
      "place_id": "ChIJv1hqKeoBBDQRgXTjj5F9610",
      "plus_code": {
        "compound_code": "8589+5W \u9999\u6e2f",
        "global_code": "7PJP8589+5W"
      },
      "types": [
        "establishment",
        "night_club",
        "point_of_interest"
      ]
    },
    {
      "address_components": [
        {
          "long_name": "\u9999\u6e2f",
          "short_name": "HK",
          "types": [
            "country",
            "political"
          ]
        }
      ],
      "formatted_address": "1/F, 37 Dundas Street, Mong Kok, Kowloon, \u9999\u6e2f",
      "geometry": {
        "location": {
          "lat": 22.315372,
          "lng": 114.169778
        },
        "location_type": "GEOMETRIC_CENTER",
        "viewport": {
          "northeast": {
            "lat": 22.3167209802915,
            "lng": 114.1711269802915
          },
          "southwest": {
            "lat": 22.3140230197085,
            "lng": 114.1684290197085
          }
        }
      },
      "partial_match": true,
      "place_id": "ChIJvZb5OscABDQRrkwYZjAEsYM",
      "plus_code": {
        "compound_code": "8589+4W \u9999\u6e2f",
        "global_code": "7PJP8589+4W"
      },
      "types": [
        "establishment",
        "point_of_interest"
      ]
    }
  ],
  "licno": "3162800826",
  "timestamp": 1564975666,
  "version": "1564966095"
}
