{
  "adr_en": "SPIAGGIA, SHOP B, G/F., 92 STANLEY MAIN STREET, OUTSIDE SEATING ACCOMMODATION, ON THE PAVEMENT AT SHOP FRONT, STANLEY, HONG KONG",
  "adr_tc": "\u9999\u6e2f\u8d64\u67f1\u8d64\u67f1\u5927\u885792\u865f\u5730\u4e0bB\u865f\u8216 \u53ca\u8216\u524d\u9732\u5929\u5ea7\u4f4d SPIAGGIA",
  "geocode_en": [
    {
      "address_components": [
        {
          "long_name": "G",
          "short_name": "G",
          "types": [
            "subpremise"
          ]
        },
        {
          "long_name": "Sea And Sky Court",
          "short_name": "Sea And Sky Court",
          "types": [
            "premise"
          ]
        },
        {
          "long_name": "92",
          "short_name": "92",
          "types": [
            "street_number"
          ]
        },
        {
          "long_name": "Stanley Main Street",
          "short_name": "Stanley Main St",
          "types": [
            "route"
          ]
        },
        {
          "long_name": "Stanley",
          "short_name": "Stanley",
          "types": [
            "neighborhood",
            "political"
          ]
        },
        {
          "long_name": "Hong Kong Island",
          "short_name": "Hong Kong Island",
          "types": [
            "administrative_area_level_1",
            "political"
          ]
        },
        {
          "long_name": "Hong Kong",
          "short_name": "HK",
          "types": [
            "country",
            "political"
          ]
        }
      ],
      "formatted_address": "G, Sea And Sky Court, 92 Stanley Main St, Stanley, Hong Kong",
      "geometry": {
        "bounds": {
          "northeast": {
            "lat": 22.2188566,
            "lng": 114.2109532
          },
          "southwest": {
            "lat": 22.2187459,
            "lng": 114.2106196
          }
        },
        "location": {
          "lat": 22.2188014,
          "lng": 114.2107976
        },
        "location_type": "ROOFTOP",
        "viewport": {
          "northeast": {
            "lat": 22.2201502302915,
            "lng": 114.2121353802915
          },
          "southwest": {
            "lat": 22.2174522697085,
            "lng": 114.2094374197085
          }
        }
      },
      "partial_match": true,
      "place_id": "EjxHLCBTZWEgQW5kIFNreSBDb3VydCwgOTIgU3RhbmxleSBNYWluIFN0LCBTdGFubGV5LCBIb25nIEtvbmciHRobChYKFAoSCS1tU3VsqgY0EawM5FTog9ytEgFH",
      "types": [
        "subpremise"
      ]
    },
    {
      "address_components": [
        {
          "long_name": "F",
          "short_name": "F",
          "types": [
            "subpremise"
          ]
        },
        {
          "long_name": "Sea And Sky Court",
          "short_name": "Sea And Sky Court",
          "types": [
            "premise"
          ]
        },
        {
          "long_name": "92",
          "short_name": "92",
          "types": [
            "street_number"
          ]
        },
        {
          "long_name": "Stanley Main Street",
          "short_name": "Stanley Main St",
          "types": [
            "route"
          ]
        },
        {
          "long_name": "Stanley",
          "short_name": "Stanley",
          "types": [
            "neighborhood",
            "political"
          ]
        },
        {
          "long_name": "Hong Kong Island",
          "short_name": "Hong Kong Island",
          "types": [
            "administrative_area_level_1",
            "political"
          ]
        },
        {
          "long_name": "Hong Kong",
          "short_name": "HK",
          "types": [
            "country",
            "political"
          ]
        }
      ],
      "formatted_address": "F, Sea And Sky Court, 92 Stanley Main St, Stanley, Hong Kong",
      "geometry": {
        "bounds": {
          "northeast": {
            "lat": 22.2188566,
            "lng": 114.2109532
          },
          "southwest": {
            "lat": 22.2187459,
            "lng": 114.2106196
          }
        },
        "location": {
          "lat": 22.2188014,
          "lng": 114.2107976
        },
        "location_type": "ROOFTOP",
        "viewport": {
          "northeast": {
            "lat": 22.2201502302915,
            "lng": 114.2121353802915
          },
          "southwest": {
            "lat": 22.2174522697085,
            "lng": 114.2094374197085
          }
        }
      },
      "partial_match": true,
      "place_id": "EjxGLCBTZWEgQW5kIFNreSBDb3VydCwgOTIgU3RhbmxleSBNYWluIFN0LCBTdGFubGV5LCBIb25nIEtvbmciHRobChYKFAoSCS1tU3VsqgY0EawM5FTog9ytEgFG",
      "types": [
        "subpremise"
      ]
    }
  ],
  "geocode_tc": [
    {
      "address_components": [
        {
          "long_name": "\u8216 \u53ca\u8216\u524d",
          "short_name": "\u8216 \u53ca\u8216\u524d",
          "types": [
            "subpremise"
          ]
        },
        {
          "long_name": "\u6d77\u5929\u5225\u5885",
          "short_name": "\u6d77\u5929\u5225\u5885",
          "types": [
            "premise"
          ]
        },
        {
          "long_name": "92",
          "short_name": "92",
          "types": [
            "street_number"
          ]
        },
        {
          "long_name": "\u8d64\u67f1\u5927\u8857",
          "short_name": "\u8d64\u67f1\u5927\u8857",
          "types": [
            "route"
          ]
        },
        {
          "long_name": "\u8d64\u67f1",
          "short_name": "\u8d64\u67f1",
          "types": [
            "neighborhood",
            "political"
          ]
        },
        {
          "long_name": "\u9999\u6e2f\u5cf6",
          "short_name": "\u9999\u6e2f\u5cf6",
          "types": [
            "administrative_area_level_1",
            "political"
          ]
        },
        {
          "long_name": "\u9999\u6e2f",
          "short_name": "HK",
          "types": [
            "country",
            "political"
          ]
        }
      ],
      "formatted_address": "\u9999\u6e2f\u8d64\u67f1\u8d64\u67f1\u5927\u885792\u865f\u6d77\u5929\u5225\u5885\u8216 \u53ca\u8216\u524d",
      "geometry": {
        "bounds": {
          "northeast": {
            "lat": 22.2188566,
            "lng": 114.2109532
          },
          "southwest": {
            "lat": 22.2187459,
            "lng": 114.2106196
          }
        },
        "location": {
          "lat": 22.2188014,
          "lng": 114.2107976
        },
        "location_type": "ROOFTOP",
        "viewport": {
          "northeast": {
            "lat": 22.2201502302915,
            "lng": 114.2121353802915
          },
          "southwest": {
            "lat": 22.2174522697085,
            "lng": 114.2094374197085
          }
        }
      },
      "partial_match": true,
      "place_id": "EkjoiJYg5Y-K6IiW5YmNLCBTZWEgQW5kIFNreSBDb3VydCwgOTIgU3RhbmxleSBNYWluIFN0LCBTdGFubGV5LCBIb25nIEtvbmciKRonChYKFAoSCS1tU3VsqgY0EawM5FTog9ytEg3oiJYg5Y-K6IiW5YmN",
      "types": [
        "subpremise"
      ]
    },
    {
      "address_components": [
        {
          "long_name": "G/F",
          "short_name": "G/F",
          "types": [
            "subpremise"
          ]
        },
        {
          "long_name": "92B",
          "short_name": "92B",
          "types": [
            "street_number"
          ]
        },
        {
          "long_name": "Stanley Main Street",
          "short_name": "Stanley Main St",
          "types": [
            "route"
          ]
        },
        {
          "long_name": "Stanley",
          "short_name": "Stanley",
          "types": [
            "neighborhood",
            "political"
          ]
        },
        {
          "long_name": "Hong Kong Island",
          "short_name": "Hong Kong Island",
          "types": [
            "administrative_area_level_1",
            "political"
          ]
        },
        {
          "long_name": "\u9999\u6e2f",
          "short_name": "HK",
          "types": [
            "country",
            "political"
          ]
        }
      ],
      "formatted_address": "G/F, 92B Stanley Main St, Stanley, \u9999\u6e2f",
      "geometry": {
        "location": {
          "lat": 22.2187669,
          "lng": 114.2107253
        },
        "location_type": "ROOFTOP",
        "viewport": {
          "northeast": {
            "lat": 22.2201158802915,
            "lng": 114.2120742802915
          },
          "southwest": {
            "lat": 22.2174179197085,
            "lng": 114.2093763197085
          }
        }
      },
      "partial_match": true,
      "place_id": "ChIJ0ZWwimuqBjQRbuUTLJ0a7Rw",
      "plus_code": {
        "compound_code": "6696+G7 \u9999\u6e2f",
        "global_code": "7PJP6696+G7"
      },
      "types": [
        "establishment",
        "food",
        "point_of_interest",
        "restaurant"
      ]
    }
  ],
  "licno": "2215800718",
  "timestamp": 1564968756,
  "version": "1564966095"
}
