{
  "adr_en": "LEI YUE MUN SEA FOOD RESTAURANT, G/F, 1/F, 2/F, ROOF AND TOP ROOF, 26-30 HOI BONG ROAD WEST, LEI YUE MUN, KOWLOON",
  "adr_tc": "\u4e5d\u9f8d\u9bc9\u9b5a\u9580 \u6d77\u508d\u9053\u897f26-30\u865f \u5730\u4e0b\u30011\u6a13\u30012\u6a13\u5929\u53f0\u53ca\u9802\u6a13 \u65b0\u9bc9\u9b5a\u9580\u6d77\u9bae\u9152\u5bb6",
  "geocode_en": [
    {
      "address_components": [
        {
          "long_name": "Lei Yue Mun Road",
          "short_name": "Lei Yue Mun Rd",
          "types": [
            "route"
          ]
        },
        {
          "long_name": "Kowloon",
          "short_name": "Kowloon",
          "types": [
            "administrative_area_level_1",
            "political"
          ]
        },
        {
          "long_name": "Hong Kong",
          "short_name": "HK",
          "types": [
            "country",
            "political"
          ]
        }
      ],
      "formatted_address": "Lei Yue Mun Rd, Hong Kong",
      "geometry": {
        "bounds": {
          "northeast": {
            "lat": 22.310824,
            "lng": 114.2405358
          },
          "southwest": {
            "lat": 22.2949986,
            "lng": 114.2286476
          }
        },
        "location": {
          "lat": 22.3038716,
          "lng": 114.2359332
        },
        "location_type": "GEOMETRIC_CENTER",
        "viewport": {
          "northeast": {
            "lat": 22.310824,
            "lng": 114.2405358
          },
          "southwest": {
            "lat": 22.2949986,
            "lng": 114.2286476
          }
        }
      },
      "partial_match": true,
      "place_id": "ChIJ7STpvl4BBDQRH3dWeICSsP8",
      "types": [
        "route"
      ]
    }
  ],
  "geocode_tc": [
    {
      "address_components": [
        {
          "long_name": "\u9999\u6e2f",
          "short_name": "HK",
          "types": [
            "country",
            "political"
          ]
        }
      ],
      "formatted_address": "\u9999\u6e2f\u9bc9\u9b5a\u9580\u6d77\u508d\u9053\u897f54B\u865f\u5730\u4e0b",
      "geometry": {
        "location": {
          "lat": 22.291549,
          "lng": 114.238794
        },
        "location_type": "GEOMETRIC_CENTER",
        "viewport": {
          "northeast": {
            "lat": 22.2928979802915,
            "lng": 114.2401429802915
          },
          "southwest": {
            "lat": 22.2902000197085,
            "lng": 114.2374450197085
          }
        }
      },
      "place_id": "ChIJoawWCWIBBDQR8R2IGUD29WU",
      "plus_code": {
        "compound_code": "76RQ+JG \u9999\u6e2f",
        "global_code": "7PJP76RQ+JG"
      },
      "types": [
        "establishment",
        "food",
        "point_of_interest",
        "restaurant"
      ]
    }
  ],
  "licno": "2251207597",
  "timestamp": 1564968756,
  "version": "1564966095"
}
