{
  "adr_en": "\u9189\u74ca\u6a13, G/F & M/F, 322 UN CHAU STREET, SHAM SHUI PO, KOWLOON",
  "adr_tc": "\u4e5d\u9f8d\u5143\u5dde\u8857 322 \u865f\u5730\u4e0b\u53ca\u95a3\u6a13 \u9189\u74ca\u6a13",
  "geocode_en": [
    {
      "address_components": [
        {
          "long_name": "Hong Kong",
          "short_name": "HK",
          "types": [
            "country",
            "political"
          ]
        }
      ],
      "formatted_address": "Hong Kong, G/F, 320A Un Chau Street, Sham Shui Po",
      "geometry": {
        "location": {
          "lat": 22.3371999,
          "lng": 114.1571555
        },
        "location_type": "GEOMETRIC_CENTER",
        "viewport": {
          "northeast": {
            "lat": 22.3385488802915,
            "lng": 114.1585044802915
          },
          "southwest": {
            "lat": 22.3358509197085,
            "lng": 114.1558065197085
          }
        }
      },
      "partial_match": true,
      "place_id": "ChIJ4SkFvU0HBDQRndqbyQYE-ds",
      "plus_code": {
        "compound_code": "85P4+VV Hong Kong",
        "global_code": "7PJP85P4+VV"
      },
      "types": [
        "establishment",
        "food",
        "point_of_interest",
        "restaurant"
      ]
    },
    {
      "address_components": [
        {
          "long_name": "M",
          "short_name": "M",
          "types": [
            "subpremise"
          ]
        },
        {
          "long_name": "322",
          "short_name": "322",
          "types": [
            "street_number"
          ]
        },
        {
          "long_name": "Un Chau Street",
          "short_name": "Un Chau St",
          "types": [
            "route"
          ]
        },
        {
          "long_name": "Cheung Sha Wan",
          "short_name": "Cheung Sha Wan",
          "types": [
            "neighborhood",
            "political"
          ]
        },
        {
          "long_name": "Kowloon",
          "short_name": "Kowloon",
          "types": [
            "administrative_area_level_1",
            "political"
          ]
        },
        {
          "long_name": "Hong Kong",
          "short_name": "HK",
          "types": [
            "country",
            "political"
          ]
        }
      ],
      "formatted_address": "M, 322 Un Chau St, Cheung Sha Wan, Hong Kong",
      "geometry": {
        "location": {
          "lat": 22.337146,
          "lng": 114.157299
        },
        "location_type": "ROOFTOP",
        "viewport": {
          "northeast": {
            "lat": 22.3384949802915,
            "lng": 114.1586479802915
          },
          "southwest": {
            "lat": 22.3357970197085,
            "lng": 114.1559500197085
          }
        }
      },
      "partial_match": true,
      "place_id": "EixNLCAzMjIgVW4gQ2hhdSBTdCwgQ2hldW5nIFNoYSBXYW4sIEhvbmcgS29uZyIdGhsKFgoUChIJ_YX2lU0HBDQRcsovzgXAJisSAU0",
      "types": [
        "subpremise"
      ]
    },
    {
      "address_components": [
        {
          "long_name": "F",
          "short_name": "F",
          "types": [
            "subpremise"
          ]
        },
        {
          "long_name": "322",
          "short_name": "322",
          "types": [
            "street_number"
          ]
        },
        {
          "long_name": "Un Chau Street",
          "short_name": "Un Chau St",
          "types": [
            "route"
          ]
        },
        {
          "long_name": "Cheung Sha Wan",
          "short_name": "Cheung Sha Wan",
          "types": [
            "neighborhood",
            "political"
          ]
        },
        {
          "long_name": "Kowloon",
          "short_name": "Kowloon",
          "types": [
            "administrative_area_level_1",
            "political"
          ]
        },
        {
          "long_name": "Hong Kong",
          "short_name": "HK",
          "types": [
            "country",
            "political"
          ]
        }
      ],
      "formatted_address": "F, 322 Un Chau St, Cheung Sha Wan, Hong Kong",
      "geometry": {
        "location": {
          "lat": 22.337146,
          "lng": 114.157299
        },
        "location_type": "ROOFTOP",
        "viewport": {
          "northeast": {
            "lat": 22.3384949802915,
            "lng": 114.1586479802915
          },
          "southwest": {
            "lat": 22.3357970197085,
            "lng": 114.1559500197085
          }
        }
      },
      "partial_match": true,
      "place_id": "EixGLCAzMjIgVW4gQ2hhdSBTdCwgQ2hldW5nIFNoYSBXYW4sIEhvbmcgS29uZyIdGhsKFgoUChIJ_YX2lU0HBDQRcsovzgXAJisSAUY",
      "types": [
        "subpremise"
      ]
    }
  ],
  "geocode_tc": [
    {
      "address_components": [
        {
          "long_name": "\u9999\u6e2f",
          "short_name": "HK",
          "types": [
            "country",
            "political"
          ]
        }
      ],
      "formatted_address": "\u9999\u6e2f\u6df1\u6c34\u57d7\u5143\u5dde\u8857320A\u865f\u5730\u4e0b",
      "geometry": {
        "location": {
          "lat": 22.337302,
          "lng": 114.157116
        },
        "location_type": "GEOMETRIC_CENTER",
        "viewport": {
          "northeast": {
            "lat": 22.3386509802915,
            "lng": 114.1584649802915
          },
          "southwest": {
            "lat": 22.33595301970849,
            "lng": 114.1557670197085
          }
        }
      },
      "place_id": "ChIJhV7-lE0HBDQRRu5l1qYYVhI",
      "plus_code": {
        "compound_code": "85P4+WR \u9999\u6e2f",
        "global_code": "7PJP85P4+WR"
      },
      "types": [
        "establishment",
        "food",
        "point_of_interest",
        "restaurant"
      ]
    }
  ],
  "licno": "2263063208",
  "timestamp": 1564968756,
  "version": "1564966095"
}
