{
  "adr_en": "LIBERTY EXCHANGE KITCHEN AND BAR, SHOP 103, 1/F., & SHOPS 206-207, 2/F.,EXCHANGE SQUARE PODIUM, 8 CONNAUGHT PLACE, CENTRAL, HONG KONG",
  "adr_tc": "\u9999\u6e2f\u4e2d\u74b0\u5eb7\u6a02\u5ee3\u58348\u865f\u4ea4\u6613\u5ee3\u5834\u5e73\u53f01\u6a13103\u865f\u8216 \u53ca2\u6a13206-207\u865f\u8216 LIBERTY EXCHANGE KITCHEN AND BAR",
  "geocode_en": [
    {
      "address_components": [
        {
          "long_name": "Central",
          "short_name": "Central",
          "types": [
            "neighborhood",
            "political"
          ]
        },
        {
          "long_name": "Hong Kong Island",
          "short_name": "Hong Kong Island",
          "types": [
            "administrative_area_level_1",
            "political"
          ]
        },
        {
          "long_name": "Hong Kong",
          "short_name": "HK",
          "types": [
            "country",
            "political"
          ]
        }
      ],
      "formatted_address": "Hong Kong, Central, G/F, Block 2, The Forum, 8 Connaught Road",
      "geometry": {
        "location": {
          "lat": 22.283912,
          "lng": 114.158026
        },
        "location_type": "GEOMETRIC_CENTER",
        "viewport": {
          "northeast": {
            "lat": 22.2852609802915,
            "lng": 114.1593749802915
          },
          "southwest": {
            "lat": 22.2825630197085,
            "lng": 114.1566770197085
          }
        }
      },
      "partial_match": true,
      "place_id": "ChIJv_6bbGMABDQRyIM8K4NRBFg",
      "plus_code": {
        "compound_code": "75M5+H6 Central, Hong Kong",
        "global_code": "7PJP75M5+H6"
      },
      "types": [
        "establishment",
        "food",
        "point_of_interest",
        "restaurant"
      ]
    },
    {
      "address_components": [
        {
          "long_name": "207",
          "short_name": "207",
          "types": [
            "subpremise"
          ]
        },
        {
          "long_name": "Exchange Square Podium",
          "short_name": "Exchange Square Podium",
          "types": [
            "premise"
          ]
        },
        {
          "long_name": "Connaught Place",
          "short_name": "Connaught Pl",
          "types": [
            "route"
          ]
        },
        {
          "long_name": "Central",
          "short_name": "Central",
          "types": [
            "neighborhood",
            "political"
          ]
        },
        {
          "long_name": "Hong Kong Island",
          "short_name": "Hong Kong Island",
          "types": [
            "administrative_area_level_1",
            "political"
          ]
        },
        {
          "long_name": "Hong Kong",
          "short_name": "HK",
          "types": [
            "country",
            "political"
          ]
        }
      ],
      "formatted_address": "207, Exchange Square Podium, Connaught Pl, Central, Hong Kong",
      "geometry": {
        "bounds": {
          "northeast": {
            "lat": 22.2847551,
            "lng": 114.1589009
          },
          "southwest": {
            "lat": 22.283246,
            "lng": 114.1570921
          }
        },
        "location": {
          "lat": 22.2841483,
          "lng": 114.1578694
        },
        "location_type": "ROOFTOP",
        "viewport": {
          "northeast": {
            "lat": 22.2853495302915,
            "lng": 114.1593454802915
          },
          "southwest": {
            "lat": 22.2826515697085,
            "lng": 114.1566475197085
          }
        }
      },
      "partial_match": true,
      "place_id": "Ej0yMDcsIEV4Y2hhbmdlIFNxdWFyZSBQb2RpdW0sIENvbm5hdWdodCBQbCwgQ2VudHJhbCwgSG9uZyBLb25nIh8aHQoWChQKEgmfd-9tYwAENBH2n_Tua9cEDBIDMjA3",
      "types": [
        "subpremise"
      ]
    }
  ],
  "geocode_tc": [
    {
      "address_components": [
        {
          "long_name": "\u4ea4\u6613\u5ee3\u5834\u5e73\u53f0",
          "short_name": "\u4ea4\u6613\u5ee3\u5834\u5e73\u53f0",
          "types": [
            "premise"
          ]
        },
        {
          "long_name": "\u5eb7\u6a02\u5ee3\u5834",
          "short_name": "\u5eb7\u6a02\u5ee3\u5834",
          "types": [
            "route"
          ]
        },
        {
          "long_name": "\u4e2d\u74b0",
          "short_name": "\u4e2d\u74b0",
          "types": [
            "neighborhood",
            "political"
          ]
        },
        {
          "long_name": "\u9999\u6e2f\u5cf6",
          "short_name": "\u9999\u6e2f\u5cf6",
          "types": [
            "administrative_area_level_1",
            "political"
          ]
        },
        {
          "long_name": "\u9999\u6e2f",
          "short_name": "HK",
          "types": [
            "country",
            "political"
          ]
        }
      ],
      "formatted_address": "\u9999\u6e2f\u4e2d\u74b0\u5eb7\u6a02\u5ee3\u5834\u4ea4\u6613\u5ee3\u5834\u5e73\u53f0",
      "geometry": {
        "bounds": {
          "northeast": {
            "lat": 22.2847551,
            "lng": 114.1589009
          },
          "southwest": {
            "lat": 22.283246,
            "lng": 114.1570921
          }
        },
        "location": {
          "lat": 22.2841483,
          "lng": 114.1578694
        },
        "location_type": "ROOFTOP",
        "viewport": {
          "northeast": {
            "lat": 22.2853495302915,
            "lng": 114.1593454802915
          },
          "southwest": {
            "lat": 22.2826515697085,
            "lng": 114.1566475197085
          }
        }
      },
      "partial_match": true,
      "place_id": "ChIJn3fvbWMABDQR9p_07mvXBAw",
      "types": [
        "premise"
      ]
    },
    {
      "address_components": [
        {
          "long_name": "\u4e2d\u74b0",
          "short_name": "\u4e2d\u74b0",
          "types": [
            "neighborhood",
            "political"
          ]
        },
        {
          "long_name": "\u9999\u6e2f\u5cf6",
          "short_name": "\u9999\u6e2f\u5cf6",
          "types": [
            "administrative_area_level_1",
            "political"
          ]
        },
        {
          "long_name": "\u9999\u6e2f",
          "short_name": "HK",
          "types": [
            "country",
            "political"
          ]
        }
      ],
      "formatted_address": "\u9999\u6e2f\u4e2d\u74b0G/F, Block 2, The Forum, 8 Connaught Road",
      "geometry": {
        "location": {
          "lat": 22.283912,
          "lng": 114.158026
        },
        "location_type": "GEOMETRIC_CENTER",
        "viewport": {
          "northeast": {
            "lat": 22.2852609802915,
            "lng": 114.1593749802915
          },
          "southwest": {
            "lat": 22.2825630197085,
            "lng": 114.1566770197085
          }
        }
      },
      "partial_match": true,
      "place_id": "ChIJv_6bbGMABDQRyIM8K4NRBFg",
      "plus_code": {
        "compound_code": "75M5+H6 \u9999\u6e2f\u4e2d\u74b0",
        "global_code": "7PJP75M5+H6"
      },
      "types": [
        "establishment",
        "food",
        "point_of_interest",
        "restaurant"
      ]
    }
  ],
  "licno": "2218804395",
  "timestamp": 1564968756,
  "version": "1564966095"
}
