{
  "adr_en": "FOG BAR & RESTAURANT, SHOP G35 AND THE OUTSIDE SEATING ACCOMMODATION AT SIDE, G/F, PENINSULA CENTRE, 67 MODY ROAD, TSIM SHA TSUI, KOWLOON",
  "adr_tc": "\u4e5d\u9f8d\u5c16\u6c99\u5480\u9ebc\u5730\u905367\u865f\u534a\u5cf6\u4e2d\u5fc3\u5730\u4e0bG35\u92ea \u53ca\u92ea\u5074\u9732\u5929\u5ea7\u4f4d FOG BAR & RESTAURANT",
  "geocode_en": [
    {
      "address_components": [
        {
          "long_name": "Hong Kong",
          "short_name": "HK",
          "types": [
            "country",
            "political"
          ]
        }
      ],
      "formatted_address": "Shop G35, G/F, Peninsula Centre, 67 Mody Road, Tsim Sha Tsui, Kowloon, Hong Kong",
      "geometry": {
        "location": {
          "lat": 22.299051,
          "lng": 114.177306
        },
        "location_type": "GEOMETRIC_CENTER",
        "viewport": {
          "northeast": {
            "lat": 22.3003999802915,
            "lng": 114.1786549802915
          },
          "southwest": {
            "lat": 22.2977020197085,
            "lng": 114.1759570197085
          }
        }
      },
      "place_id": "ChIJNaq0qO8ABDQRwAmVVhU3wTw",
      "types": [
        "bar",
        "establishment",
        "food",
        "point_of_interest",
        "restaurant",
        "store"
      ]
    }
  ],
  "geocode_tc": [
    {
      "address_components": [
        {
          "long_name": "67",
          "short_name": "67",
          "types": [
            "street_number"
          ]
        },
        {
          "long_name": "\u9ebc\u5730\u9053",
          "short_name": "\u9ebc\u5730\u9053",
          "types": [
            "route"
          ]
        },
        {
          "long_name": "\u5c16\u6c99\u5480",
          "short_name": "\u5c16\u6c99\u5480",
          "types": [
            "neighborhood",
            "political"
          ]
        },
        {
          "long_name": "\u4e5d\u9f8d",
          "short_name": "\u4e5d\u9f8d",
          "types": [
            "administrative_area_level_1",
            "political"
          ]
        },
        {
          "long_name": "\u9999\u6e2f",
          "short_name": "HK",
          "types": [
            "country",
            "political"
          ]
        }
      ],
      "formatted_address": "\u9999\u6e2f\u5c16\u6c99\u5480\u9ebc\u5730\u905367\u865f",
      "geometry": {
        "location": {
          "lat": 22.2990655,
          "lng": 114.177277
        },
        "location_type": "ROOFTOP",
        "viewport": {
          "northeast": {
            "lat": 22.3004144802915,
            "lng": 114.1786259802915
          },
          "southwest": {
            "lat": 22.29771651970849,
            "lng": 114.1759280197085
          }
        }
      },
      "partial_match": true,
      "place_id": "ChIJgV_KqO8ABDQRU1uJf7kqoac",
      "plus_code": {
        "compound_code": "75XG+JW \u9999\u6e2f",
        "global_code": "7PJP75XG+JW"
      },
      "types": [
        "establishment",
        "point_of_interest",
        "premise",
        "shopping_mall"
      ]
    },
    {
      "address_components": [
        {
          "long_name": "\u92ea \u53ca\u92ea\u5074",
          "short_name": "\u92ea \u53ca\u92ea\u5074",
          "types": [
            "subpremise"
          ]
        },
        {
          "long_name": "67",
          "short_name": "67",
          "types": [
            "street_number"
          ]
        },
        {
          "long_name": "\u9ebc\u5730\u9053",
          "short_name": "\u9ebc\u5730\u9053",
          "types": [
            "route"
          ]
        },
        {
          "long_name": "\u5c16\u6771",
          "short_name": "\u5c16\u6771",
          "types": [
            "neighborhood",
            "political"
          ]
        },
        {
          "long_name": "\u4e5d\u9f8d",
          "short_name": "\u4e5d\u9f8d",
          "types": [
            "administrative_area_level_1",
            "political"
          ]
        },
        {
          "long_name": "\u9999\u6e2f",
          "short_name": "HK",
          "types": [
            "country",
            "political"
          ]
        }
      ],
      "formatted_address": "\u9999\u6e2f\u5c16\u6771\u9ebc\u5730\u905367\u865f\u92ea \u53ca\u92ea\u5074",
      "geometry": {
        "bounds": {
          "northeast": {
            "lat": 22.2995401,
            "lng": 114.1778121
          },
          "southwest": {
            "lat": 22.2985909,
            "lng": 114.176742
          }
        },
        "location": {
          "lat": 22.2991044,
          "lng": 114.177237
        },
        "location_type": "ROOFTOP",
        "viewport": {
          "northeast": {
            "lat": 22.3004144802915,
            "lng": 114.1786260302915
          },
          "southwest": {
            "lat": 22.2977165197085,
            "lng": 114.1759280697085
          }
        }
      },
      "partial_match": true,
      "place_id": "Ejjpi6og5Y-K6Yuq5YG0LCA2NyBNb2R5IFJkLCBUc2ltIFNoYSBUc3VpIEVhc3QsIEhvbmcgS29uZyIpGicKFgoUChIJgV_KqO8ABDQRhskTqGq4dWASDemLqiDlj4rpi6rlgbQ",
      "types": [
        "subpremise"
      ]
    },
    {
      "address_components": [
        {
          "long_name": "\u9999\u6e2f",
          "short_name": "HK",
          "types": [
            "country",
            "political"
          ]
        }
      ],
      "formatted_address": "Shop G35, G/F, Peninsula Centre, 67 Mody Road, Tsim Sha Tsui, Kowloon, \u9999\u6e2f",
      "geometry": {
        "location": {
          "lat": 22.299051,
          "lng": 114.177306
        },
        "location_type": "GEOMETRIC_CENTER",
        "viewport": {
          "northeast": {
            "lat": 22.3003999802915,
            "lng": 114.1786549802915
          },
          "southwest": {
            "lat": 22.2977020197085,
            "lng": 114.1759570197085
          }
        }
      },
      "partial_match": true,
      "place_id": "ChIJNaq0qO8ABDQRwAmVVhU3wTw",
      "types": [
        "bar",
        "establishment",
        "food",
        "point_of_interest",
        "restaurant",
        "store"
      ]
    }
  ],
  "licno": "2261811490",
  "timestamp": 1564968756,
  "version": "1564966095"
}
