{
  "adr_en": "\u5473\u738b\u65e5\u672c\u6599\u7406, SHOP NO UG34, UPPER G/F, FISHERMANS WHARF, 8 LAGUNA VERDE AVENUE, HUNG HOM, KOWLOON CITY, KOWLOON",
  "adr_tc": "\u4e5d\u9f8d\u7d05\u78e1\u6d77\u9038\u90538\u865f \u6f01\u4eba\u78bc\u982d\u5730\u4e0b\u4e0a\u5c64 34\u865f\u8216 \u5473\u738b\u65e5\u672c\u6599\u7406",
  "geocode_en": [
    {
      "address_components": [
        {
          "long_name": "Hong Kong",
          "short_name": "HK",
          "types": [
            "country",
            "political"
          ]
        }
      ],
      "formatted_address": "Hong Kong, \u7d05\u78e1\u6d77\u9038\u90538\u865f\u6f01\u4eba\u78bc\u982dUG34",
      "geometry": {
        "location": {
          "lat": 22.309188,
          "lng": 114.191417
        },
        "location_type": "GEOMETRIC_CENTER",
        "viewport": {
          "northeast": {
            "lat": 22.31053698029151,
            "lng": 114.1927659802915
          },
          "southwest": {
            "lat": 22.3078390197085,
            "lng": 114.1900680197085
          }
        }
      },
      "partial_match": true,
      "place_id": "ChIJX59nYt8ABDQR_IuYisK7l1s",
      "plus_code": {
        "compound_code": "855R+MH Hong Kong",
        "global_code": "7PJP855R+MH"
      },
      "types": [
        "establishment",
        "food",
        "point_of_interest",
        "restaurant"
      ]
    },
    {
      "address_components": [
        {
          "long_name": "8",
          "short_name": "8",
          "types": [
            "street_number"
          ]
        },
        {
          "long_name": "Laguna Verde Avenue",
          "short_name": "Laguna Verde Ave",
          "types": [
            "route"
          ]
        },
        {
          "long_name": "Laguna Verde",
          "short_name": "Laguna Verde",
          "types": [
            "neighborhood",
            "political"
          ]
        },
        {
          "long_name": "Hong Kong",
          "short_name": "HK",
          "types": [
            "country",
            "political"
          ]
        }
      ],
      "formatted_address": "\u6d77\u9038\u574a, 8 Laguna Verde Ave, Laguna Verde, Hong Kong",
      "geometry": {
        "location": {
          "lat": 22.3087652,
          "lng": 114.1910584
        },
        "location_type": "ROOFTOP",
        "viewport": {
          "northeast": {
            "lat": 22.3101141802915,
            "lng": 114.1924073802915
          },
          "southwest": {
            "lat": 22.3074162197085,
            "lng": 114.1897094197085
          }
        }
      },
      "partial_match": true,
      "place_id": "ChIJmf_hYt8ABDQR6kRSwoqEoFo",
      "plus_code": {
        "compound_code": "855R+GC Hong Kong",
        "global_code": "7PJP855R+GC"
      },
      "types": [
        "establishment",
        "point_of_interest",
        "shopping_mall"
      ]
    }
  ],
  "geocode_tc": [
    {
      "address_components": [
        {
          "long_name": "\u9999\u6e2f",
          "short_name": "HK",
          "types": [
            "country",
            "political"
          ]
        }
      ],
      "formatted_address": "\u9999\u6e2f\u7d05\u78e1\u6d77\u9038\u90538\u865f\u6f01\u4eba\u78bc\u982dUG34",
      "geometry": {
        "location": {
          "lat": 22.309188,
          "lng": 114.191417
        },
        "location_type": "GEOMETRIC_CENTER",
        "viewport": {
          "northeast": {
            "lat": 22.31053698029151,
            "lng": 114.1927659802915
          },
          "southwest": {
            "lat": 22.3078390197085,
            "lng": 114.1900680197085
          }
        }
      },
      "place_id": "ChIJX59nYt8ABDQR_IuYisK7l1s",
      "plus_code": {
        "compound_code": "855R+MH \u9999\u6e2f",
        "global_code": "7PJP855R+MH"
      },
      "types": [
        "establishment",
        "food",
        "point_of_interest",
        "restaurant"
      ]
    }
  ],
  "licno": "2252258088",
  "timestamp": 1564968756,
  "version": "1564966095"
}
