{
  "adr_en": "Double In, SHOP B, G/F, FUK WING BUILDING, 52 KWONG FUK ROAD, TAI PO, NEW TERRITORIES",
  "adr_tc": "\u65b0\u754c\u5927\u57d4\u5ee3\u798f\u905352\u865f\u798f\u69ae\u6a13\u5730\u4e0bB\u92ea Double In",
  "geocode_en": [
    {
      "address_components": [
        {
          "long_name": "Fuk Wing Building",
          "short_name": "Fuk Wing Building",
          "types": [
            "premise"
          ]
        },
        {
          "long_name": "52",
          "short_name": "52",
          "types": [
            "street_number"
          ]
        },
        {
          "long_name": "Kwong Fuk Road",
          "short_name": "Kwong Fuk Rd",
          "types": [
            "route"
          ]
        },
        {
          "long_name": "Tai Po",
          "short_name": "Tai Po",
          "types": [
            "neighborhood",
            "political"
          ]
        },
        {
          "long_name": "New Territories",
          "short_name": "New Territories",
          "types": [
            "administrative_area_level_1",
            "political"
          ]
        },
        {
          "long_name": "Hong Kong",
          "short_name": "HK",
          "types": [
            "country",
            "political"
          ]
        }
      ],
      "formatted_address": "Fuk Wing Building, 52 Kwong Fuk Rd, Tai Po, Hong Kong",
      "geometry": {
        "bounds": {
          "northeast": {
            "lat": 22.4489011,
            "lng": 114.1662011
          },
          "southwest": {
            "lat": 22.44874,
            "lng": 114.166063
          }
        },
        "location": {
          "lat": 22.4488201,
          "lng": 114.1661252
        },
        "location_type": "ROOFTOP",
        "viewport": {
          "northeast": {
            "lat": 22.4501695302915,
            "lng": 114.1674810302915
          },
          "southwest": {
            "lat": 22.4474715697085,
            "lng": 114.1647830697085
          }
        }
      },
      "partial_match": true,
      "place_id": "ChIJjXO9NT8IBDQRBknTnPJK9Ic",
      "types": [
        "premise"
      ]
    }
  ],
  "geocode_tc": [
    {
      "address_components": [
        {
          "long_name": "\u5730\u4e0bB\u92ea",
          "short_name": "\u5730\u4e0bB\u92ea",
          "types": [
            "subpremise"
          ]
        },
        {
          "long_name": "\u798f\u69ae\u6a13",
          "short_name": "\u798f\u69ae\u6a13",
          "types": [
            "premise"
          ]
        },
        {
          "long_name": "52",
          "short_name": "52",
          "types": [
            "street_number"
          ]
        },
        {
          "long_name": "\u5ee3\u798f\u9053",
          "short_name": "\u5ee3\u798f\u9053",
          "types": [
            "route"
          ]
        },
        {
          "long_name": "\u5927\u57d4",
          "short_name": "\u5927\u57d4",
          "types": [
            "neighborhood",
            "political"
          ]
        },
        {
          "long_name": "\u65b0\u754c",
          "short_name": "\u65b0\u754c",
          "types": [
            "administrative_area_level_1",
            "political"
          ]
        },
        {
          "long_name": "\u9999\u6e2f",
          "short_name": "HK",
          "types": [
            "country",
            "political"
          ]
        }
      ],
      "formatted_address": "\u9999\u6e2f\u5927\u57d4\u5ee3\u798f\u905352\u865f\u798f\u69ae\u6a13\u5730\u4e0bB\u92ea",
      "geometry": {
        "bounds": {
          "northeast": {
            "lat": 22.4489011,
            "lng": 114.1662011
          },
          "southwest": {
            "lat": 22.44874,
            "lng": 114.166063
          }
        },
        "location": {
          "lat": 22.4488201,
          "lng": 114.1661252
        },
        "location_type": "ROOFTOP",
        "viewport": {
          "northeast": {
            "lat": 22.4501695302915,
            "lng": 114.1674810302915
          },
          "southwest": {
            "lat": 22.4474715697085,
            "lng": 114.1647830697085
          }
        }
      },
      "partial_match": true,
      "place_id": "EkHlnLDkuItC6YuqLCBGdWsgV2luZyBCdWlsZGluZywgNTIgS3dvbmcgRnVrIFJkLCBUYWkgUG8sIEhvbmcgS29uZyImGiQKFgoUChIJjXO9NT8IBDQRBknTnPJK9IcSCuWcsOS4i0Lpi6o",
      "types": [
        "subpremise"
      ]
    }
  ],
  "licno": "3195800738",
  "timestamp": 1564975666,
  "version": "1564966095"
}
