{
  "adr_en": "GALAXY, NO.2, PORTION OF G/F & BASEMENT, 80-82 MORRISON HILL ROAD, WAN CHAI, HONG KONG",
  "adr_tc": "\u9999\u6e2f\u7063\u4ed4\u6469\u5229\u81e3\u5c71\u905380-82\u865f\u5730\u4e0b\u90e8\u4efd\u53ca\u5730\u5eab2\u865f\u8216 GALAXY",
  "geocode_en": [
    {
      "address_components": [
        {
          "long_name": "G/F & BASEMENT",
          "short_name": "G/F & BASEMENT",
          "types": [
            "subpremise"
          ]
        },
        {
          "long_name": "Valley Centre",
          "short_name": "Valley Centre",
          "types": [
            "premise"
          ]
        },
        {
          "long_name": "80-82",
          "short_name": "80-82",
          "types": [
            "street_number"
          ]
        },
        {
          "long_name": "Morrison Hill Road",
          "short_name": "Morrison Hill Rd",
          "types": [
            "route"
          ]
        },
        {
          "long_name": "Wan Chai",
          "short_name": "Wan Chai",
          "types": [
            "neighborhood",
            "political"
          ]
        },
        {
          "long_name": "Hong Kong Island",
          "short_name": "Hong Kong Island",
          "types": [
            "administrative_area_level_1",
            "political"
          ]
        },
        {
          "long_name": "Hong Kong",
          "short_name": "HK",
          "types": [
            "country",
            "political"
          ]
        }
      ],
      "formatted_address": "G/F & BASEMENT, Valley Centre, 80-82 Morrison Hill Rd, Wan Chai, Hong Kong",
      "geometry": {
        "bounds": {
          "northeast": {
            "lat": 22.2760129,
            "lng": 114.1801
          },
          "southwest": {
            "lat": 22.2758129,
            "lng": 114.17985
          }
        },
        "location": {
          "lat": 22.2758972,
          "lng": 114.179954
        },
        "location_type": "ROOFTOP",
        "viewport": {
          "northeast": {
            "lat": 22.2772618802915,
            "lng": 114.1813239802915
          },
          "southwest": {
            "lat": 22.2745639197085,
            "lng": 114.1786260197085
          }
        }
      },
      "partial_match": true,
      "place_id": "EkpHL0YgJiBCQVNFTUVOVCwgVmFsbGV5IENlbnRyZSwgODAtODIgTW9ycmlzb24gSGlsbCBSZCwgV2FuIENoYWksIEhvbmcgS29uZyIqGigKFgoUChIJK1BNd1AABDQRzh9eurHF9FYSDkcvRiAmIEJBU0VNRU5U",
      "types": [
        "subpremise"
      ]
    }
  ],
  "geocode_tc": [
    {
      "address_components": [
        {
          "long_name": "\u5730\u4e0b\u90e8\u4efd\u53ca",
          "short_name": "\u5730\u4e0b\u90e8\u4efd\u53ca",
          "types": [
            "subpremise"
          ]
        },
        {
          "long_name": "\u67cf\u9918\u4e2d\u5fc3",
          "short_name": "\u67cf\u9918\u4e2d\u5fc3",
          "types": [
            "premise"
          ]
        },
        {
          "long_name": "80-82",
          "short_name": "80-82",
          "types": [
            "street_number"
          ]
        },
        {
          "long_name": "\u6469\u7406\u81e3\u5c71\u9053",
          "short_name": "\u6469\u7406\u81e3\u5c71\u9053",
          "types": [
            "route"
          ]
        },
        {
          "long_name": "\u7063\u4ed4",
          "short_name": "\u7063\u4ed4",
          "types": [
            "neighborhood",
            "political"
          ]
        },
        {
          "long_name": "\u9999\u6e2f\u5cf6",
          "short_name": "\u9999\u6e2f\u5cf6",
          "types": [
            "administrative_area_level_1",
            "political"
          ]
        },
        {
          "long_name": "\u9999\u6e2f",
          "short_name": "HK",
          "types": [
            "country",
            "political"
          ]
        }
      ],
      "formatted_address": "\u9999\u6e2f\u7063\u4ed4\u6469\u7406\u81e3\u5c71\u905380-82\u865f\u67cf\u9918\u4e2d\u5fc3\u5730\u4e0b\u90e8\u4efd\u53ca",
      "geometry": {
        "bounds": {
          "northeast": {
            "lat": 22.2760129,
            "lng": 114.1801
          },
          "southwest": {
            "lat": 22.2758129,
            "lng": 114.17985
          }
        },
        "location": {
          "lat": 22.2758972,
          "lng": 114.179954
        },
        "location_type": "ROOFTOP",
        "viewport": {
          "northeast": {
            "lat": 22.2772618802915,
            "lng": 114.1813239802915
          },
          "southwest": {
            "lat": 22.2745639197085,
            "lng": 114.1786260197085
          }
        }
      },
      "partial_match": true,
      "place_id": "EkvlnLDkuIvpg6jku73lj4osIFZhbGxleSBDZW50cmUsIDgwLTgyIE1vcnJpc29uIEhpbGwgUmQsIFdhbiBDaGFpLCBIb25nIEtvbmciKxopChYKFAoSCStQTXdQAAQ0Ec4fXrqxxfRWEg_lnLDkuIvpg6jku73lj4o",
      "types": [
        "subpremise"
      ]
    }
  ],
  "licno": "3112229190",
  "timestamp": 1564975666,
  "version": "1564966095"
}
