{
  "adr_en": "\u4e94\u661f\u9910\u5ef3, SHOP 3, G/F, MEI FAI MANSION, 110-116 JAFFE RD, WAN CHAI, HONG KONG",
  "adr_tc": "\u9999\u6e2f\u8b1d\u6590\u9053110-116\u865f\u7f8e\u6689\u5927\u5ec8\u5730\u4e0b3\u865f\u8216 \u4e94\u661f\u9910\u5ef3",
  "geocode_en": [
    {
      "address_components": [
        {
          "long_name": "Hong Kong",
          "short_name": "HK",
          "types": [
            "country",
            "political"
          ]
        }
      ],
      "formatted_address": "Hong Kong, \u7063\u4ed4\u8b1d\u6590\u9053110-116\u865f\u5730\u4e0b",
      "geometry": {
        "location": {
          "lat": 22.278531,
          "lng": 114.172437
        },
        "location_type": "GEOMETRIC_CENTER",
        "viewport": {
          "northeast": {
            "lat": 22.2798799802915,
            "lng": 114.1737859802915
          },
          "southwest": {
            "lat": 22.27718201970849,
            "lng": 114.1710880197085
          }
        }
      },
      "partial_match": true,
      "place_id": "ChIJCz2SaFwABDQRKRa-G_7TbIA",
      "plus_code": {
        "compound_code": "75HC+CX Hong Kong",
        "global_code": "7PJP75HC+CX"
      },
      "types": [
        "establishment",
        "food",
        "point_of_interest",
        "restaurant"
      ]
    }
  ],
  "geocode_tc": [
    {
      "address_components": [
        {
          "long_name": "\u9999\u6e2f",
          "short_name": "HK",
          "types": [
            "country",
            "political"
          ]
        }
      ],
      "formatted_address": "\u9999\u6e2f\u7063\u4ed4\u8b1d\u6590\u9053110-116\u865f\u5730\u4e0b",
      "geometry": {
        "location": {
          "lat": 22.278531,
          "lng": 114.172437
        },
        "location_type": "GEOMETRIC_CENTER",
        "viewport": {
          "northeast": {
            "lat": 22.2798799802915,
            "lng": 114.1737859802915
          },
          "southwest": {
            "lat": 22.27718201970849,
            "lng": 114.1710880197085
          }
        }
      },
      "partial_match": true,
      "place_id": "ChIJCz2SaFwABDQRKRa-G_7TbIA",
      "plus_code": {
        "compound_code": "75HC+CX \u9999\u6e2f",
        "global_code": "7PJP75HC+CX"
      },
      "types": [
        "establishment",
        "food",
        "point_of_interest",
        "restaurant"
      ]
    },
    {
      "address_components": [
        {
          "long_name": "\u865f\u8216",
          "short_name": "\u865f\u8216",
          "types": [
            "subpremise"
          ]
        },
        {
          "long_name": "\u7f8e\u6689\u5927\u5ec8",
          "short_name": "\u7f8e\u6689\u5927\u5ec8",
          "types": [
            "premise"
          ]
        },
        {
          "long_name": "110-116",
          "short_name": "110-116",
          "types": [
            "street_number"
          ]
        },
        {
          "long_name": "\u8b1d\u6590\u9053",
          "short_name": "\u8b1d\u6590\u9053",
          "types": [
            "route"
          ]
        },
        {
          "long_name": "\u7063\u4ed4",
          "short_name": "\u7063\u4ed4",
          "types": [
            "neighborhood",
            "political"
          ]
        },
        {
          "long_name": "\u9999\u6e2f\u5cf6",
          "short_name": "\u9999\u6e2f\u5cf6",
          "types": [
            "administrative_area_level_1",
            "political"
          ]
        },
        {
          "long_name": "\u9999\u6e2f",
          "short_name": "HK",
          "types": [
            "country",
            "political"
          ]
        }
      ],
      "formatted_address": "\u9999\u6e2f\u7063\u4ed4\u8b1d\u6590\u9053110-116\u865f\u7f8e\u6689\u5927\u5ec8\u865f\u8216",
      "geometry": {
        "bounds": {
          "northeast": {
            "lat": 22.278568,
            "lng": 114.172633
          },
          "southwest": {
            "lat": 22.2784079,
            "lng": 114.1724049
          }
        },
        "location": {
          "lat": 22.278488,
          "lng": 114.1724997
        },
        "location_type": "ROOFTOP",
        "viewport": {
          "northeast": {
            "lat": 22.2798369302915,
            "lng": 114.1738679302915
          },
          "southwest": {
            "lat": 22.2771389697085,
            "lng": 114.1711699697085
          }
        }
      },
      "partial_match": true,
      "place_id": "Ej7omZ_oiJYsIE1laSBGYWkgTWFuc2lvbiwgMTEwLTExNiBKYWZmZSBSZCwgV2FuIENoYWksIEhvbmcgS29uZyIiGiAKFgoUChIJP-4FZlwABDQRlrNGCiH0yiQSBuiZn-iIlg",
      "types": [
        "subpremise"
      ]
    }
  ],
  "licno": "2212222252",
  "timestamp": 1564966180,
  "version": "1564966095"
}
