{
  "adr_en": "Savor cake & coffee, G/F, 11 LION ROCK ROAD, KOWLOON CITY, KOWLOON",
  "adr_tc": "\u4e5d\u9f8d\u4e5d\u9f8d\u57ce\u7345\u5b50\u77f3\u905311\u865f\u5730\u4e0b Savor cake & coffee",
  "geocode_en": [
    {
      "address_components": [
        {
          "long_name": "Hong Kong",
          "short_name": "HK",
          "types": [
            "country",
            "political"
          ]
        }
      ],
      "formatted_address": "Hong Kong, \u4e5d\u9f8d\u57ce\u7345\u5b50\u77f3\u905313-15\u865f\u5730\u4e0b",
      "geometry": {
        "location": {
          "lat": 22.3281773,
          "lng": 114.1880996
        },
        "location_type": "GEOMETRIC_CENTER",
        "viewport": {
          "northeast": {
            "lat": 22.3295262802915,
            "lng": 114.1894485802915
          },
          "southwest": {
            "lat": 22.3268283197085,
            "lng": 114.1867506197085
          }
        }
      },
      "partial_match": true,
      "place_id": "ChIJ3cKa09QABDQRMWrFIUYThBM",
      "plus_code": {
        "compound_code": "85HQ+76 Hong Kong",
        "global_code": "7PJP85HQ+76"
      },
      "types": [
        "establishment",
        "food",
        "point_of_interest",
        "restaurant"
      ]
    },
    {
      "address_components": [
        {
          "long_name": "G",
          "short_name": "G",
          "types": [
            "subpremise"
          ]
        },
        {
          "long_name": "11 Lion Rock Road",
          "short_name": "11 Lion Rock Road",
          "types": [
            "premise"
          ]
        },
        {
          "long_name": "11",
          "short_name": "11",
          "types": [
            "street_number"
          ]
        },
        {
          "long_name": "Lion Rock Road",
          "short_name": "Lion Rock Rd",
          "types": [
            "route"
          ]
        },
        {
          "long_name": "Kowloon City",
          "short_name": "Kowloon City",
          "types": [
            "neighborhood",
            "political"
          ]
        },
        {
          "long_name": "Kowloon",
          "short_name": "Kowloon",
          "types": [
            "administrative_area_level_1",
            "political"
          ]
        },
        {
          "long_name": "Hong Kong",
          "short_name": "HK",
          "types": [
            "country",
            "political"
          ]
        }
      ],
      "formatted_address": "G, 11 Lion Rock Road, 11 Lion Rock Rd, Kowloon City, Hong Kong",
      "geometry": {
        "bounds": {
          "northeast": {
            "lat": 22.3281251,
            "lng": 114.18802
          },
          "southwest": {
            "lat": 22.3279641,
            "lng": 114.187876
          }
        },
        "location": {
          "lat": 22.3280417,
          "lng": 114.1879423
        },
        "location_type": "ROOFTOP",
        "viewport": {
          "northeast": {
            "lat": 22.3293935802915,
            "lng": 114.1892969802915
          },
          "southwest": {
            "lat": 22.3266956197085,
            "lng": 114.1865990197085
          }
        }
      },
      "partial_match": true,
      "place_id": "Ej5HLCAxMSBMaW9uIFJvY2sgUm9hZCwgMTEgTGlvbiBSb2NrIFJkLCBLb3dsb29uIENpdHksIEhvbmcgS29uZyIdGhsKFgoUChIJdUKB0dQABDQRSNu0Q2Ecg3MSAUc",
      "types": [
        "subpremise"
      ]
    },
    {
      "address_components": [
        {
          "long_name": "F",
          "short_name": "F",
          "types": [
            "subpremise"
          ]
        },
        {
          "long_name": "11 Lion Rock Road",
          "short_name": "11 Lion Rock Road",
          "types": [
            "premise"
          ]
        },
        {
          "long_name": "11",
          "short_name": "11",
          "types": [
            "street_number"
          ]
        },
        {
          "long_name": "Lion Rock Road",
          "short_name": "Lion Rock Rd",
          "types": [
            "route"
          ]
        },
        {
          "long_name": "Kowloon City",
          "short_name": "Kowloon City",
          "types": [
            "neighborhood",
            "political"
          ]
        },
        {
          "long_name": "Kowloon",
          "short_name": "Kowloon",
          "types": [
            "administrative_area_level_1",
            "political"
          ]
        },
        {
          "long_name": "Hong Kong",
          "short_name": "HK",
          "types": [
            "country",
            "political"
          ]
        }
      ],
      "formatted_address": "F, 11 Lion Rock Road, 11 Lion Rock Rd, Kowloon City, Hong Kong",
      "geometry": {
        "bounds": {
          "northeast": {
            "lat": 22.3281251,
            "lng": 114.18802
          },
          "southwest": {
            "lat": 22.3279641,
            "lng": 114.187876
          }
        },
        "location": {
          "lat": 22.3280417,
          "lng": 114.1879423
        },
        "location_type": "ROOFTOP",
        "viewport": {
          "northeast": {
            "lat": 22.3293935802915,
            "lng": 114.1892969802915
          },
          "southwest": {
            "lat": 22.3266956197085,
            "lng": 114.1865990197085
          }
        }
      },
      "partial_match": true,
      "place_id": "Ej5GLCAxMSBMaW9uIFJvY2sgUm9hZCwgMTEgTGlvbiBSb2NrIFJkLCBLb3dsb29uIENpdHksIEhvbmcgS29uZyIdGhsKFgoUChIJdUKB0dQABDQRSNu0Q2Ecg3MSAUY",
      "types": [
        "subpremise"
      ]
    }
  ],
  "geocode_tc": [
    {
      "address_components": [
        {
          "long_name": "\u9999\u6e2f",
          "short_name": "HK",
          "types": [
            "country",
            "political"
          ]
        }
      ],
      "formatted_address": "\u9999\u6e2f\u4e5d\u9f8d\u57ce\u7345\u5b50\u77f3\u905313-15\u865f\u5730\u4e0b",
      "geometry": {
        "location": {
          "lat": 22.3281773,
          "lng": 114.1880996
        },
        "location_type": "GEOMETRIC_CENTER",
        "viewport": {
          "northeast": {
            "lat": 22.3295262802915,
            "lng": 114.1894485802915
          },
          "southwest": {
            "lat": 22.3268283197085,
            "lng": 114.1867506197085
          }
        }
      },
      "place_id": "ChIJ3cKa09QABDQRMWrFIUYThBM",
      "plus_code": {
        "compound_code": "85HQ+76 \u9999\u6e2f",
        "global_code": "7PJP85HQ+76"
      },
      "types": [
        "establishment",
        "food",
        "point_of_interest",
        "restaurant"
      ]
    }
  ],
  "licno": "2252802733",
  "timestamp": 1564968756,
  "version": "1564966095"
}
