{
  "adr_en": "PIZZA HUT, GROUND FLOOR (PORTION) AND BASEMENT FLOOR, BO YIP BUILDING, 10 PEKING ROAD, TSIM SHA TSUI, KOWLOON",
  "adr_tc": "\u4e5d\u9f8d\u5c16\u6c99\u5480\u5317\u4eac\u905310\u865f\u5bf6\u696d\u5927\u5ec8\u5730\u5eab\u53ca\u5730\u4e0b(\u90e8\u5206) \u5fc5\u52dd\u5ba2",
  "geocode_en": [
    {
      "address_components": [
        {
          "long_name": "Bo Yip Building",
          "short_name": "Bo Yip Building",
          "types": [
            "premise"
          ]
        },
        {
          "long_name": "10",
          "short_name": "10",
          "types": [
            "street_number"
          ]
        },
        {
          "long_name": "Peking Road",
          "short_name": "Peking Rd",
          "types": [
            "route"
          ]
        },
        {
          "long_name": "Tsim Sha Tsui",
          "short_name": "Tsim Sha Tsui",
          "types": [
            "neighborhood",
            "political"
          ]
        },
        {
          "long_name": "Kowloon",
          "short_name": "Kowloon",
          "types": [
            "administrative_area_level_1",
            "political"
          ]
        },
        {
          "long_name": "Hong Kong",
          "short_name": "HK",
          "types": [
            "country",
            "political"
          ]
        }
      ],
      "formatted_address": "Bo Yip Building, 10 Peking Rd, Tsim Sha Tsui, Hong Kong",
      "geometry": {
        "bounds": {
          "northeast": {
            "lat": 22.2966499,
            "lng": 114.1708291
          },
          "southwest": {
            "lat": 22.296379,
            "lng": 114.170668
          }
        },
        "location": {
          "lat": 22.296554,
          "lng": 114.1707348
        },
        "location_type": "ROOFTOP",
        "viewport": {
          "northeast": {
            "lat": 22.2978634302915,
            "lng": 114.1720975302915
          },
          "southwest": {
            "lat": 22.29516546970849,
            "lng": 114.1693995697085
          }
        }
      },
      "partial_match": true,
      "place_id": "ChIJ-7bpYfIABDQRsATGlGS0Rv4",
      "types": [
        "premise"
      ]
    }
  ],
  "geocode_tc": [
    {
      "address_components": [
        {
          "long_name": "\u4e5d\u9f8d",
          "short_name": "\u4e5d\u9f8d",
          "types": [
            "administrative_area_level_1",
            "political"
          ]
        },
        {
          "long_name": "\u9999\u6e2f",
          "short_name": "HK",
          "types": [
            "country",
            "political"
          ]
        }
      ],
      "formatted_address": "\u9999\u6e2f \u5c16\u6c99\u5480\u5317\u4eac\u905310\u865f\u53ca\u4e9e\u58eb\u5398\u90536\u865f\u5bf6\u696d\u5927\u5ec8\u5730\u5eab\u5168\u5c64",
      "geometry": {
        "location": {
          "lat": 22.296554,
          "lng": 114.1707348
        },
        "location_type": "GEOMETRIC_CENTER",
        "viewport": {
          "northeast": {
            "lat": 22.2979029802915,
            "lng": 114.1720837802915
          },
          "southwest": {
            "lat": 22.2952050197085,
            "lng": 114.1693858197085
          }
        }
      },
      "place_id": "ChIJT8_LYfIABDQRgaEwAcBVzQI",
      "plus_code": {
        "compound_code": "75WC+J7 \u9999\u6e2f",
        "global_code": "7PJP75WC+J7"
      },
      "types": [
        "establishment",
        "food",
        "point_of_interest",
        "restaurant"
      ]
    }
  ],
  "licno": "2261809572",
  "timestamp": 1564968756,
  "version": "1564966095"
}
