{
  "adr_en": "\u8aa0\u4fe1\u8336\u9910\u5ef3, G/F., NO. 204 YAU MA HOM ROAD, KWAI CHUNG, TSUEN WAN, NEW TERRITORIES",
  "adr_tc": "\u65b0\u754c\u8475\u6d8c\u6cb9\u9ebb\u78e1\u8def204\u865f\u5730\u4e0b \u8aa0\u4fe1\u8336\u9910\u5ef3",
  "geocode_en": [
    {
      "address_components": [
        {
          "long_name": "Hong Kong",
          "short_name": "HK",
          "types": [
            "country",
            "political"
          ]
        }
      ],
      "formatted_address": "Hong Kong, \u8475\u6d8c\u6cb9\u9ebb\u78e1\u8def206\u865f\u5730\u4e0b",
      "geometry": {
        "location": {
          "lat": 22.3717872,
          "lng": 114.1328575
        },
        "location_type": "GEOMETRIC_CENTER",
        "viewport": {
          "northeast": {
            "lat": 22.3731361802915,
            "lng": 114.1342064802915
          },
          "southwest": {
            "lat": 22.3704382197085,
            "lng": 114.1315085197085
          }
        }
      },
      "partial_match": true,
      "place_id": "ChIJbycyQ4X4AzQROR3Z3zsMIBc",
      "plus_code": {
        "compound_code": "94CM+P4 Hong Kong",
        "global_code": "7PJP94CM+P4"
      },
      "types": [
        "establishment",
        "food",
        "point_of_interest",
        "restaurant"
      ]
    },
    {
      "address_components": [
        {
          "long_name": "G/F., NO",
          "short_name": "G/F., NO",
          "types": [
            "subpremise"
          ]
        },
        {
          "long_name": "204",
          "short_name": "204",
          "types": [
            "street_number"
          ]
        },
        {
          "long_name": "Yau Ma Hom Road",
          "short_name": "Yau Ma Hom Rd",
          "types": [
            "route"
          ]
        },
        {
          "long_name": "Kwai Chung",
          "short_name": "Kwai Chung",
          "types": [
            "neighborhood",
            "political"
          ]
        },
        {
          "long_name": "New Territories",
          "short_name": "New Territories",
          "types": [
            "administrative_area_level_1",
            "political"
          ]
        },
        {
          "long_name": "Hong Kong",
          "short_name": "HK",
          "types": [
            "country",
            "political"
          ]
        }
      ],
      "formatted_address": "G/F., NO, 204 Yau Ma Hom Rd, Kwai Chung, Hong Kong",
      "geometry": {
        "location": {
          "lat": 22.3714453,
          "lng": 114.1338384
        },
        "location_type": "RANGE_INTERPOLATED",
        "viewport": {
          "northeast": {
            "lat": 22.3727942802915,
            "lng": 114.1351873802915
          },
          "southwest": {
            "lat": 22.3700963197085,
            "lng": 114.1324894197085
          }
        }
      },
      "partial_match": true,
      "place_id": "EjJHL0YuLCBOTywgMjA0IFlhdSBNYSBIb20gUmQsIEt3YWkgQ2h1bmcsIEhvbmcgS29uZyIpGicKGxIZChQKEglXPeM4hfgDNBH7KRiBcgEJPxDMARIIRy9GLiwgTk8",
      "types": [
        "subpremise"
      ]
    }
  ],
  "geocode_tc": [
    {
      "address_components": [
        {
          "long_name": "\u9999\u6e2f",
          "short_name": "HK",
          "types": [
            "country",
            "political"
          ]
        }
      ],
      "formatted_address": "\u9999\u6e2f\u8475\u6d8c\u6cb9\u9ebb\u78e1\u8def206\u865f\u5730\u4e0b",
      "geometry": {
        "location": {
          "lat": 22.3717872,
          "lng": 114.1328575
        },
        "location_type": "GEOMETRIC_CENTER",
        "viewport": {
          "northeast": {
            "lat": 22.3731361802915,
            "lng": 114.1342064802915
          },
          "southwest": {
            "lat": 22.3704382197085,
            "lng": 114.1315085197085
          }
        }
      },
      "place_id": "ChIJbycyQ4X4AzQROR3Z3zsMIBc",
      "plus_code": {
        "compound_code": "94CM+P4 \u9999\u6e2f",
        "global_code": "7PJP94CM+P4"
      },
      "types": [
        "establishment",
        "food",
        "point_of_interest",
        "restaurant"
      ]
    }
  ],
  "licno": "3192000212",
  "timestamp": 1564975666,
  "version": "1564966095"
}
