{
  "adr_en": "Cafe de Coral, SHOP NO. 2, GROUND FLOOR, COMMERCIAL BLOCK 2, TAI HING ESTATE, 1 TAI HING STREET, TUEN MUN, NEW TERRITORIES",
  "adr_tc": "\u65b0\u754c\u5c6f\u9580\u5927\u8208\u90a8\u5927\u8208\u88571\u865f\u5927\u8208\u5546\u5834\u5730\u4e0b2\u865f\u92ea \u5927\u5bb6\u6a02",
  "geocode_en": [
    {
      "address_components": [
        {
          "long_name": "Tai Fong Street",
          "short_name": "Tai Fong St",
          "types": [
            "route"
          ]
        },
        {
          "long_name": "Tuen Mun",
          "short_name": "Tuen Mun",
          "types": [
            "neighborhood",
            "political"
          ]
        },
        {
          "long_name": "New Territories",
          "short_name": "New Territories",
          "types": [
            "administrative_area_level_1",
            "political"
          ]
        },
        {
          "long_name": "Hong Kong",
          "short_name": "HK",
          "types": [
            "country",
            "political"
          ]
        }
      ],
      "formatted_address": "Tai Fong St, Tuen Mun, Hong Kong",
      "geometry": {
        "location": {
          "lat": 22.4035463,
          "lng": 113.9704007
        },
        "location_type": "GEOMETRIC_CENTER",
        "viewport": {
          "northeast": {
            "lat": 22.4048952802915,
            "lng": 113.9717496802915
          },
          "southwest": {
            "lat": 22.4021973197085,
            "lng": 113.9690517197085
          }
        }
      },
      "partial_match": true,
      "place_id": "ChIJWRJUMSH7AzQRrbqv5SUQ8lI",
      "plus_code": {
        "compound_code": "CX3C+C5 Hong Kong",
        "global_code": "7PJMCX3C+C5"
      },
      "types": [
        "establishment",
        "point_of_interest"
      ]
    },
    {
      "address_components": [
        {
          "long_name": "Tai Hing Commercial Complex",
          "short_name": "Tai Hing Commercial Complex",
          "types": [
            "premise"
          ]
        },
        {
          "long_name": "1",
          "short_name": "1",
          "types": [
            "street_number"
          ]
        },
        {
          "long_name": "Tai Hing Street",
          "short_name": "Tai Hing St",
          "types": [
            "route"
          ]
        },
        {
          "long_name": "Tuen Mun",
          "short_name": "Tuen Mun",
          "types": [
            "neighborhood",
            "political"
          ]
        },
        {
          "long_name": "New Territories",
          "short_name": "New Territories",
          "types": [
            "administrative_area_level_1",
            "political"
          ]
        },
        {
          "long_name": "Hong Kong",
          "short_name": "HK",
          "types": [
            "country",
            "political"
          ]
        }
      ],
      "formatted_address": "Tai Hing Commercial Complex, 1 Tai Hing St, Tuen Mun, Hong Kong",
      "geometry": {
        "bounds": {
          "northeast": {
            "lat": 22.4036093,
            "lng": 113.9715832
          },
          "southwest": {
            "lat": 22.401742,
            "lng": 113.9698237
          }
        },
        "location": {
          "lat": 22.4026547,
          "lng": 113.9704672
        },
        "location_type": "ROOFTOP",
        "viewport": {
          "northeast": {
            "lat": 22.4040246302915,
            "lng": 113.9720524302915
          },
          "southwest": {
            "lat": 22.4013266697085,
            "lng": 113.9693544697085
          }
        }
      },
      "partial_match": true,
      "place_id": "ChIJ8ailuyb7AzQRru7UtpuS6rM",
      "types": [
        "premise"
      ]
    }
  ],
  "geocode_tc": [
    {
      "address_components": [
        {
          "long_name": "New Territories",
          "short_name": "New Territories",
          "types": [
            "administrative_area_level_1",
            "political"
          ]
        },
        {
          "long_name": "\u9999\u6e2f",
          "short_name": "HK",
          "types": [
            "country",
            "political"
          ]
        }
      ],
      "formatted_address": "\u65b0\u754c\u5c6f\u9580\u5927\u8208\u88571\u865f\u5927\u8208\u5546\u5834\u5730\u4e0bL101\u865f\u8216, \u9999\u6e2f",
      "geometry": {
        "location": {
          "lat": 22.403272,
          "lng": 113.9713006
        },
        "location_type": "GEOMETRIC_CENTER",
        "viewport": {
          "northeast": {
            "lat": 22.4046209802915,
            "lng": 113.9726495802915
          },
          "southwest": {
            "lat": 22.4019230197085,
            "lng": 113.9699516197085
          }
        }
      },
      "place_id": "ChIJNSqKyyb7AzQRUXIs9PqA8Qo",
      "plus_code": {
        "compound_code": "CX3C+8G \u9999\u6e2f",
        "global_code": "7PJMCX3C+8G"
      },
      "types": [
        "establishment",
        "food",
        "point_of_interest",
        "restaurant"
      ]
    }
  ],
  "licno": "2293802617",
  "timestamp": 1564968756,
  "version": "1564966095"
}
