{
  "adr_en": "HOKKAIDO KITCHEN, SHOP 1B6-1B7, G/F, RICHLAND GARDEN, 138 WU CHUI ROAD, TUEN MUN, NEW TERRITORIES",
  "adr_tc": "\u65b0\u754c\u5c6f\u9580\u6e56\u7fe0\u8def138\u865f\u555f\u8c50\u5712\u5730\u4e0b\u7b2c1B6-1B7\u865f\u8216 \u5317\u6d77\u9053",
  "geocode_en": [
    {
      "address_components": [
        {
          "long_name": "Tuen Mun",
          "short_name": "Tuen Mun",
          "types": [
            "neighborhood",
            "political"
          ]
        },
        {
          "long_name": "New Territories",
          "short_name": "New Territories",
          "types": [
            "administrative_area_level_1",
            "political"
          ]
        },
        {
          "long_name": "Hong Kong",
          "short_name": "HK",
          "types": [
            "country",
            "political"
          ]
        }
      ],
      "formatted_address": "Hong Kong, Tuen Mun, \u6e56\u7fe0\u8def50\u865f \u5553\u8c50\u5546\u57f8 G1B6-7\u865f",
      "geometry": {
        "location": {
          "lat": 22.373078,
          "lng": 113.963772
        },
        "location_type": "GEOMETRIC_CENTER",
        "viewport": {
          "northeast": {
            "lat": 22.3744269802915,
            "lng": 113.9651209802915
          },
          "southwest": {
            "lat": 22.3717290197085,
            "lng": 113.9624230197085
          }
        }
      },
      "partial_match": true,
      "place_id": "ChIJLzxeQVD7AzQRKIy8SEaOe_Q",
      "plus_code": {
        "compound_code": "9XF7+6G Tuen Mun, Hong Kong",
        "global_code": "7PJM9XF7+6G"
      },
      "types": [
        "establishment",
        "food",
        "point_of_interest",
        "restaurant"
      ]
    },
    {
      "address_components": [
        {
          "long_name": "138",
          "short_name": "138",
          "types": [
            "street_number"
          ]
        },
        {
          "long_name": "Wu Chui Road",
          "short_name": "Wu Chui Rd",
          "types": [
            "route"
          ]
        },
        {
          "long_name": "Tuen Mun",
          "short_name": "Tuen Mun",
          "types": [
            "neighborhood",
            "political"
          ]
        },
        {
          "long_name": "New Territories",
          "short_name": "New Territories",
          "types": [
            "administrative_area_level_1",
            "political"
          ]
        },
        {
          "long_name": "Hong Kong",
          "short_name": "HK",
          "types": [
            "country",
            "political"
          ]
        }
      ],
      "formatted_address": "138 Wu Chui Rd, Tuen Mun, Hong Kong",
      "geometry": {
        "location": {
          "lat": 22.372914,
          "lng": 113.96431
        },
        "location_type": "ROOFTOP",
        "viewport": {
          "northeast": {
            "lat": 22.3742629802915,
            "lng": 113.9656589802915
          },
          "southwest": {
            "lat": 22.37156501970849,
            "lng": 113.9629610197085
          }
        }
      },
      "partial_match": true,
      "place_id": "ChIJe6tuaVD7AzQRtpBNfnhQLBY",
      "plus_code": {
        "compound_code": "9XF7+5P Hong Kong",
        "global_code": "7PJM9XF7+5P"
      },
      "types": [
        "establishment",
        "parking",
        "point_of_interest"
      ]
    }
  ],
  "geocode_tc": [
    {
      "address_components": [
        {
          "long_name": "\u555f\u8c50\u57121\u5ea7",
          "short_name": "\u555f\u8c50\u57121\u5ea7",
          "types": [
            "premise"
          ]
        },
        {
          "long_name": "\u6e56\u7fe0\u8def",
          "short_name": "\u6e56\u7fe0\u8def",
          "types": [
            "route"
          ]
        },
        {
          "long_name": "\u5c6f\u9580",
          "short_name": "\u5c6f\u9580",
          "types": [
            "neighborhood",
            "political"
          ]
        },
        {
          "long_name": "\u65b0\u754c",
          "short_name": "\u65b0\u754c",
          "types": [
            "administrative_area_level_1",
            "political"
          ]
        },
        {
          "long_name": "\u9999\u6e2f",
          "short_name": "HK",
          "types": [
            "country",
            "political"
          ]
        }
      ],
      "formatted_address": "\u9999\u6e2f\u5c6f\u9580\u6e56\u7fe0\u8def\u555f\u8c50\u57121\u5ea7",
      "geometry": {
        "location": {
          "lat": 22.3731447,
          "lng": 113.9638802
        },
        "location_type": "ROOFTOP",
        "viewport": {
          "northeast": {
            "lat": 22.3744936802915,
            "lng": 113.9652291802915
          },
          "southwest": {
            "lat": 22.37179571970849,
            "lng": 113.9625312197085
          }
        }
      },
      "partial_match": true,
      "place_id": "ChIJXf6gQVD7AzQR1mdPxFpNbHs",
      "plus_code": {
        "compound_code": "9XF7+7H \u9999\u6e2f",
        "global_code": "7PJM9XF7+7H"
      },
      "types": [
        "establishment",
        "point_of_interest"
      ]
    },
    {
      "address_components": [
        {
          "long_name": "\u5317\u6d77\u9053",
          "short_name": "\u5317\u6d77\u9053",
          "types": [
            "administrative_area_level_1",
            "establishment",
            "natural_feature",
            "political"
          ]
        },
        {
          "long_name": "\u65e5\u672c",
          "short_name": "JP",
          "types": [
            "country",
            "political"
          ]
        }
      ],
      "formatted_address": "\u65e5\u672c\u5317\u6d77\u9053",
      "geometry": {
        "bounds": {
          "northeast": {
            "lat": 45.5265181,
            "lng": 146.1100442
          },
          "southwest": {
            "lat": 41.3516002,
            "lng": 139.3340799
          }
        },
        "location": {
          "lat": 43.2203266,
          "lng": 142.8634737
        },
        "location_type": "APPROXIMATE",
        "viewport": {
          "northeast": {
            "lat": 45.5265181,
            "lng": 146.1100442
          },
          "southwest": {
            "lat": 41.3516002,
            "lng": 139.3340799
          }
        }
      },
      "partial_match": true,
      "place_id": "ChIJi4hsnyBZn18RjwPOT1bDPBw",
      "types": [
        "administrative_area_level_1",
        "establishment",
        "natural_feature",
        "political"
      ]
    }
  ],
  "licno": "3193000769",
  "timestamp": 1564975666,
  "version": "1564966095"
}
