{
  "adr_en": "Itacho Sushi, SHOP C & D, G/F., SUN ON BUILDING, NOS. 484-496 QUEEN'S ROAD WEST, NOS. 17-25 HILL ROAD, HONG KONG",
  "adr_tc": "\u9999\u6e2f\u5c71\u905317-25\u865f\u7687\u540e\u5927\u9053\u897f484-496\u865f \u65b0\u5b89\u5927\u6a13\u5730\u4e0bC\u53caD\u8216 \u677f\u9577\u58fd\u53f8",
  "geocode_en": [
    {
      "address_components": [
        {
          "long_name": "Sun On Building",
          "short_name": "Sun On Building",
          "types": [
            "premise"
          ]
        },
        {
          "long_name": "484-496",
          "short_name": "484-496",
          "types": [
            "street_number"
          ]
        },
        {
          "long_name": "Queen's Road West",
          "short_name": "Queen's Rd W",
          "types": [
            "route"
          ]
        },
        {
          "long_name": "Sai Wan",
          "short_name": "Sai Wan",
          "types": [
            "neighborhood",
            "political"
          ]
        },
        {
          "long_name": "Hong Kong Island",
          "short_name": "Hong Kong Island",
          "types": [
            "administrative_area_level_1",
            "political"
          ]
        },
        {
          "long_name": "Hong Kong",
          "short_name": "HK",
          "types": [
            "country",
            "political"
          ]
        }
      ],
      "formatted_address": "Sun On Building, 484-496 Queen's Rd W, Sai Wan, Hong Kong",
      "geometry": {
        "bounds": {
          "northeast": {
            "lat": 22.285951,
            "lng": 114.1356371
          },
          "southwest": {
            "lat": 22.2856419,
            "lng": 114.135303
          }
        },
        "location": {
          "lat": 22.2858022,
          "lng": 114.1354354
        },
        "location_type": "ROOFTOP",
        "viewport": {
          "northeast": {
            "lat": 22.28714543029151,
            "lng": 114.1368190302915
          },
          "southwest": {
            "lat": 22.2844474697085,
            "lng": 114.1341210697085
          }
        }
      },
      "partial_match": true,
      "place_id": "ChIJE4BIe4T_AzQRcsAGRh4AO7Y",
      "types": [
        "premise"
      ]
    },
    {
      "address_components": [
        {
          "long_name": "17-25",
          "short_name": "17-25",
          "types": [
            "street_number"
          ]
        },
        {
          "long_name": "Hill Road",
          "short_name": "Hill Rd",
          "types": [
            "route"
          ]
        },
        {
          "long_name": "Shek Tong Tsui",
          "short_name": "Shek Tong Tsui",
          "types": [
            "neighborhood",
            "political"
          ]
        },
        {
          "long_name": "Hong Kong Island",
          "short_name": "Hong Kong Island",
          "types": [
            "administrative_area_level_1",
            "political"
          ]
        },
        {
          "long_name": "Hong Kong",
          "short_name": "HK",
          "types": [
            "country",
            "political"
          ]
        }
      ],
      "formatted_address": "17-25 Hill Rd, Shek Tong Tsui, Hong Kong",
      "geometry": {
        "location": {
          "lat": 22.2858022,
          "lng": 114.1354354
        },
        "location_type": "ROOFTOP",
        "viewport": {
          "northeast": {
            "lat": 22.2871511802915,
            "lng": 114.1367843802915
          },
          "southwest": {
            "lat": 22.2844532197085,
            "lng": 114.1340864197085
          }
        }
      },
      "partial_match": true,
      "place_id": "ChIJE4BIe4T_AzQRzon37z6z1Yg",
      "plus_code": {
        "compound_code": "74PP+85 Hong Kong",
        "global_code": "7PJP74PP+85"
      },
      "types": [
        "street_address"
      ]
    }
  ],
  "geocode_tc": [
    {
      "address_components": [
        {
          "long_name": "\u65b0\u5b89\u5927\u6a13",
          "short_name": "\u65b0\u5b89\u5927\u6a13",
          "types": [
            "premise"
          ]
        },
        {
          "long_name": "484-496",
          "short_name": "484-496",
          "types": [
            "street_number"
          ]
        },
        {
          "long_name": "\u7687\u540e\u5927\u9053\u897f",
          "short_name": "\u7687\u540e\u5927\u9053\u897f",
          "types": [
            "route"
          ]
        },
        {
          "long_name": "\u897f\u74b0",
          "short_name": "\u897f\u74b0",
          "types": [
            "neighborhood",
            "political"
          ]
        },
        {
          "long_name": "\u9999\u6e2f\u5cf6",
          "short_name": "\u9999\u6e2f\u5cf6",
          "types": [
            "administrative_area_level_1",
            "political"
          ]
        },
        {
          "long_name": "\u9999\u6e2f",
          "short_name": "HK",
          "types": [
            "country",
            "political"
          ]
        }
      ],
      "formatted_address": "\u9999\u6e2f\u897f\u74b0\u7687\u540e\u5927\u9053\u897f484-496\u865f\u65b0\u5b89\u5927\u6a13",
      "geometry": {
        "bounds": {
          "northeast": {
            "lat": 22.285951,
            "lng": 114.1356371
          },
          "southwest": {
            "lat": 22.2856419,
            "lng": 114.135303
          }
        },
        "location": {
          "lat": 22.2858022,
          "lng": 114.1354354
        },
        "location_type": "ROOFTOP",
        "viewport": {
          "northeast": {
            "lat": 22.28714543029151,
            "lng": 114.1368190302915
          },
          "southwest": {
            "lat": 22.2844474697085,
            "lng": 114.1341210697085
          }
        }
      },
      "partial_match": true,
      "place_id": "ChIJE4BIe4T_AzQRcsAGRh4AO7Y",
      "types": [
        "premise"
      ]
    }
  ],
  "licno": "2218808430",
  "timestamp": 1564968756,
  "version": "1564966095"
}
