{
  "adr_en": "\u5085\u8a18\u98ef\u5e97, G/F, NO 57 SHAM TSENG VILLAGE AND THE OUTSIDE SEATING ACCOMMODATION AT SHOP FRONT, TSUEN WAN, NEW TERRITORIES",
  "adr_tc": "\u65b0\u754c\u8343\u7063\u6df1\u4e95\u675157\u865f\u5730\u4e0b\u53ca\u5e97\u8216\u524d\u7684\u9732\u5929\u5ea7\u4f4d \u5085\u8a18\u98ef\u5e97",
  "geocode_en": [
    {
      "address_components": [
        {
          "long_name": "13\u865f",
          "short_name": "13\u865f",
          "types": [
            "street_number"
          ]
        },
        {
          "long_name": "Sham Hong Road",
          "short_name": "Sham Hong Rd",
          "types": [
            "route"
          ]
        },
        {
          "long_name": "Sham Tseng",
          "short_name": "Sham Tseng",
          "types": [
            "neighborhood",
            "political"
          ]
        },
        {
          "long_name": "New Territories",
          "short_name": "New Territories",
          "types": [
            "administrative_area_level_1",
            "political"
          ]
        },
        {
          "long_name": "Hong Kong",
          "short_name": "HK",
          "types": [
            "country",
            "political"
          ]
        }
      ],
      "formatted_address": "13\u865f Sham Hong Rd, Sham Tseng, Hong Kong",
      "geometry": {
        "location": {
          "lat": 22.3681088,
          "lng": 114.0598276
        },
        "location_type": "ROOFTOP",
        "viewport": {
          "northeast": {
            "lat": 22.3694577802915,
            "lng": 114.0611765802915
          },
          "southwest": {
            "lat": 22.3667598197085,
            "lng": 114.0584786197085
          }
        }
      },
      "partial_match": true,
      "place_id": "ChIJ20lFPF35AzQR8fk3vHACehI",
      "plus_code": {
        "compound_code": "9395+6W Hong Kong",
        "global_code": "7PJP9395+6W"
      },
      "types": [
        "establishment",
        "food",
        "point_of_interest",
        "restaurant"
      ]
    },
    {
      "address_components": [
        {
          "long_name": "Tsuen Wan",
          "short_name": "Tsuen Wan",
          "types": [
            "neighborhood",
            "political"
          ]
        },
        {
          "long_name": "New Territories",
          "short_name": "New Territories",
          "types": [
            "administrative_area_level_1",
            "political"
          ]
        },
        {
          "long_name": "Hong Kong",
          "short_name": "HK",
          "types": [
            "country",
            "political"
          ]
        }
      ],
      "formatted_address": "Tsuen Wan, Hong Kong",
      "geometry": {
        "bounds": {
          "northeast": {
            "lat": 22.3865131,
            "lng": 114.12351
          },
          "southwest": {
            "lat": 22.354937,
            "lng": 114.083911
          }
        },
        "location": {
          "lat": 22.3699122,
          "lng": 114.1144306
        },
        "location_type": "APPROXIMATE",
        "viewport": {
          "northeast": {
            "lat": 22.3865131,
            "lng": 114.12351
          },
          "southwest": {
            "lat": 22.354937,
            "lng": 114.083911
          }
        }
      },
      "partial_match": true,
      "place_id": "ChIJmXQjje74AzQRsINigpbDAAo",
      "types": [
        "neighborhood",
        "political"
      ]
    }
  ],
  "geocode_tc": [
    {
      "address_components": [
        {
          "long_name": "13\u865f",
          "short_name": "13\u865f",
          "types": [
            "street_number"
          ]
        },
        {
          "long_name": "\u6df1\u5eb7\u8def",
          "short_name": "\u6df1\u5eb7\u8def",
          "types": [
            "route"
          ]
        },
        {
          "long_name": "\u6df1\u4e95",
          "short_name": "\u6df1\u4e95",
          "types": [
            "neighborhood",
            "political"
          ]
        },
        {
          "long_name": "\u65b0\u754c",
          "short_name": "\u65b0\u754c",
          "types": [
            "administrative_area_level_1",
            "political"
          ]
        },
        {
          "long_name": "\u9999\u6e2f",
          "short_name": "HK",
          "types": [
            "country",
            "political"
          ]
        }
      ],
      "formatted_address": "\u9999\u6e2f\u6df1\u4e95\u6df1\u5eb7\u8def13\u865f",
      "geometry": {
        "location": {
          "lat": 22.3681088,
          "lng": 114.0598276
        },
        "location_type": "ROOFTOP",
        "viewport": {
          "northeast": {
            "lat": 22.3694577802915,
            "lng": 114.0611765802915
          },
          "southwest": {
            "lat": 22.3667598197085,
            "lng": 114.0584786197085
          }
        }
      },
      "place_id": "ChIJ20lFPF35AzQR8fk3vHACehI",
      "plus_code": {
        "compound_code": "9395+6W \u9999\u6e2f",
        "global_code": "7PJP9395+6W"
      },
      "types": [
        "establishment",
        "food",
        "point_of_interest",
        "restaurant"
      ]
    }
  ],
  "licno": "3192000966",
  "timestamp": 1564975666,
  "version": "1564966095"
}
