{
  "adr_en": "Club Crossroad, SHOP 5, G/F, 117 LOCKHART RD., WAN CHAI, HONG KONG",
  "adr_tc": "\u9999\u6e2f\u99f1\u514b\u9053117\u865f\u5730\u4e0b5\u865f\u8216 Club Crossroad",
  "geocode_en": [
    {
      "address_components": [
        {
          "long_name": "Wan Chai",
          "short_name": "Wan Chai",
          "types": [
            "neighborhood",
            "political"
          ]
        },
        {
          "long_name": "Hong Kong Island",
          "short_name": "Hong Kong Island",
          "types": [
            "administrative_area_level_1",
            "political"
          ]
        },
        {
          "long_name": "Hong Kong",
          "short_name": "HK",
          "types": [
            "country",
            "political"
          ]
        }
      ],
      "formatted_address": "Wan Chai, Hong Kong",
      "geometry": {
        "location": {
          "lat": 22.278256,
          "lng": 114.172587
        },
        "location_type": "GEOMETRIC_CENTER",
        "viewport": {
          "northeast": {
            "lat": 22.2796049802915,
            "lng": 114.1739359802915
          },
          "southwest": {
            "lat": 22.2769070197085,
            "lng": 114.1712380197085
          }
        }
      },
      "partial_match": true,
      "place_id": "ChIJuwoYZFwABDQRZrcinOwI9IU",
      "plus_code": {
        "compound_code": "75HF+82 Hong Kong",
        "global_code": "7PJP75HF+82"
      },
      "types": [
        "bar",
        "establishment",
        "point_of_interest"
      ]
    },
    {
      "address_components": [
        {
          "long_name": "G",
          "short_name": "G",
          "types": [
            "subpremise"
          ]
        },
        {
          "long_name": "Hing Bong Mansion",
          "short_name": "Hing Bong Mansion",
          "types": [
            "premise"
          ]
        },
        {
          "long_name": "117",
          "short_name": "117",
          "types": [
            "street_number"
          ]
        },
        {
          "long_name": "Lockhart Road",
          "short_name": "Lockhart Rd",
          "types": [
            "route"
          ]
        },
        {
          "long_name": "Wan Chai",
          "short_name": "Wan Chai",
          "types": [
            "neighborhood",
            "political"
          ]
        },
        {
          "long_name": "Hong Kong Island",
          "short_name": "Hong Kong Island",
          "types": [
            "administrative_area_level_1",
            "political"
          ]
        },
        {
          "long_name": "Hong Kong",
          "short_name": "HK",
          "types": [
            "country",
            "political"
          ]
        }
      ],
      "formatted_address": "G, Hing Bong Mansion, 117 Lockhart Rd, Wan Chai, Hong Kong",
      "geometry": {
        "bounds": {
          "northeast": {
            "lat": 22.2783561,
            "lng": 114.172652
          },
          "southwest": {
            "lat": 22.2782209,
            "lng": 114.172414
          }
        },
        "location": {
          "lat": 22.2782881,
          "lng": 114.1725229
        },
        "location_type": "ROOFTOP",
        "viewport": {
          "northeast": {
            "lat": 22.2796374802915,
            "lng": 114.1738819802915
          },
          "southwest": {
            "lat": 22.2769395197085,
            "lng": 114.1711840197085
          }
        }
      },
      "partial_match": true,
      "place_id": "EjpHLCBIaW5nIEJvbmcgTWFuc2lvbiwgMTE3IExvY2toYXJ0IFJkLCBXYW4gQ2hhaSwgSG9uZyBLb25nIh0aGwoWChQKEgmFLpxmXAAENBGgxxUoZ0FooxIBRw",
      "types": [
        "subpremise"
      ]
    },
    {
      "address_components": [
        {
          "long_name": "F",
          "short_name": "F",
          "types": [
            "subpremise"
          ]
        },
        {
          "long_name": "Hing Bong Mansion",
          "short_name": "Hing Bong Mansion",
          "types": [
            "premise"
          ]
        },
        {
          "long_name": "117",
          "short_name": "117",
          "types": [
            "street_number"
          ]
        },
        {
          "long_name": "Lockhart Road",
          "short_name": "Lockhart Rd",
          "types": [
            "route"
          ]
        },
        {
          "long_name": "Wan Chai",
          "short_name": "Wan Chai",
          "types": [
            "neighborhood",
            "political"
          ]
        },
        {
          "long_name": "Hong Kong Island",
          "short_name": "Hong Kong Island",
          "types": [
            "administrative_area_level_1",
            "political"
          ]
        },
        {
          "long_name": "Hong Kong",
          "short_name": "HK",
          "types": [
            "country",
            "political"
          ]
        }
      ],
      "formatted_address": "F, Hing Bong Mansion, 117 Lockhart Rd, Wan Chai, Hong Kong",
      "geometry": {
        "bounds": {
          "northeast": {
            "lat": 22.2783561,
            "lng": 114.172652
          },
          "southwest": {
            "lat": 22.2782209,
            "lng": 114.172414
          }
        },
        "location": {
          "lat": 22.2782881,
          "lng": 114.1725229
        },
        "location_type": "ROOFTOP",
        "viewport": {
          "northeast": {
            "lat": 22.2796374802915,
            "lng": 114.1738819802915
          },
          "southwest": {
            "lat": 22.2769395197085,
            "lng": 114.1711840197085
          }
        }
      },
      "partial_match": true,
      "place_id": "EjpGLCBIaW5nIEJvbmcgTWFuc2lvbiwgMTE3IExvY2toYXJ0IFJkLCBXYW4gQ2hhaSwgSG9uZyBLb25nIh0aGwoWChQKEgmFLpxmXAAENBGgxxUoZ0FooxIBRg",
      "types": [
        "subpremise"
      ]
    }
  ],
  "geocode_tc": [
    {
      "address_components": [
        {
          "long_name": "\u5730\u4e0b5\u865f\u8216",
          "short_name": "\u5730\u4e0b5\u865f\u8216",
          "types": [
            "subpremise"
          ]
        },
        {
          "long_name": "\u8208\u90a6\u5927\u5ec8",
          "short_name": "\u8208\u90a6\u5927\u5ec8",
          "types": [
            "premise"
          ]
        },
        {
          "long_name": "117",
          "short_name": "117",
          "types": [
            "street_number"
          ]
        },
        {
          "long_name": "\u99f1\u514b\u9053",
          "short_name": "\u99f1\u514b\u9053",
          "types": [
            "route"
          ]
        },
        {
          "long_name": "\u7063\u4ed4",
          "short_name": "\u7063\u4ed4",
          "types": [
            "neighborhood",
            "political"
          ]
        },
        {
          "long_name": "\u9999\u6e2f\u5cf6",
          "short_name": "\u9999\u6e2f\u5cf6",
          "types": [
            "administrative_area_level_1",
            "political"
          ]
        },
        {
          "long_name": "\u9999\u6e2f",
          "short_name": "HK",
          "types": [
            "country",
            "political"
          ]
        }
      ],
      "formatted_address": "\u9999\u6e2f\u7063\u4ed4\u99f1\u514b\u9053117\u865f\u8208\u90a6\u5927\u5ec8\u5730\u4e0b5\u865f\u8216",
      "geometry": {
        "bounds": {
          "northeast": {
            "lat": 22.2783561,
            "lng": 114.172652
          },
          "southwest": {
            "lat": 22.2782209,
            "lng": 114.172414
          }
        },
        "location": {
          "lat": 22.2782881,
          "lng": 114.1725229
        },
        "location_type": "ROOFTOP",
        "viewport": {
          "northeast": {
            "lat": 22.2796374802915,
            "lng": 114.1738819802915
          },
          "southwest": {
            "lat": 22.2769395197085,
            "lng": 114.1711840197085
          }
        }
      },
      "partial_match": true,
      "place_id": "EkblnLDkuIs16Jmf6IiWLCBIaW5nIEJvbmcgTWFuc2lvbiwgMTE3IExvY2toYXJ0IFJkLCBXYW4gQ2hhaSwgSG9uZyBLb25nIikaJwoWChQKEgmFLpxmXAAENBGgxxUoZ0FooxIN5Zyw5LiLNeiZn-iIlg",
      "types": [
        "subpremise"
      ]
    }
  ],
  "licno": "3112203765",
  "timestamp": 1564975666,
  "version": "1564966095"
}
