{
  "adr_en": "\u5927\u96f2\u541e, SHOP 3, G/F, KAM LONG BUILIDNG, 41-59 TAI TONG ROAD, YUEN LONG, NEW TERRITORIES",
  "adr_tc": "\u65b0\u754c\u5143\u6717\u5927\u68e0\u8def41-59\u865f\u91d1\u6717\u5927\u5ec8\u5730\u4e0b3\u865f\u92ea \u5927\u96f2\u541e",
  "geocode_en": [
    {
      "address_components": [
        {
          "long_name": "\u5927\u96f2\u541e, SHOP",
          "short_name": "\u5927\u96f2\u541e, SHOP",
          "types": [
            "subpremise"
          ]
        },
        {
          "long_name": "Kam Long Building",
          "short_name": "Kam Long Building",
          "types": [
            "premise"
          ]
        },
        {
          "long_name": "41-59",
          "short_name": "41-59",
          "types": [
            "street_number"
          ]
        },
        {
          "long_name": "Tai Tong Road",
          "short_name": "Tai Tong Rd",
          "types": [
            "route"
          ]
        },
        {
          "long_name": "Yuen Long",
          "short_name": "Yuen Long",
          "types": [
            "neighborhood",
            "political"
          ]
        },
        {
          "long_name": "New Territories",
          "short_name": "New Territories",
          "types": [
            "administrative_area_level_1",
            "political"
          ]
        },
        {
          "long_name": "Hong Kong",
          "short_name": "HK",
          "types": [
            "country",
            "political"
          ]
        }
      ],
      "formatted_address": "\u5927\u96f2\u541e, SHOP, Kam Long Building, 41-59 Tai Tong Rd, Yuen Long, Hong Kong",
      "geometry": {
        "bounds": {
          "northeast": {
            "lat": 22.4425509,
            "lng": 114.0292212
          },
          "southwest": {
            "lat": 22.4420948,
            "lng": 114.0288913
          }
        },
        "location": {
          "lat": 22.4423441,
          "lng": 114.0291257
        },
        "location_type": "ROOFTOP",
        "viewport": {
          "northeast": {
            "lat": 22.4436718302915,
            "lng": 114.0304052302915
          },
          "southwest": {
            "lat": 22.4409738697085,
            "lng": 114.0277072697085
          }
        }
      },
      "partial_match": true,
      "place_id": "EkvlpKfpm7LlkJ4sIFNIT1AsIEthbSBMb25nIEJ1aWxkaW5nLCA0MS01OSBUYWkgVG9uZyBSZCwgWXVlbiBMb25nLCBIb25nIEtvbmciKxopChYKFAoSCf0d5HMK-gM0EWy8bRpXY9uZEg_lpKfpm7LlkJ4sIFNIT1A",
      "types": [
        "subpremise"
      ]
    },
    {
      "address_components": [
        {
          "long_name": "Kam Long Building",
          "short_name": "Kam Long Building",
          "types": [
            "premise"
          ]
        },
        {
          "long_name": "41-59",
          "short_name": "41-59",
          "types": [
            "street_number"
          ]
        },
        {
          "long_name": "Tai Tong Road",
          "short_name": "Tai Tong Rd",
          "types": [
            "route"
          ]
        },
        {
          "long_name": "Yuen Long",
          "short_name": "Yuen Long",
          "types": [
            "neighborhood",
            "political"
          ]
        },
        {
          "long_name": "New Territories",
          "short_name": "New Territories",
          "types": [
            "administrative_area_level_1",
            "political"
          ]
        },
        {
          "long_name": "Hong Kong",
          "short_name": "HK",
          "types": [
            "country",
            "political"
          ]
        }
      ],
      "formatted_address": "Kam Long Building, 41-59 Tai Tong Rd, Yuen Long, Hong Kong",
      "geometry": {
        "bounds": {
          "northeast": {
            "lat": 22.4425509,
            "lng": 114.0292212
          },
          "southwest": {
            "lat": 22.4420948,
            "lng": 114.0288913
          }
        },
        "location": {
          "lat": 22.4423441,
          "lng": 114.0291257
        },
        "location_type": "ROOFTOP",
        "viewport": {
          "northeast": {
            "lat": 22.4436718302915,
            "lng": 114.0304052302915
          },
          "southwest": {
            "lat": 22.4409738697085,
            "lng": 114.0277072697085
          }
        }
      },
      "partial_match": true,
      "place_id": "ChIJ_R3kcwr6AzQRbLxtGldj25k",
      "types": [
        "premise"
      ]
    }
  ],
  "geocode_tc": [
    {
      "address_components": [
        {
          "long_name": "\u91d1\u6717\u5927\u5ec8",
          "short_name": "\u91d1\u6717\u5927\u5ec8",
          "types": [
            "premise"
          ]
        },
        {
          "long_name": "41-59",
          "short_name": "41-59",
          "types": [
            "street_number"
          ]
        },
        {
          "long_name": "\u5927\u68e0\u8def",
          "short_name": "\u5927\u68e0\u8def",
          "types": [
            "route"
          ]
        },
        {
          "long_name": "\u5143\u6717",
          "short_name": "\u5143\u6717",
          "types": [
            "neighborhood",
            "political"
          ]
        },
        {
          "long_name": "\u65b0\u754c",
          "short_name": "\u65b0\u754c",
          "types": [
            "administrative_area_level_1",
            "political"
          ]
        },
        {
          "long_name": "\u9999\u6e2f",
          "short_name": "HK",
          "types": [
            "country",
            "political"
          ]
        }
      ],
      "formatted_address": "\u9999\u6e2f\u5143\u6717\u5927\u68e0\u8def41-59\u865f\u91d1\u6717\u5927\u5ec8",
      "geometry": {
        "location": {
          "lat": 22.4424007,
          "lng": 114.0289611
        },
        "location_type": "ROOFTOP",
        "viewport": {
          "northeast": {
            "lat": 22.4437496802915,
            "lng": 114.0303100802915
          },
          "southwest": {
            "lat": 22.4410517197085,
            "lng": 114.0276121197085
          }
        }
      },
      "partial_match": true,
      "place_id": "ChIJHdEvcQr6AzQR07icz7O_onE",
      "plus_code": {
        "compound_code": "C2RH+XH \u9999\u6e2f\u5143\u6717",
        "global_code": "7PJPC2RH+XH"
      },
      "types": [
        "establishment",
        "food",
        "point_of_interest",
        "restaurant"
      ]
    },
    {
      "address_components": [
        {
          "long_name": "\u91d1\u6717\u5927\u5ec8",
          "short_name": "\u91d1\u6717\u5927\u5ec8",
          "types": [
            "premise"
          ]
        },
        {
          "long_name": "41-59",
          "short_name": "41-59",
          "types": [
            "street_number"
          ]
        },
        {
          "long_name": "\u5927\u68e0\u8def",
          "short_name": "\u5927\u68e0\u8def",
          "types": [
            "route"
          ]
        },
        {
          "long_name": "\u5143\u6717",
          "short_name": "\u5143\u6717",
          "types": [
            "neighborhood",
            "political"
          ]
        },
        {
          "long_name": "\u65b0\u754c",
          "short_name": "\u65b0\u754c",
          "types": [
            "administrative_area_level_1",
            "political"
          ]
        },
        {
          "long_name": "\u9999\u6e2f",
          "short_name": "HK",
          "types": [
            "country",
            "political"
          ]
        }
      ],
      "formatted_address": "\u9999\u6e2f\u5143\u6717\u5927\u68e0\u8def41-59\u865f\u91d1\u6717\u5927\u5ec8",
      "geometry": {
        "bounds": {
          "northeast": {
            "lat": 22.4425509,
            "lng": 114.0292212
          },
          "southwest": {
            "lat": 22.4420948,
            "lng": 114.0288913
          }
        },
        "location": {
          "lat": 22.4423441,
          "lng": 114.0291257
        },
        "location_type": "ROOFTOP",
        "viewport": {
          "northeast": {
            "lat": 22.4436718302915,
            "lng": 114.0304052302915
          },
          "southwest": {
            "lat": 22.4409738697085,
            "lng": 114.0277072697085
          }
        }
      },
      "partial_match": true,
      "place_id": "ChIJ_R3kcwr6AzQRbLxtGldj25k",
      "types": [
        "premise"
      ]
    },
    {
      "address_components": [
        {
          "long_name": "\u5730\u4e0b3\u865f\u92ea",
          "short_name": "\u5730\u4e0b3\u865f\u92ea",
          "types": [
            "subpremise"
          ]
        },
        {
          "long_name": "\u91d1\u6717\u5927\u5ec8",
          "short_name": "\u91d1\u6717\u5927\u5ec8",
          "types": [
            "premise"
          ]
        },
        {
          "long_name": "41-59",
          "short_name": "41-59",
          "types": [
            "street_number"
          ]
        },
        {
          "long_name": "\u5927\u68e0\u8def",
          "short_name": "\u5927\u68e0\u8def",
          "types": [
            "route"
          ]
        },
        {
          "long_name": "\u5143\u6717",
          "short_name": "\u5143\u6717",
          "types": [
            "neighborhood",
            "political"
          ]
        },
        {
          "long_name": "\u65b0\u754c",
          "short_name": "\u65b0\u754c",
          "types": [
            "administrative_area_level_1",
            "political"
          ]
        },
        {
          "long_name": "\u9999\u6e2f",
          "short_name": "HK",
          "types": [
            "country",
            "political"
          ]
        }
      ],
      "formatted_address": "\u9999\u6e2f\u5143\u6717\u5927\u68e0\u8def41-59\u865f\u91d1\u6717\u5927\u5ec8\u5730\u4e0b3\u865f\u92ea",
      "geometry": {
        "bounds": {
          "northeast": {
            "lat": 22.4425509,
            "lng": 114.0292212
          },
          "southwest": {
            "lat": 22.4420948,
            "lng": 114.0288913
          }
        },
        "location": {
          "lat": 22.4423441,
          "lng": 114.0291257
        },
        "location_type": "ROOFTOP",
        "viewport": {
          "northeast": {
            "lat": 22.4436718302915,
            "lng": 114.0304052302915
          },
          "southwest": {
            "lat": 22.4409738697085,
            "lng": 114.0277072697085
          }
        }
      },
      "partial_match": true,
      "place_id": "EknlnLDkuIsz6Jmf6YuqLCBLYW0gTG9uZyBCdWlsZGluZywgNDEtNTkgVGFpIFRvbmcgUmQsIFl1ZW4gTG9uZywgSG9uZyBLb25nIikaJwoWChQKEgn9HeRzCvoDNBFsvG0aV2PbmRIN5Zyw5LiLM-iZn-mLqg",
      "types": [
        "subpremise"
      ]
    }
  ],
  "licno": "2294803112",
  "timestamp": 1564975666,
  "version": "1564966095"
}
