{
  "adr_en": "STEAM SEAFOOD RESTAURANT, G/F(MINOR PORTION) & 1/F, KNUTSFORD PLACE, NOS. 5, 7 & 9 OBSERVATORY COURT, TSIM SHA TSUI, KOWLOON",
  "adr_tc": "\u4e5d\u9f8d\u5c16\u6c99\u5480\u5929\u6587\u81fa\u570d5,7\u53ca9\u865f  \u8afe\u4ed5\u4f5b\u5ee3\u5834\u5730\u4e0b(\u5c0f\u90e8\u4efd)\u53ca1\u6a13 \u6709\u84b8\u6c23\u6d77\u9bae\u77f3\u934b\u5c08\u9580\u5e97",
  "geocode_en": [
    {
      "address_components": [
        {
          "long_name": "Knutsford",
          "short_name": "Knutsford",
          "types": [
            "locality",
            "political"
          ]
        },
        {
          "long_name": "Knutsford",
          "short_name": "Knutsford",
          "types": [
            "postal_town"
          ]
        },
        {
          "long_name": "Cheshire East",
          "short_name": "Cheshire East",
          "types": [
            "administrative_area_level_2",
            "political"
          ]
        },
        {
          "long_name": "England",
          "short_name": "England",
          "types": [
            "administrative_area_level_1",
            "political"
          ]
        },
        {
          "long_name": "United Kingdom",
          "short_name": "GB",
          "types": [
            "country",
            "political"
          ]
        },
        {
          "long_name": "WA16",
          "short_name": "WA16",
          "types": [
            "postal_code",
            "postal_code_prefix"
          ]
        }
      ],
      "formatted_address": "Knutsford WA16, UK",
      "geometry": {
        "bounds": {
          "northeast": {
            "lat": 53.3161599,
            "lng": -2.3452129
          },
          "southwest": {
            "lat": 53.28456389999999,
            "lng": -2.4011287
          }
        },
        "location": {
          "lat": 53.3005939,
          "lng": -2.371833
        },
        "location_type": "APPROXIMATE",
        "viewport": {
          "northeast": {
            "lat": 53.3161599,
            "lng": -2.3452129
          },
          "southwest": {
            "lat": 53.28456389999999,
            "lng": -2.4011287
          }
        }
      },
      "partial_match": true,
      "place_id": "ChIJ-aPC2AtRekgRWf23t-WaehQ",
      "types": [
        "locality",
        "political"
      ]
    },
    {
      "address_components": [
        {
          "long_name": "5",
          "short_name": "5",
          "types": [
            "subpremise"
          ]
        },
        {
          "long_name": "9",
          "short_name": "9",
          "types": [
            "street_number"
          ]
        },
        {
          "long_name": "Observatory Court",
          "short_name": "Observatory Ct",
          "types": [
            "route"
          ]
        },
        {
          "long_name": "Tsim Sha Tsui",
          "short_name": "Tsim Sha Tsui",
          "types": [
            "neighborhood",
            "political"
          ]
        },
        {
          "long_name": "Kowloon",
          "short_name": "Kowloon",
          "types": [
            "administrative_area_level_1",
            "political"
          ]
        },
        {
          "long_name": "Hong Kong",
          "short_name": "HK",
          "types": [
            "country",
            "political"
          ]
        }
      ],
      "formatted_address": "5, 9 Observatory Ct, Tsim Sha Tsui, Hong Kong",
      "geometry": {
        "location": {
          "lat": 22.3019597,
          "lng": 114.1747159
        },
        "location_type": "RANGE_INTERPOLATED",
        "viewport": {
          "northeast": {
            "lat": 22.3033086802915,
            "lng": 114.1760648802915
          },
          "southwest": {
            "lat": 22.3006107197085,
            "lng": 114.1733669197085
          }
        }
      },
      "partial_match": true,
      "place_id": "Ei01LCA5IE9ic2VydmF0b3J5IEN0LCBUc2ltIFNoYSBUc3VpLCBIb25nIEtvbmciIRofChoSGAoUChIJKyUyuu4ABDQRWqXhW2OIzxgQCRIBNQ",
      "types": [
        "subpremise"
      ]
    }
  ],
  "geocode_tc": [
    {
      "address_components": [
        {
          "long_name": "\u8afe\u4ed5\u4f5b\u5ee3\u5834",
          "short_name": "\u8afe\u4ed5\u4f5b\u5ee3\u5834",
          "types": [
            "premise"
          ]
        },
        {
          "long_name": "5",
          "short_name": "5",
          "types": [
            "street_number"
          ]
        },
        {
          "long_name": "Observatory Circuit",
          "short_name": "Observatory Circuit",
          "types": [
            "route"
          ]
        },
        {
          "long_name": "\u5c16\u6c99\u5480",
          "short_name": "\u5c16\u6c99\u5480",
          "types": [
            "neighborhood",
            "political"
          ]
        },
        {
          "long_name": "\u4e5d\u9f8d",
          "short_name": "\u4e5d\u9f8d",
          "types": [
            "administrative_area_level_1",
            "political"
          ]
        },
        {
          "long_name": "\u9999\u6e2f",
          "short_name": "HK",
          "types": [
            "country",
            "political"
          ]
        }
      ],
      "formatted_address": "\u9999\u6e2f\u5c16\u6c99\u5480 Observatory Circuit, 5\u865f\u8afe\u4ed5\u4f5b\u5ee3\u5834",
      "geometry": {
        "bounds": {
          "northeast": {
            "lat": 22.301994,
            "lng": 114.174768
          },
          "southwest": {
            "lat": 22.3017721,
            "lng": 114.174617
          }
        },
        "location": {
          "lat": 22.3018921,
          "lng": 114.1746942
        },
        "location_type": "ROOFTOP",
        "viewport": {
          "northeast": {
            "lat": 22.3032320302915,
            "lng": 114.1760414802915
          },
          "southwest": {
            "lat": 22.3005340697085,
            "lng": 114.1733435197085
          }
        }
      },
      "partial_match": true,
      "place_id": "ChIJ8XsLuu4ABDQR_CwdCOSVCWE",
      "types": [
        "premise"
      ]
    },
    {
      "address_components": [
        {
          "long_name": "Observatory Court",
          "short_name": "Observatory Ct",
          "types": [
            "route"
          ]
        },
        {
          "long_name": "Tsim Sha Tsui",
          "short_name": "Tsim Sha Tsui",
          "types": [
            "neighborhood",
            "political"
          ]
        },
        {
          "long_name": "\u9999\u6e2f",
          "short_name": "HK",
          "types": [
            "country",
            "political"
          ]
        }
      ],
      "formatted_address": "1/F The Bauhinia 5-9, Observatory Ct, Tsim Sha Tsui, \u9999\u6e2f",
      "geometry": {
        "location": {
          "lat": 22.3017435,
          "lng": 114.174721
        },
        "location_type": "GEOMETRIC_CENTER",
        "viewport": {
          "northeast": {
            "lat": 22.3030924802915,
            "lng": 114.1760699802915
          },
          "southwest": {
            "lat": 22.3003945197085,
            "lng": 114.1733720197085
          }
        }
      },
      "partial_match": true,
      "place_id": "ChIJKyUyuu4ABDQRk0wKVoQqq5w",
      "plus_code": {
        "compound_code": "852F+MV \u9999\u6e2f",
        "global_code": "7PJP852F+MV"
      },
      "types": [
        "establishment",
        "food",
        "point_of_interest",
        "restaurant"
      ]
    },
    {
      "address_components": [
        {
          "long_name": "5-9",
          "short_name": "5-9",
          "types": [
            "street_number"
          ]
        },
        {
          "long_name": "\u5929\u6587\u81fa\u570d",
          "short_name": "\u5929\u6587\u81fa\u570d",
          "types": [
            "route"
          ]
        },
        {
          "long_name": "\u5c16\u6c99\u5480",
          "short_name": "\u5c16\u6c99\u5480",
          "types": [
            "neighborhood",
            "political"
          ]
        },
        {
          "long_name": "\u4e5d\u9f8d",
          "short_name": "\u4e5d\u9f8d",
          "types": [
            "administrative_area_level_1",
            "political"
          ]
        },
        {
          "long_name": "\u9999\u6e2f",
          "short_name": "HK",
          "types": [
            "country",
            "political"
          ]
        }
      ],
      "formatted_address": "\u9999\u6e2f\u5c16\u6c99\u5480\u5929\u6587\u81fa\u570d5-9\u865f",
      "geometry": {
        "location": {
          "lat": 22.301883,
          "lng": 114.174666
        },
        "location_type": "ROOFTOP",
        "viewport": {
          "northeast": {
            "lat": 22.3032319802915,
            "lng": 114.1760149802915
          },
          "southwest": {
            "lat": 22.3005340197085,
            "lng": 114.1733170197085
          }
        }
      },
      "partial_match": true,
      "place_id": "ChIJgY1zuu4ABDQRZLI9xa2Xexk",
      "plus_code": {
        "compound_code": "852F+QV \u9999\u6e2f",
        "global_code": "7PJP852F+QV"
      },
      "types": [
        "establishment",
        "point_of_interest",
        "shopping_mall"
      ]
    }
  ],
  "licno": "2261812068",
  "timestamp": 1564968756,
  "version": "1564966095"
}
