{
  "adr_en": "\u9f8d\u904b\u71d2\u5473\u706b\u934b\u8336\u9910\u5ef3, SHOP D, G/F, HUNG FUK HOUSE, NOS.45,47,49 & 51  FUK WA STREET, KOWLOON",
  "adr_tc": "\u4e5d\u9f8d\u798f\u83ef\u885745,47,49 \u53ca 51\u865f\u9d3b\u798f\u5927\u6a13\u5730\u4e0bD\u8216 \u9f8d\u904b\u71d2\u5473\u706b\u934b\u8336\u9910\u5ef3",
  "geocode_en": [
    {
      "address_components": [
        {
          "long_name": "51",
          "short_name": "51",
          "types": [
            "street_number"
          ]
        },
        {
          "long_name": "Fuk Wa Street",
          "short_name": "Fuk Wa St",
          "types": [
            "route"
          ]
        },
        {
          "long_name": "Tong Mi",
          "short_name": "Tong Mi",
          "types": [
            "neighborhood",
            "political"
          ]
        },
        {
          "long_name": "Hong Kong",
          "short_name": "HK",
          "types": [
            "country",
            "political"
          ]
        }
      ],
      "formatted_address": "Hong Kong, Tong Mi, Fuk Wa St, 51\u865fD",
      "geometry": {
        "location": {
          "lat": 22.328541,
          "lng": 114.165949
        },
        "location_type": "ROOFTOP",
        "viewport": {
          "northeast": {
            "lat": 22.3298899802915,
            "lng": 114.1672979802915
          },
          "southwest": {
            "lat": 22.32719201970849,
            "lng": 114.1646000197085
          }
        }
      },
      "partial_match": true,
      "place_id": "ChIJWzZzo7UABDQRUrBkOsvnRLY",
      "plus_code": {
        "compound_code": "85H8+C9 Hong Kong",
        "global_code": "7PJP85H8+C9"
      },
      "types": [
        "establishment",
        "food",
        "point_of_interest",
        "restaurant"
      ]
    },
    {
      "address_components": [
        {
          "long_name": "45",
          "short_name": "45",
          "types": [
            "subpremise"
          ]
        },
        {
          "long_name": "Hung Fuk House",
          "short_name": "Hung Fuk House",
          "types": [
            "premise"
          ]
        },
        {
          "long_name": "45-51",
          "short_name": "45-51",
          "types": [
            "street_number"
          ]
        },
        {
          "long_name": "Fuk Wa Street",
          "short_name": "Fuk Wa St",
          "types": [
            "route"
          ]
        },
        {
          "long_name": "Tong Mi",
          "short_name": "Tong Mi",
          "types": [
            "neighborhood",
            "political"
          ]
        },
        {
          "long_name": "Kowloon",
          "short_name": "Kowloon",
          "types": [
            "administrative_area_level_1",
            "political"
          ]
        },
        {
          "long_name": "Hong Kong",
          "short_name": "HK",
          "types": [
            "country",
            "political"
          ]
        }
      ],
      "formatted_address": "45, Hung Fuk House, 45-51 Fuk Wa St, Tong Mi, Hong Kong",
      "geometry": {
        "bounds": {
          "northeast": {
            "lat": 22.328654,
            "lng": 114.1660761
          },
          "southwest": {
            "lat": 22.328428,
            "lng": 114.1658221
          }
        },
        "location": {
          "lat": 22.3285503,
          "lng": 114.1659278
        },
        "location_type": "ROOFTOP",
        "viewport": {
          "northeast": {
            "lat": 22.3298899802915,
            "lng": 114.1672980802915
          },
          "southwest": {
            "lat": 22.32719201970849,
            "lng": 114.1646001197085
          }
        }
      },
      "partial_match": true,
      "place_id": "Ejc0NSwgSHVuZyBGdWsgSG91c2UsIDQ1LTUxIEZ1ayBXYSBTdCwgVG9uZyBNaSwgSG9uZyBLb25nIh4aHAoWChQKEglbNnOjtQAENBGYA3rK5OfEFBICNDU",
      "types": [
        "subpremise"
      ]
    },
    {
      "address_components": [
        {
          "long_name": "Hung Fuk House",
          "short_name": "Hung Fuk House",
          "types": [
            "premise"
          ]
        },
        {
          "long_name": "45-51",
          "short_name": "45-51",
          "types": [
            "street_number"
          ]
        },
        {
          "long_name": "Fuk Wa Street",
          "short_name": "Fuk Wa St",
          "types": [
            "route"
          ]
        },
        {
          "long_name": "Tong Mi",
          "short_name": "Tong Mi",
          "types": [
            "neighborhood",
            "political"
          ]
        },
        {
          "long_name": "Kowloon",
          "short_name": "Kowloon",
          "types": [
            "administrative_area_level_1",
            "political"
          ]
        },
        {
          "long_name": "Hong Kong",
          "short_name": "HK",
          "types": [
            "country",
            "political"
          ]
        }
      ],
      "formatted_address": "Hung Fuk House, 45-51 Fuk Wa St, Tong Mi, Hong Kong",
      "geometry": {
        "bounds": {
          "northeast": {
            "lat": 22.328654,
            "lng": 114.1660761
          },
          "southwest": {
            "lat": 22.328428,
            "lng": 114.1658221
          }
        },
        "location": {
          "lat": 22.3285503,
          "lng": 114.1659278
        },
        "location_type": "ROOFTOP",
        "viewport": {
          "northeast": {
            "lat": 22.3298899802915,
            "lng": 114.1672980802915
          },
          "southwest": {
            "lat": 22.32719201970849,
            "lng": 114.1646001197085
          }
        }
      },
      "partial_match": true,
      "place_id": "ChIJWzZzo7UABDQRmAN6yuTnxBQ",
      "types": [
        "premise"
      ]
    }
  ],
  "geocode_tc": [
    {
      "address_components": [
        {
          "long_name": "51",
          "short_name": "51",
          "types": [
            "street_number"
          ]
        },
        {
          "long_name": "\u798f\u83ef\u8857",
          "short_name": "\u798f\u83ef\u8857",
          "types": [
            "route"
          ]
        },
        {
          "long_name": "\u5858\u5c3e",
          "short_name": "\u5858\u5c3e",
          "types": [
            "neighborhood",
            "political"
          ]
        },
        {
          "long_name": "\u9999\u6e2f",
          "short_name": "HK",
          "types": [
            "country",
            "political"
          ]
        }
      ],
      "formatted_address": "\u9999\u6e2f\u5858\u5c3e\u798f\u83ef\u885751\u865fD",
      "geometry": {
        "location": {
          "lat": 22.328541,
          "lng": 114.165949
        },
        "location_type": "ROOFTOP",
        "viewport": {
          "northeast": {
            "lat": 22.3298899802915,
            "lng": 114.1672979802915
          },
          "southwest": {
            "lat": 22.32719201970849,
            "lng": 114.1646000197085
          }
        }
      },
      "place_id": "ChIJWzZzo7UABDQRUrBkOsvnRLY",
      "plus_code": {
        "compound_code": "85H8+C9 \u9999\u6e2f",
        "global_code": "7PJP85H8+C9"
      },
      "types": [
        "establishment",
        "food",
        "point_of_interest",
        "restaurant"
      ]
    }
  ],
  "licno": "2263802201",
  "timestamp": 1564968756,
  "version": "1564966095"
}
