{
  "adr_en": "\u96f2\u5357\u6842\u6797\u904e\u6a4b\u7c73\u7dda, SHOP NOS. 5 & 6, G/F, HART AVENUE PLAZA, 5-9 HART AVENUE, TSIM SHA TSUI, KOWLOON",
  "adr_tc": "\u4e5d\u9f8d\u5c16\u6c99\u5480\u8d6b\u5fb7\u90535-9\u865f \u590f\u8559\u95a3\u5730\u4e0b5-6\u865f\u8216 \u96f2\u5357\u6842\u6797\u904e\u6a4b\u7c73\u7dda",
  "geocode_en": [
    {
      "address_components": [
        {
          "long_name": "Yunnan",
          "short_name": "Yunnan",
          "types": [
            "administrative_area_level_1",
            "political"
          ]
        },
        {
          "long_name": "China",
          "short_name": "CN",
          "types": [
            "country",
            "political"
          ]
        }
      ],
      "formatted_address": "Yunnan, China",
      "geometry": {
        "bounds": {
          "northeast": {
            "lat": 29.2233268,
            "lng": 106.1977222
          },
          "southwest": {
            "lat": 21.1417696,
            "lng": 97.5279781
          }
        },
        "location": {
          "lat": 24.4752847,
          "lng": 101.3431058
        },
        "location_type": "APPROXIMATE",
        "viewport": {
          "northeast": {
            "lat": 29.2233268,
            "lng": 106.1977222
          },
          "southwest": {
            "lat": 21.1417696,
            "lng": 97.5279781
          }
        }
      },
      "partial_match": true,
      "place_id": "ChIJKVugMtuD0DYRKayNyrfrPKY",
      "types": [
        "administrative_area_level_1",
        "political"
      ]
    },
    {
      "address_components": [
        {
          "long_name": "Hart Avenue Plaza",
          "short_name": "Hart Avenue Plaza",
          "types": [
            "premise"
          ]
        },
        {
          "long_name": "5-9",
          "short_name": "5-9",
          "types": [
            "street_number"
          ]
        },
        {
          "long_name": "Hart Avenue",
          "short_name": "Hart Ave",
          "types": [
            "route"
          ]
        },
        {
          "long_name": "Tsim Sha Tsui",
          "short_name": "Tsim Sha Tsui",
          "types": [
            "neighborhood",
            "political"
          ]
        },
        {
          "long_name": "Kowloon",
          "short_name": "Kowloon",
          "types": [
            "administrative_area_level_1",
            "political"
          ]
        },
        {
          "long_name": "Hong Kong",
          "short_name": "HK",
          "types": [
            "country",
            "political"
          ]
        }
      ],
      "formatted_address": "Hart Avenue Plaza, 5-9 Hart Ave, Tsim Sha Tsui, Hong Kong",
      "geometry": {
        "bounds": {
          "northeast": {
            "lat": 22.2980989,
            "lng": 114.1744049
          },
          "southwest": {
            "lat": 22.297752,
            "lng": 114.173996
          }
        },
        "location": {
          "lat": 22.2979489,
          "lng": 114.1741949
        },
        "location_type": "ROOFTOP",
        "viewport": {
          "northeast": {
            "lat": 22.2992744302915,
            "lng": 114.1755494302915
          },
          "southwest": {
            "lat": 22.2965764697085,
            "lng": 114.1728514697085
          }
        }
      },
      "partial_match": true,
      "place_id": "ChIJzaEID-4ABDQRrukm4S8oNSk",
      "types": [
        "premise"
      ]
    }
  ],
  "geocode_tc": [
    {
      "address_components": [
        {
          "long_name": "5-6\u865f\u8216",
          "short_name": "5-6\u865f\u8216",
          "types": [
            "subpremise"
          ]
        },
        {
          "long_name": "\u590f\u8559\u95a3",
          "short_name": "\u590f\u8559\u95a3",
          "types": [
            "premise"
          ]
        },
        {
          "long_name": "19-23",
          "short_name": "19-23",
          "types": [
            "street_number"
          ]
        },
        {
          "long_name": "\u8d6b\u5fb7\u9053",
          "short_name": "\u8d6b\u5fb7\u9053",
          "types": [
            "route"
          ]
        },
        {
          "long_name": "\u5c16\u6c99\u5480",
          "short_name": "\u5c16\u6c99\u5480",
          "types": [
            "neighborhood",
            "political"
          ]
        },
        {
          "long_name": "\u4e5d\u9f8d",
          "short_name": "\u4e5d\u9f8d",
          "types": [
            "administrative_area_level_1",
            "political"
          ]
        },
        {
          "long_name": "\u9999\u6e2f",
          "short_name": "HK",
          "types": [
            "country",
            "political"
          ]
        }
      ],
      "formatted_address": "\u9999\u6e2f\u5c16\u6c99\u5480\u8d6b\u5fb7\u905319-23\u865f\u590f\u8559\u95a35-6\u865f\u8216",
      "geometry": {
        "bounds": {
          "northeast": {
            "lat": 22.2979721,
            "lng": 114.1750111
          },
          "southwest": {
            "lat": 22.297826,
            "lng": 114.174889
          }
        },
        "location": {
          "lat": 22.297919,
          "lng": 114.1749381
        },
        "location_type": "ROOFTOP",
        "viewport": {
          "northeast": {
            "lat": 22.2992480302915,
            "lng": 114.1762990302915
          },
          "southwest": {
            "lat": 22.29655006970849,
            "lng": 114.1736010697085
          }
        }
      },
      "partial_match": true,
      "place_id": "EkY1LTbomZ_oiJYsIEhhcnQgQXZlbnVlIENvdXJ0LCAxOS0yMyBIYXJ0IEF2ZSwgVHNpbSBTaGEgVHN1aSwgSG9uZyBLb25nIiUaIwoWChQKEgmXnfcW7gAENBGej7JVCBrlsBIJNS026Jmf6IiW",
      "types": [
        "subpremise"
      ]
    },
    {
      "address_components": [
        {
          "long_name": "\u96f2\u5357",
          "short_name": "\u96f2\u5357",
          "types": [
            "administrative_area_level_1",
            "political"
          ]
        },
        {
          "long_name": "\u4e2d\u570b",
          "short_name": "CN",
          "types": [
            "country",
            "political"
          ]
        }
      ],
      "formatted_address": "\u4e2d\u570b\u96f2\u5357",
      "geometry": {
        "bounds": {
          "northeast": {
            "lat": 29.2233268,
            "lng": 106.1977222
          },
          "southwest": {
            "lat": 21.1417696,
            "lng": 97.5279781
          }
        },
        "location": {
          "lat": 24.4752847,
          "lng": 101.3431058
        },
        "location_type": "APPROXIMATE",
        "viewport": {
          "northeast": {
            "lat": 29.2233268,
            "lng": 106.1977222
          },
          "southwest": {
            "lat": 21.1417696,
            "lng": 97.5279781
          }
        }
      },
      "partial_match": true,
      "place_id": "ChIJKVugMtuD0DYRKayNyrfrPKY",
      "types": [
        "administrative_area_level_1",
        "political"
      ]
    }
  ],
  "licno": "3161801673",
  "timestamp": 1564975666,
  "version": "1564966095"
}
