{
  "adr_en": "MALAYSIAN CHINESE RESTAURANT, G/F & C/L, 12 JORDAN ROAD, JORDAN, KOWLOON",
  "adr_tc": "\u4e5d\u9f8d\u4f50\u6566\u4f50\u6566\u905312\u865f \u5730\u4e0b\u53ca\u95a3\u6a13 \u99ac\u83ef\u9910\u5ef3",
  "geocode_en": [
    {
      "address_components": [
        {
          "long_name": "Hong Kong",
          "short_name": "HK",
          "types": [
            "country",
            "political"
          ]
        }
      ],
      "formatted_address": "Hong Kong, \u4f50\u6566\u4f50\u6566\u905312\u865f\u8000\u68e0\u95a3\u5730\u4e0b",
      "geometry": {
        "location": {
          "lat": 22.3052972,
          "lng": 114.1723836
        },
        "location_type": "GEOMETRIC_CENTER",
        "viewport": {
          "northeast": {
            "lat": 22.3066461802915,
            "lng": 114.1737325802915
          },
          "southwest": {
            "lat": 22.3039482197085,
            "lng": 114.1710346197085
          }
        }
      },
      "partial_match": true,
      "place_id": "ChIJWScLyesABDQRSXxHe_oXSW4",
      "plus_code": {
        "compound_code": "854C+4X Hong Kong",
        "global_code": "7PJP854C+4X"
      },
      "types": [
        "establishment",
        "food",
        "point_of_interest",
        "restaurant"
      ]
    },
    {
      "address_components": [
        {
          "long_name": "C",
          "short_name": "C",
          "types": [
            "subpremise"
          ]
        },
        {
          "long_name": "12",
          "short_name": "12",
          "types": [
            "street_number"
          ]
        },
        {
          "long_name": "Jordan Road",
          "short_name": "Jordan Rd",
          "types": [
            "route"
          ]
        },
        {
          "long_name": "Yau Ma Tei",
          "short_name": "Yau Ma Tei",
          "types": [
            "neighborhood",
            "political"
          ]
        },
        {
          "long_name": "Kowloon",
          "short_name": "Kowloon",
          "types": [
            "administrative_area_level_1",
            "political"
          ]
        },
        {
          "long_name": "Hong Kong",
          "short_name": "HK",
          "types": [
            "country",
            "political"
          ]
        }
      ],
      "formatted_address": "C, 12 Jordan Rd, Yau Ma Tei, Hong Kong",
      "geometry": {
        "location": {
          "lat": 22.3053614,
          "lng": 114.1723305
        },
        "location_type": "ROOFTOP",
        "viewport": {
          "northeast": {
            "lat": 22.3067103802915,
            "lng": 114.1736794802915
          },
          "southwest": {
            "lat": 22.3040124197085,
            "lng": 114.1709815197085
          }
        }
      },
      "partial_match": true,
      "place_id": "EiZDLCAxMiBKb3JkYW4gUmQsIFlhdSBNYSBUZWksIEhvbmcgS29uZyIdGhsKFgoUChIJZRcLyesABDQRJ10Weq-eTAQSAUM",
      "types": [
        "subpremise"
      ]
    },
    {
      "address_components": [
        {
          "long_name": "L",
          "short_name": "L",
          "types": [
            "subpremise"
          ]
        },
        {
          "long_name": "12",
          "short_name": "12",
          "types": [
            "street_number"
          ]
        },
        {
          "long_name": "Jordan Road",
          "short_name": "Jordan Rd",
          "types": [
            "route"
          ]
        },
        {
          "long_name": "Yau Ma Tei",
          "short_name": "Yau Ma Tei",
          "types": [
            "neighborhood",
            "political"
          ]
        },
        {
          "long_name": "Kowloon",
          "short_name": "Kowloon",
          "types": [
            "administrative_area_level_1",
            "political"
          ]
        },
        {
          "long_name": "Hong Kong",
          "short_name": "HK",
          "types": [
            "country",
            "political"
          ]
        }
      ],
      "formatted_address": "L, 12 Jordan Rd, Yau Ma Tei, Hong Kong",
      "geometry": {
        "location": {
          "lat": 22.3053614,
          "lng": 114.1723305
        },
        "location_type": "ROOFTOP",
        "viewport": {
          "northeast": {
            "lat": 22.3067103802915,
            "lng": 114.1736794802915
          },
          "southwest": {
            "lat": 22.3040124197085,
            "lng": 114.1709815197085
          }
        }
      },
      "partial_match": true,
      "place_id": "EiZMLCAxMiBKb3JkYW4gUmQsIFlhdSBNYSBUZWksIEhvbmcgS29uZyIdGhsKFgoUChIJZRcLyesABDQRJ10Weq-eTAQSAUw",
      "types": [
        "subpremise"
      ]
    }
  ],
  "geocode_tc": [
    {
      "address_components": [
        {
          "long_name": "\u9999\u6e2f",
          "short_name": "HK",
          "types": [
            "country",
            "political"
          ]
        }
      ],
      "formatted_address": "\u9999\u6e2f\u4f50\u6566\u4f50\u6566\u905312\u865f\u8000\u68e0\u95a3\u5730\u4e0b",
      "geometry": {
        "location": {
          "lat": 22.3052972,
          "lng": 114.1723836
        },
        "location_type": "GEOMETRIC_CENTER",
        "viewport": {
          "northeast": {
            "lat": 22.3066461802915,
            "lng": 114.1737325802915
          },
          "southwest": {
            "lat": 22.3039482197085,
            "lng": 114.1710346197085
          }
        }
      },
      "place_id": "ChIJWScLyesABDQRSXxHe_oXSW4",
      "plus_code": {
        "compound_code": "854C+4X \u9999\u6e2f",
        "global_code": "7PJP854C+4X"
      },
      "types": [
        "establishment",
        "food",
        "point_of_interest",
        "restaurant"
      ]
    }
  ],
  "licno": "2261060278",
  "timestamp": 1564968756,
  "version": "1564966095"
}
