{
  "adr_en": "\u9673\u8a18\u6d77\u9bae\u9152\u5bb6, G/F, NO. 63 SHAM TSENG VILLAGE AND THE OUTSIDE SEATING ACCOMMODATION AT SHOP FRONT AND SHOP SIDE, TSUEN WAN, NEW TERRITORIES",
  "adr_tc": "\u65b0\u754c\u8343\u7063\u6df1\u4e95\u675163\u865f\u5730\u4e0b\u53ca\u5e97\u8216\u524d\u53ca\u5074\u7684\u9732\u5929\u5ea7\u4f4d \u9673\u8a18\u6d77\u9bae\u9152\u5bb6",
  "geocode_en": [
    {
      "address_components": [
        {
          "long_name": "Hong Kong",
          "short_name": "HK",
          "types": [
            "country",
            "political"
          ]
        }
      ],
      "formatted_address": "Hong Kong, \u6df1\u4e95\u9752\u5c71\u516c\u8def\u6df1\u4e95\u675163\u865f\u5730\u4e0b",
      "geometry": {
        "location": {
          "lat": 22.367346,
          "lng": 114.059331
        },
        "location_type": "GEOMETRIC_CENTER",
        "viewport": {
          "northeast": {
            "lat": 22.3686949802915,
            "lng": 114.0606799802915
          },
          "southwest": {
            "lat": 22.36599701970849,
            "lng": 114.0579820197085
          }
        }
      },
      "partial_match": true,
      "place_id": "ChIJq-zf2Vz5AzQRehjO-wjWnYk",
      "plus_code": {
        "compound_code": "9385+WP Hong Kong",
        "global_code": "7PJP9385+WP"
      },
      "types": [
        "establishment",
        "food",
        "point_of_interest",
        "restaurant"
      ]
    },
    {
      "address_components": [
        {
          "long_name": "Tsuen Wan",
          "short_name": "Tsuen Wan",
          "types": [
            "neighborhood",
            "political"
          ]
        },
        {
          "long_name": "New Territories",
          "short_name": "New Territories",
          "types": [
            "administrative_area_level_1",
            "political"
          ]
        },
        {
          "long_name": "Hong Kong",
          "short_name": "HK",
          "types": [
            "country",
            "political"
          ]
        }
      ],
      "formatted_address": "Tsuen Wan, Hong Kong",
      "geometry": {
        "bounds": {
          "northeast": {
            "lat": 22.3865131,
            "lng": 114.12351
          },
          "southwest": {
            "lat": 22.354937,
            "lng": 114.083911
          }
        },
        "location": {
          "lat": 22.3699122,
          "lng": 114.1144306
        },
        "location_type": "APPROXIMATE",
        "viewport": {
          "northeast": {
            "lat": 22.3865131,
            "lng": 114.12351
          },
          "southwest": {
            "lat": 22.354937,
            "lng": 114.083911
          }
        }
      },
      "partial_match": true,
      "place_id": "ChIJmXQjje74AzQRsINigpbDAAo",
      "types": [
        "neighborhood",
        "political"
      ]
    }
  ],
  "geocode_tc": [
    {
      "address_components": [
        {
          "long_name": "\u9999\u6e2f",
          "short_name": "HK",
          "types": [
            "country",
            "political"
          ]
        }
      ],
      "formatted_address": "\u9999\u6e2f\u6df1\u4e95\u9752\u5c71\u516c\u8def\u6df1\u4e95\u675163\u865f\u5730\u4e0b",
      "geometry": {
        "location": {
          "lat": 22.367346,
          "lng": 114.059331
        },
        "location_type": "GEOMETRIC_CENTER",
        "viewport": {
          "northeast": {
            "lat": 22.3686949802915,
            "lng": 114.0606799802915
          },
          "southwest": {
            "lat": 22.36599701970849,
            "lng": 114.0579820197085
          }
        }
      },
      "place_id": "ChIJq-zf2Vz5AzQRehjO-wjWnYk",
      "plus_code": {
        "compound_code": "9385+WP \u9999\u6e2f",
        "global_code": "7PJP9385+WP"
      },
      "types": [
        "establishment",
        "food",
        "point_of_interest",
        "restaurant"
      ]
    }
  ],
  "licno": "2292000922",
  "timestamp": 1564968756,
  "version": "1564966095"
}
