{
  "adr_en": "MOMO N CURRY, SHOP A, G/F., KENBO COMMERCIAL BUILDING, 335-339 QUEEN'S ROAD WEST, SHEUNG WAN, HONG KONG",
  "adr_tc": "\u9999\u6e2f\u4e0a\u74b0\u7687\u540e\u5927\u9053\u897f335-339\u865f \u5d11\u4fdd\u5546\u696d\u5927\u5ec8\u5730\u4e0bA\u8216 MOMO N CURRY",
  "geocode_en": [
    {
      "address_components": [
        {
          "long_name": "Kenbo Commercial Building",
          "short_name": "Kenbo Commercial Building",
          "types": [
            "premise"
          ]
        },
        {
          "long_name": "Queen's Road West",
          "short_name": "Queen's Rd W",
          "types": [
            "route"
          ]
        },
        {
          "long_name": "Sai Ying Pun",
          "short_name": "Sai Ying Pun",
          "types": [
            "neighborhood",
            "political"
          ]
        },
        {
          "long_name": "Hong Kong Island",
          "short_name": "Hong Kong Island",
          "types": [
            "administrative_area_level_1",
            "political"
          ]
        },
        {
          "long_name": "Hong Kong",
          "short_name": "HK",
          "types": [
            "country",
            "political"
          ]
        }
      ],
      "formatted_address": "Kenbo Commercial Building, Queen's Rd W, Sai Ying Pun, Hong Kong",
      "geometry": {
        "location": {
          "lat": 22.2869929,
          "lng": 114.1413419
        },
        "location_type": "ROOFTOP",
        "viewport": {
          "northeast": {
            "lat": 22.2883418802915,
            "lng": 114.1426908802915
          },
          "southwest": {
            "lat": 22.28564391970849,
            "lng": 114.1399929197085
          }
        }
      },
      "partial_match": true,
      "place_id": "ChIJrVLfvoT_AzQRL_egBQjRk90",
      "plus_code": {
        "compound_code": "74PR+QG Sai Ying Pun, Hong Kong",
        "global_code": "7PJP74PR+QG"
      },
      "types": [
        "establishment",
        "food",
        "point_of_interest",
        "restaurant"
      ]
    },
    {
      "address_components": [
        {
          "long_name": "Kenbo Commercial Building",
          "short_name": "Kenbo Commercial Building",
          "types": [
            "premise"
          ]
        },
        {
          "long_name": "335-339",
          "short_name": "335-339",
          "types": [
            "street_number"
          ]
        },
        {
          "long_name": "Queen's Road West",
          "short_name": "Queen's Rd W",
          "types": [
            "route"
          ]
        },
        {
          "long_name": "Sai Ying Pun",
          "short_name": "Sai Ying Pun",
          "types": [
            "neighborhood",
            "political"
          ]
        },
        {
          "long_name": "Hong Kong Island",
          "short_name": "Hong Kong Island",
          "types": [
            "administrative_area_level_1",
            "political"
          ]
        },
        {
          "long_name": "Hong Kong",
          "short_name": "HK",
          "types": [
            "country",
            "political"
          ]
        }
      ],
      "formatted_address": "Kenbo Commercial Building, 335-339 Queen's Rd W, Sai Ying Pun, Hong Kong",
      "geometry": {
        "bounds": {
          "northeast": {
            "lat": 22.2871609,
            "lng": 114.1414209
          },
          "southwest": {
            "lat": 22.2870619,
            "lng": 114.141297
          }
        },
        "location": {
          "lat": 22.2871167,
          "lng": 114.1413575
        },
        "location_type": "ROOFTOP",
        "viewport": {
          "northeast": {
            "lat": 22.2884603802915,
            "lng": 114.1427079302915
          },
          "southwest": {
            "lat": 22.2857624197085,
            "lng": 114.1400099697085
          }
        }
      },
      "partial_match": true,
      "place_id": "ChIJJ6LW5oD_AzQRWt8S72k8NCs",
      "types": [
        "premise"
      ]
    },
    {
      "address_components": [
        {
          "long_name": "Kenbo Commercial Building",
          "short_name": "Kenbo Commercial Building",
          "types": [
            "premise"
          ]
        },
        {
          "long_name": "335-339",
          "short_name": "335-339",
          "types": [
            "street_number"
          ]
        },
        {
          "long_name": "Queen's Road West",
          "short_name": "Queen's Rd W",
          "types": [
            "route"
          ]
        },
        {
          "long_name": "Sai Ying Pun",
          "short_name": "Sai Ying Pun",
          "types": [
            "neighborhood",
            "political"
          ]
        },
        {
          "long_name": "Hong Kong Island",
          "short_name": "Hong Kong Island",
          "types": [
            "administrative_area_level_1",
            "political"
          ]
        },
        {
          "long_name": "Hong Kong",
          "short_name": "HK",
          "types": [
            "country",
            "political"
          ]
        }
      ],
      "formatted_address": "Kenbo Commercial Building, 335-339 Queen's Rd W, Sai Ying Pun, Hong Kong",
      "geometry": {
        "bounds": {
          "northeast": {
            "lat": 22.2871609,
            "lng": 114.1414209
          },
          "southwest": {
            "lat": 22.2870619,
            "lng": 114.141297
          }
        },
        "location": {
          "lat": 22.2871167,
          "lng": 114.1413575
        },
        "location_type": "ROOFTOP",
        "viewport": {
          "northeast": {
            "lat": 22.2884603802915,
            "lng": 114.1427079302915
          },
          "southwest": {
            "lat": 22.2857624197085,
            "lng": 114.1400099697085
          }
        }
      },
      "partial_match": true,
      "place_id": "ChIJJ6LW5oD_AzQRWt8S72k8NCs",
      "types": [
        "premise"
      ]
    }
  ],
  "geocode_tc": [
    {
      "address_components": [
        {
          "long_name": "\u5d11\u4fdd\u5546\u696d\u5927\u5ec8",
          "short_name": "\u5d11\u4fdd\u5546\u696d\u5927\u5ec8",
          "types": [
            "premise"
          ]
        },
        {
          "long_name": "\u7687\u540e\u5927\u9053\u897f",
          "short_name": "\u7687\u540e\u5927\u9053\u897f",
          "types": [
            "route"
          ]
        },
        {
          "long_name": "\u897f\u71df\u76e4",
          "short_name": "\u897f\u71df\u76e4",
          "types": [
            "neighborhood",
            "political"
          ]
        },
        {
          "long_name": "\u9999\u6e2f\u5cf6",
          "short_name": "\u9999\u6e2f\u5cf6",
          "types": [
            "administrative_area_level_1",
            "political"
          ]
        },
        {
          "long_name": "\u9999\u6e2f",
          "short_name": "HK",
          "types": [
            "country",
            "political"
          ]
        }
      ],
      "formatted_address": "\u9999\u6e2f\u897f\u71df\u76e4\u7687\u540e\u5927\u9053\u897f\u5d11\u4fdd\u5546\u696d\u5927\u5ec8",
      "geometry": {
        "location": {
          "lat": 22.2869929,
          "lng": 114.1413419
        },
        "location_type": "ROOFTOP",
        "viewport": {
          "northeast": {
            "lat": 22.2883418802915,
            "lng": 114.1426908802915
          },
          "southwest": {
            "lat": 22.28564391970849,
            "lng": 114.1399929197085
          }
        }
      },
      "place_id": "ChIJrVLfvoT_AzQRL_egBQjRk90",
      "plus_code": {
        "compound_code": "74PR+QG \u9999\u6e2f\u897f\u71df\u76e4",
        "global_code": "7PJP74PR+QG"
      },
      "types": [
        "establishment",
        "food",
        "point_of_interest",
        "restaurant"
      ]
    }
  ],
  "licno": "3118807611",
  "timestamp": 1564975666,
  "version": "1564966095"
}
