{
  "adr_en": "Asia Pacific Catering, PORTION OF LG2 AND THE \u201cFOOD HALL\u201d - 3/F., MAIN BLOCK, PAMELA YOUDE NETHERSOLE EASTERN HOSPITAL, 3 LOK MAN ROAD, CHAI WAN, HONG KONG",
  "adr_tc": "\u9999\u6e2f\u67f4\u7063\u6a02\u6c11\u90533\u865f\u6771\u5340\u5c24\u5fb7\u592b\u4eba\u90a3\u6253\u7d20\u91ab\u9662\u4e3b\u5ea7\u5927\u6a13\u4e09\u6a13 \u91ab\u9662\u9910\u5ef3\u548cLG2\u5c64\u90e8\u4efd \u6cdb\u4e9e\u98f2\u98df",
  "geocode_en": [
    {
      "address_components": [
        {
          "long_name": "Pamela Youde Nethersole Eastern Hospital Main Block",
          "short_name": "Pamela Youde Nethersole Eastern Hospital Main Block",
          "types": [
            "premise"
          ]
        },
        {
          "long_name": "3",
          "short_name": "3",
          "types": [
            "street_number"
          ]
        },
        {
          "long_name": "Lok Man Road",
          "short_name": "Lok Man Rd",
          "types": [
            "route"
          ]
        },
        {
          "long_name": "Sai Wan Shan",
          "short_name": "Sai Wan Shan",
          "types": [
            "neighborhood",
            "political"
          ]
        },
        {
          "long_name": "Hong Kong Island",
          "short_name": "Hong Kong Island",
          "types": [
            "administrative_area_level_1",
            "political"
          ]
        },
        {
          "long_name": "Hong Kong",
          "short_name": "HK",
          "types": [
            "country",
            "political"
          ]
        }
      ],
      "formatted_address": "Pamela Youde Nethersole Eastern Hospital Main Block, 3 Lok Man Rd, Sai Wan Shan, Hong Kong",
      "geometry": {
        "bounds": {
          "northeast": {
            "lat": 22.270174,
            "lng": 114.2370784
          },
          "southwest": {
            "lat": 22.2689339,
            "lng": 114.2354778
          }
        },
        "location": {
          "lat": 22.2694517,
          "lng": 114.2363751
        },
        "location_type": "ROOFTOP",
        "viewport": {
          "northeast": {
            "lat": 22.2709029302915,
            "lng": 114.2376270802915
          },
          "southwest": {
            "lat": 22.2682049697085,
            "lng": 114.2349291197085
          }
        }
      },
      "partial_match": true,
      "place_id": "ChIJh-Y7IYcBBDQRHrqzjPcGLFQ",
      "types": [
        "premise"
      ]
    }
  ],
  "geocode_tc": [
    {
      "address_components": [
        {
          "long_name": "\u6771\u5340\u5c24\u5fb7\u592b\u4eba\u90a3\u6253\u7d20\u91ab\u9662\u4e3b\u5ea7\u5927\u6a13",
          "short_name": "\u6771\u5340\u5c24\u5fb7\u592b\u4eba\u90a3\u6253\u7d20\u91ab\u9662\u4e3b\u5ea7\u5927\u6a13",
          "types": [
            "premise"
          ]
        },
        {
          "long_name": "3",
          "short_name": "3",
          "types": [
            "street_number"
          ]
        },
        {
          "long_name": "\u6a02\u6c11\u9053",
          "short_name": "\u6a02\u6c11\u9053",
          "types": [
            "route"
          ]
        },
        {
          "long_name": "\u897f\u7063\u5c71",
          "short_name": "\u897f\u7063\u5c71",
          "types": [
            "neighborhood",
            "political"
          ]
        },
        {
          "long_name": "\u9999\u6e2f\u5cf6",
          "short_name": "\u9999\u6e2f\u5cf6",
          "types": [
            "administrative_area_level_1",
            "political"
          ]
        },
        {
          "long_name": "\u9999\u6e2f",
          "short_name": "HK",
          "types": [
            "country",
            "political"
          ]
        }
      ],
      "formatted_address": "\u9999\u6e2f\u897f\u7063\u5c71\u6a02\u6c11\u90533\u865f\u6771\u5340\u5c24\u5fb7\u592b\u4eba\u90a3\u6253\u7d20\u91ab\u9662\u4e3b\u5ea7\u5927\u6a13",
      "geometry": {
        "bounds": {
          "northeast": {
            "lat": 22.270174,
            "lng": 114.2370784
          },
          "southwest": {
            "lat": 22.2689339,
            "lng": 114.2354778
          }
        },
        "location": {
          "lat": 22.2694517,
          "lng": 114.2363751
        },
        "location_type": "ROOFTOP",
        "viewport": {
          "northeast": {
            "lat": 22.2709029302915,
            "lng": 114.2376270802915
          },
          "southwest": {
            "lat": 22.2682049697085,
            "lng": 114.2349291197085
          }
        }
      },
      "partial_match": true,
      "place_id": "ChIJh-Y7IYcBBDQRHrqzjPcGLFQ",
      "types": [
        "premise"
      ]
    }
  ],
  "licno": "2211801403",
  "timestamp": 1564966180,
  "version": "1564966095"
}
