{
  "adr_en": "\u96f2\u5ddd\u71d2, SHOP A27, G/F, GOODRICH GARDEN SHOPPING ARCADE, 9 LEUNG TAK STREET, TUEN MUN, NEW TERRITORIES",
  "adr_tc": "\u65b0\u754c\u5c6f\u9580\u826f\u5fb7\u88579\u865f\u76c8\u8c50\u5546\u5834\u5730\u4e0bA27\u92ea \u96f2\u5ddd\u71d2",
  "geocode_en": [
    {
      "address_components": [
        {
          "long_name": "Hong Kong",
          "short_name": "HK",
          "types": [
            "country",
            "political"
          ]
        }
      ],
      "formatted_address": "Hong Kong, \u5c6f\u9580\u826f\u5fb7\u8857\u76c8\u8c50\u5546\u5834\u5730\u4e0bA47\u865f\u8216",
      "geometry": {
        "location": {
          "lat": 22.409164,
          "lng": 113.967648
        },
        "location_type": "GEOMETRIC_CENTER",
        "viewport": {
          "northeast": {
            "lat": 22.4105129802915,
            "lng": 113.9689969802915
          },
          "southwest": {
            "lat": 22.4078150197085,
            "lng": 113.9662990197085
          }
        }
      },
      "partial_match": true,
      "place_id": "ChIJ_5yQQtj6AzQR7cJEwto4jyo",
      "plus_code": {
        "compound_code": "CX59+M3 Hong Kong",
        "global_code": "7PJMCX59+M3"
      },
      "types": [
        "establishment",
        "food",
        "point_of_interest",
        "restaurant"
      ]
    },
    {
      "address_components": [
        {
          "long_name": "Goodrich Garden",
          "short_name": "Goodrich Garden",
          "types": [
            "premise"
          ]
        },
        {
          "long_name": "Leung Tak Street",
          "short_name": "Leung Tak St",
          "types": [
            "route"
          ]
        },
        {
          "long_name": "Tuen Mun",
          "short_name": "Tuen Mun",
          "types": [
            "neighborhood",
            "political"
          ]
        },
        {
          "long_name": "New Territories",
          "short_name": "New Territories",
          "types": [
            "administrative_area_level_1",
            "political"
          ]
        },
        {
          "long_name": "Hong Kong",
          "short_name": "HK",
          "types": [
            "country",
            "political"
          ]
        }
      ],
      "formatted_address": "Goodrich Garden, Leung Tak St, Tuen Mun, Hong Kong",
      "geometry": {
        "location": {
          "lat": 22.4085037,
          "lng": 113.9676793
        },
        "location_type": "ROOFTOP",
        "viewport": {
          "northeast": {
            "lat": 22.4098526802915,
            "lng": 113.9690282802915
          },
          "southwest": {
            "lat": 22.4071547197085,
            "lng": 113.9663303197085
          }
        }
      },
      "partial_match": true,
      "place_id": "ChIJBXOgIAP7AzQRuU6Ey9CTuqY",
      "plus_code": {
        "compound_code": "CX59+C3 Tuen Mun, Hong Kong",
        "global_code": "7PJMCX59+C3"
      },
      "types": [
        "establishment",
        "point_of_interest",
        "shopping_mall"
      ]
    }
  ],
  "geocode_tc": [
    {
      "address_components": [
        {
          "long_name": "\u9999\u6e2f",
          "short_name": "HK",
          "types": [
            "country",
            "political"
          ]
        }
      ],
      "formatted_address": "\u9999\u6e2f\u5c6f\u9580\u826f\u5fb7\u8857\u76c8\u8c50\u5546\u5834\u5730\u4e0bA47\u865f\u8216",
      "geometry": {
        "location": {
          "lat": 22.409164,
          "lng": 113.967648
        },
        "location_type": "GEOMETRIC_CENTER",
        "viewport": {
          "northeast": {
            "lat": 22.4105129802915,
            "lng": 113.9689969802915
          },
          "southwest": {
            "lat": 22.4078150197085,
            "lng": 113.9662990197085
          }
        }
      },
      "place_id": "ChIJ_5yQQtj6AzQR7cJEwto4jyo",
      "plus_code": {
        "compound_code": "CX59+M3 \u9999\u6e2f",
        "global_code": "7PJMCX59+M3"
      },
      "types": [
        "establishment",
        "food",
        "point_of_interest",
        "restaurant"
      ]
    }
  ],
  "licno": "3193801320",
  "timestamp": 1564975666,
  "version": "1564966095"
}
