{
  "adr_en": "KCAL, G/F., NO. 88 SHAM TSENG RESITE VILLAGE AND THE OUTSIDE SEATING AREA AT SHOP FRONT, SHAM TSENG, TSUEN WAN, NEW TERRITORIES",
  "adr_tc": "\u65b0\u754c\u8343\u7063\u6df1\u4e95\u6df1\u4e95\u91cd\u5efa\u675188\u865f \u5730\u4e0b\u53ca\u5e97\u8216\u524d\u7684\u9732\u5929\u5ea7\u4f4d KCAL",
  "geocode_en": [
    {
      "address_components": [
        {
          "long_name": "Sham Tseng",
          "short_name": "Sham Tseng",
          "types": [
            "neighborhood",
            "political"
          ]
        },
        {
          "long_name": "New Territories",
          "short_name": "New Territories",
          "types": [
            "administrative_area_level_1",
            "political"
          ]
        },
        {
          "long_name": "Hong Kong",
          "short_name": "HK",
          "types": [
            "country",
            "political"
          ]
        }
      ],
      "formatted_address": "Sham Tseng, Hong Kong",
      "geometry": {
        "bounds": {
          "northeast": {
            "lat": 22.374593,
            "lng": 114.0692156
          },
          "southwest": {
            "lat": 22.3632081,
            "lng": 114.0491796
          }
        },
        "location": {
          "lat": 22.3685873,
          "lng": 114.0599175
        },
        "location_type": "APPROXIMATE",
        "viewport": {
          "northeast": {
            "lat": 22.374593,
            "lng": 114.0692156
          },
          "southwest": {
            "lat": 22.3632081,
            "lng": 114.0491796
          }
        }
      },
      "partial_match": true,
      "place_id": "ChIJM3o6jV_5AzQRLow1zUseG_w",
      "types": [
        "neighborhood",
        "political"
      ]
    }
  ],
  "geocode_tc": [
    {
      "address_components": [
        {
          "long_name": "\u6df1\u4e95",
          "short_name": "\u6df1\u4e95",
          "types": [
            "neighborhood",
            "political"
          ]
        },
        {
          "long_name": "\u65b0\u754c",
          "short_name": "\u65b0\u754c",
          "types": [
            "administrative_area_level_1",
            "political"
          ]
        },
        {
          "long_name": "\u9999\u6e2f",
          "short_name": "HK",
          "types": [
            "country",
            "political"
          ]
        }
      ],
      "formatted_address": "\u9999\u6e2f\u6df1\u4e95",
      "geometry": {
        "location": {
          "lat": 22.367102,
          "lng": 114.058809
        },
        "location_type": "APPROXIMATE",
        "viewport": {
          "northeast": {
            "lat": 22.3774201,
            "lng": 114.0748164
          },
          "southwest": {
            "lat": 22.3567831,
            "lng": 114.0428016
          }
        }
      },
      "partial_match": true,
      "place_id": "ChIJJz167Fz5AzQR8F_Q6AuhAAk",
      "types": [
        "neighborhood",
        "political"
      ]
    },
    {
      "address_components": [
        {
          "long_name": "\u8343\u7063",
          "short_name": "\u8343\u7063",
          "types": [
            "neighborhood",
            "political"
          ]
        },
        {
          "long_name": "\u65b0\u754c",
          "short_name": "\u65b0\u754c",
          "types": [
            "administrative_area_level_1",
            "political"
          ]
        },
        {
          "long_name": "\u9999\u6e2f",
          "short_name": "HK",
          "types": [
            "country",
            "political"
          ]
        }
      ],
      "formatted_address": "\u9999\u6e2f\u8343\u7063",
      "geometry": {
        "bounds": {
          "northeast": {
            "lat": 22.3865131,
            "lng": 114.12351
          },
          "southwest": {
            "lat": 22.354937,
            "lng": 114.083911
          }
        },
        "location": {
          "lat": 22.3699122,
          "lng": 114.1144306
        },
        "location_type": "APPROXIMATE",
        "viewport": {
          "northeast": {
            "lat": 22.3865131,
            "lng": 114.12351
          },
          "southwest": {
            "lat": 22.354937,
            "lng": 114.083911
          }
        }
      },
      "partial_match": true,
      "place_id": "ChIJmXQjje74AzQRsINigpbDAAo",
      "types": [
        "neighborhood",
        "political"
      ]
    }
  ],
  "licno": "2292002858",
  "timestamp": 1564968756,
  "version": "1564966095"
}
