{
  "adr_en": "Lung Mun Kitchen, SHOP 2, G/F, CHEONG WAH BUILDING, 9-15 LUEN CHEONG STREET, FANLING, NEW TERRITORIES",
  "adr_tc": "\u65b0\u754c\u7c89\u5dba\u806f\u660c\u88579-15\u865f\u660c\u83ef\u6a13\u5730\u4e0b2\u92ea \u74cf\u9580\u5c0f\u5eda",
  "geocode_en": [
    {
      "address_components": [
        {
          "long_name": "Cheong Wah Building",
          "short_name": "Cheong Wah Building",
          "types": [
            "premise"
          ]
        },
        {
          "long_name": "9-15",
          "short_name": "9-15",
          "types": [
            "street_number"
          ]
        },
        {
          "long_name": "Luen Cheong Street",
          "short_name": "Luen Cheong St",
          "types": [
            "route"
          ]
        },
        {
          "long_name": "Fanling",
          "short_name": "Fanling",
          "types": [
            "neighborhood",
            "political"
          ]
        },
        {
          "long_name": "New Territories",
          "short_name": "New Territories",
          "types": [
            "administrative_area_level_1",
            "political"
          ]
        },
        {
          "long_name": "Hong Kong",
          "short_name": "HK",
          "types": [
            "country",
            "political"
          ]
        }
      ],
      "formatted_address": "Cheong Wah Building, 9-15 Luen Cheong St, Fanling, Hong Kong",
      "geometry": {
        "bounds": {
          "northeast": {
            "lat": 22.4991031,
            "lng": 114.143434
          },
          "southwest": {
            "lat": 22.498923,
            "lng": 114.1432491
          }
        },
        "location": {
          "lat": 22.4990262,
          "lng": 114.1433548
        },
        "location_type": "ROOFTOP",
        "viewport": {
          "northeast": {
            "lat": 22.5003620302915,
            "lng": 114.1446905302915
          },
          "southwest": {
            "lat": 22.4976640697085,
            "lng": 114.1419925697085
          }
        }
      },
      "partial_match": true,
      "place_id": "ChIJQ0nQjR32AzQR4J68hybN-yM",
      "types": [
        "premise"
      ]
    }
  ],
  "geocode_tc": [
    {
      "address_components": [
        {
          "long_name": "11\u865f",
          "short_name": "11\u865f",
          "types": [
            "street_number"
          ]
        },
        {
          "long_name": "\u806f\u660c\u8857",
          "short_name": "\u806f\u660c\u8857",
          "types": [
            "route"
          ]
        },
        {
          "long_name": "Fanling",
          "short_name": "Fanling",
          "types": [
            "neighborhood",
            "political"
          ]
        },
        {
          "long_name": "\u65b0\u754c",
          "short_name": "\u65b0\u754c",
          "types": [
            "administrative_area_level_1",
            "political"
          ]
        },
        {
          "long_name": "\u9999\u6e2f",
          "short_name": "HK",
          "types": [
            "country",
            "political"
          ]
        }
      ],
      "formatted_address": "\u9999\u6e2fFanling\u806f\u660c\u885711\u865f",
      "geometry": {
        "location": {
          "lat": 22.4990553,
          "lng": 114.1433901
        },
        "location_type": "ROOFTOP",
        "viewport": {
          "northeast": {
            "lat": 22.5004042802915,
            "lng": 114.1447390802915
          },
          "southwest": {
            "lat": 22.4977063197085,
            "lng": 114.1420411197085
          }
        }
      },
      "partial_match": true,
      "place_id": "ChIJbZs206j3AzQR2GjbliAfdWU",
      "plus_code": {
        "compound_code": "F4XV+J9 \u9999\u6e2f",
        "global_code": "7PJPF4XV+J9"
      },
      "types": [
        "establishment",
        "food",
        "point_of_interest",
        "restaurant"
      ]
    },
    {
      "address_components": [
        {
          "long_name": "\u660c\u83ef\u5927\u5ec8",
          "short_name": "\u660c\u83ef\u5927\u5ec8",
          "types": [
            "premise"
          ]
        },
        {
          "long_name": "9-15",
          "short_name": "9-15",
          "types": [
            "street_number"
          ]
        },
        {
          "long_name": "\u806f\u660c\u8857",
          "short_name": "\u806f\u660c\u8857",
          "types": [
            "route"
          ]
        },
        {
          "long_name": "\u7c89\u5dba",
          "short_name": "\u7c89\u5dba",
          "types": [
            "neighborhood",
            "political"
          ]
        },
        {
          "long_name": "\u65b0\u754c",
          "short_name": "\u65b0\u754c",
          "types": [
            "administrative_area_level_1",
            "political"
          ]
        },
        {
          "long_name": "\u9999\u6e2f",
          "short_name": "HK",
          "types": [
            "country",
            "political"
          ]
        }
      ],
      "formatted_address": "\u9999\u6e2f\u7c89\u5dba\u806f\u660c\u88579-15\u865f\u660c\u83ef\u5927\u5ec8",
      "geometry": {
        "bounds": {
          "northeast": {
            "lat": 22.4991031,
            "lng": 114.143434
          },
          "southwest": {
            "lat": 22.498923,
            "lng": 114.1432491
          }
        },
        "location": {
          "lat": 22.4990262,
          "lng": 114.1433548
        },
        "location_type": "ROOFTOP",
        "viewport": {
          "northeast": {
            "lat": 22.5003620302915,
            "lng": 114.1446905302915
          },
          "southwest": {
            "lat": 22.4976640697085,
            "lng": 114.1419925697085
          }
        }
      },
      "partial_match": true,
      "place_id": "ChIJQ0nQjR32AzQR4J68hybN-yM",
      "types": [
        "premise"
      ]
    }
  ],
  "licno": "2296801721",
  "timestamp": 1564975666,
  "version": "1564966095"
}
