{
  "adr_en": "YOO JYO LOUNGE, 2/F, CHINACHEM CAMERON CENTRE, 42-44 CAMERON ROAD, TSIM SHA TSUI, KOWLOON",
  "adr_tc": "\u4e5d\u9f8d\u5c16\u6c99\u5480\u91d1\u99ac\u502b\u905342-44\u865f \u83ef\u61cb\u91d1\u99ac\u502b\u4e2d\u5fc32\u6a13 \u53cb\u60c5\u9152\u5eca",
  "geocode_en": [
    {
      "address_components": [
        {
          "long_name": "Chinachem Cameron Centre",
          "short_name": "Chinachem Cameron Centre",
          "types": [
            "premise"
          ]
        },
        {
          "long_name": "42",
          "short_name": "42",
          "types": [
            "street_number"
          ]
        },
        {
          "long_name": "Cameron Road",
          "short_name": "Cameron Rd",
          "types": [
            "route"
          ]
        },
        {
          "long_name": "Tsim Sha Tsui",
          "short_name": "Tsim Sha Tsui",
          "types": [
            "neighborhood",
            "political"
          ]
        },
        {
          "long_name": "Kowloon",
          "short_name": "Kowloon",
          "types": [
            "administrative_area_level_1",
            "political"
          ]
        },
        {
          "long_name": "Hong Kong",
          "short_name": "HK",
          "types": [
            "country",
            "political"
          ]
        }
      ],
      "formatted_address": "Chinachem Cameron Centre, 42 Cameron Rd, Tsim Sha Tsui, Hong Kong",
      "geometry": {
        "bounds": {
          "northeast": {
            "lat": 22.299138,
            "lng": 114.1749539
          },
          "southwest": {
            "lat": 22.298946,
            "lng": 114.174775
          }
        },
        "location": {
          "lat": 22.2990236,
          "lng": 114.1748452
        },
        "location_type": "ROOFTOP",
        "viewport": {
          "northeast": {
            "lat": 22.3003909802915,
            "lng": 114.1762134302915
          },
          "southwest": {
            "lat": 22.2976930197085,
            "lng": 114.1735154697085
          }
        }
      },
      "partial_match": true,
      "place_id": "ChIJ6Uy9aO4ABDQRhFV-gXIv-L0",
      "types": [
        "premise"
      ]
    }
  ],
  "geocode_tc": [
    {
      "address_components": [
        {
          "long_name": "42",
          "short_name": "42",
          "types": [
            "street_number"
          ]
        },
        {
          "long_name": "Cameron Road",
          "short_name": "Cameron Rd",
          "types": [
            "route"
          ]
        },
        {
          "long_name": "Tsim Sha Tsui",
          "short_name": "Tsim Sha Tsui",
          "types": [
            "neighborhood",
            "political"
          ]
        },
        {
          "long_name": "Kowloon",
          "short_name": "Kowloon",
          "types": [
            "administrative_area_level_1",
            "political"
          ]
        },
        {
          "long_name": "\u9999\u6e2f",
          "short_name": "HK",
          "types": [
            "country",
            "political"
          ]
        }
      ],
      "formatted_address": "\u865f, 42 Cameron Rd, Tsim Sha Tsui, \u9999\u6e2f",
      "geometry": {
        "location": {
          "lat": 22.299042,
          "lng": 114.1748644
        },
        "location_type": "ROOFTOP",
        "viewport": {
          "northeast": {
            "lat": 22.3003909802915,
            "lng": 114.1762133802915
          },
          "southwest": {
            "lat": 22.2976930197085,
            "lng": 114.1735154197085
          }
        }
      },
      "partial_match": true,
      "place_id": "ChIJ60y9aO4ABDQR5dZ99ezJKzk",
      "plus_code": {
        "compound_code": "75XF+JW \u9999\u6e2f",
        "global_code": "7PJP75XF+JW"
      },
      "types": [
        "establishment",
        "point_of_interest",
        "premise"
      ]
    }
  ],
  "licno": "3161230013",
  "timestamp": 1564975666,
  "version": "1564966095"
}
