{
  "adr_en": "Vineyard Karaoke Night Club, 1/F, 6-6C NANKING STREET, JORDAN, KOWLOON",
  "adr_tc": "\u4e5d\u9f8d\u4f50\u6566\u5357\u4eac\u88576-6C\u865f1\u6a13 \u8461\u8404\u5712\u5361\u62c9OK\u591c\u7e3d\u6703",
  "geocode_en": [
    {
      "address_components": [
        {
          "long_name": "Hong Kong",
          "short_name": "HK",
          "types": [
            "country",
            "political"
          ]
        }
      ],
      "formatted_address": "Hong Kong, \u4e5d\u9f8d\u4f50\u6566\u5357\u4eac\u88576-6C\u865f1\u6a13",
      "geometry": {
        "location": {
          "lat": 22.306064,
          "lng": 114.171007
        },
        "location_type": "GEOMETRIC_CENTER",
        "viewport": {
          "northeast": {
            "lat": 22.3074129802915,
            "lng": 114.1723559802915
          },
          "southwest": {
            "lat": 22.3047150197085,
            "lng": 114.1696580197085
          }
        }
      },
      "partial_match": true,
      "place_id": "ChIJVcCXVOoABDQRwCuD1KBUbsI",
      "plus_code": {
        "compound_code": "854C+CC Hong Kong",
        "global_code": "7PJP854C+CC"
      },
      "types": [
        "establishment",
        "point_of_interest"
      ]
    },
    {
      "address_components": [
        {
          "long_name": "1",
          "short_name": "1",
          "types": [
            "subpremise"
          ]
        },
        {
          "long_name": "6-6C",
          "short_name": "6-6C",
          "types": [
            "street_number"
          ]
        },
        {
          "long_name": "Nanking Street",
          "short_name": "Nanking St",
          "types": [
            "route"
          ]
        },
        {
          "long_name": "Yau Ma Tei",
          "short_name": "Yau Ma Tei",
          "types": [
            "neighborhood",
            "political"
          ]
        },
        {
          "long_name": "Kowloon",
          "short_name": "Kowloon",
          "types": [
            "administrative_area_level_1",
            "political"
          ]
        },
        {
          "long_name": "Hong Kong",
          "short_name": "HK",
          "types": [
            "country",
            "political"
          ]
        }
      ],
      "formatted_address": "1, 6-6C Nanking St, Yau Ma Tei, Hong Kong",
      "geometry": {
        "location": {
          "lat": 22.3060292,
          "lng": 114.1709206
        },
        "location_type": "ROOFTOP",
        "viewport": {
          "northeast": {
            "lat": 22.3073781802915,
            "lng": 114.1722695802915
          },
          "southwest": {
            "lat": 22.3046802197085,
            "lng": 114.1695716197085
          }
        }
      },
      "partial_match": true,
      "place_id": "EikxLCA2LTZDIE5hbmtpbmcgU3QsIFlhdSBNYSBUZWksIEhvbmcgS29uZyIdGhsKFgoUChIJyb6-VOoABDQRxvKDLtWjEY0SATE",
      "types": [
        "subpremise"
      ]
    },
    {
      "address_components": [
        {
          "long_name": "F",
          "short_name": "F",
          "types": [
            "subpremise"
          ]
        },
        {
          "long_name": "6-6C",
          "short_name": "6-6C",
          "types": [
            "street_number"
          ]
        },
        {
          "long_name": "Nanking Street",
          "short_name": "Nanking St",
          "types": [
            "route"
          ]
        },
        {
          "long_name": "Yau Ma Tei",
          "short_name": "Yau Ma Tei",
          "types": [
            "neighborhood",
            "political"
          ]
        },
        {
          "long_name": "Kowloon",
          "short_name": "Kowloon",
          "types": [
            "administrative_area_level_1",
            "political"
          ]
        },
        {
          "long_name": "Hong Kong",
          "short_name": "HK",
          "types": [
            "country",
            "political"
          ]
        }
      ],
      "formatted_address": "F, 6-6C Nanking St, Yau Ma Tei, Hong Kong",
      "geometry": {
        "location": {
          "lat": 22.3060292,
          "lng": 114.1709206
        },
        "location_type": "ROOFTOP",
        "viewport": {
          "northeast": {
            "lat": 22.3073781802915,
            "lng": 114.1722695802915
          },
          "southwest": {
            "lat": 22.3046802197085,
            "lng": 114.1695716197085
          }
        }
      },
      "partial_match": true,
      "place_id": "EilGLCA2LTZDIE5hbmtpbmcgU3QsIFlhdSBNYSBUZWksIEhvbmcgS29uZyIdGhsKFgoUChIJyb6-VOoABDQRxvKDLtWjEY0SAUY",
      "types": [
        "subpremise"
      ]
    }
  ],
  "geocode_tc": [
    {
      "address_components": [
        {
          "long_name": "\u9999\u6e2f",
          "short_name": "HK",
          "types": [
            "country",
            "political"
          ]
        }
      ],
      "formatted_address": "\u9999\u6e2f\u4e5d\u9f8d\u4f50\u6566\u5357\u4eac\u88576-6C\u865f1\u6a13",
      "geometry": {
        "location": {
          "lat": 22.306064,
          "lng": 114.171007
        },
        "location_type": "GEOMETRIC_CENTER",
        "viewport": {
          "northeast": {
            "lat": 22.3074129802915,
            "lng": 114.1723559802915
          },
          "southwest": {
            "lat": 22.3047150197085,
            "lng": 114.1696580197085
          }
        }
      },
      "place_id": "ChIJVcCXVOoABDQRwCuD1KBUbsI",
      "plus_code": {
        "compound_code": "854C+CC \u9999\u6e2f",
        "global_code": "7PJP854C+CC"
      },
      "types": [
        "establishment",
        "point_of_interest"
      ]
    }
  ],
  "licno": "3161013669",
  "timestamp": 1564975666,
  "version": "1564966095"
}
