{
  "adr_en": "Gemini Teahouse, SHOP E, G/F, TONY COURT, 6-16 TUNG CHEONG STREET, TAI PO, NEW TERRITORIES",
  "adr_tc": "\u65b0\u754c\u5927\u57d4\u6771\u660c\u88576-16\u865f\u6771\u660c\u95a3\u5730\u4e0bE\u92ea \u96d9\u5b50\u8336\u5ea7",
  "geocode_en": [
    {
      "address_components": [
        {
          "long_name": "Tony Court",
          "short_name": "Tony Court",
          "types": [
            "premise"
          ]
        },
        {
          "long_name": "6",
          "short_name": "6",
          "types": [
            "street_number"
          ]
        },
        {
          "long_name": "Tung Cheung Street",
          "short_name": "Tung Cheung St",
          "types": [
            "route"
          ]
        },
        {
          "long_name": "Tai Po",
          "short_name": "Tai Po",
          "types": [
            "neighborhood",
            "political"
          ]
        },
        {
          "long_name": "New Territories",
          "short_name": "New Territories",
          "types": [
            "administrative_area_level_1",
            "political"
          ]
        },
        {
          "long_name": "Hong Kong",
          "short_name": "HK",
          "types": [
            "country",
            "political"
          ]
        }
      ],
      "formatted_address": "Tony Court, 6 Tung Cheung St, Tai Po, Hong Kong",
      "geometry": {
        "bounds": {
          "northeast": {
            "lat": 22.448165,
            "lng": 114.1696941
          },
          "southwest": {
            "lat": 22.447866,
            "lng": 114.1694179
          }
        },
        "location": {
          "lat": 22.4480052,
          "lng": 114.1695505
        },
        "location_type": "ROOFTOP",
        "viewport": {
          "northeast": {
            "lat": 22.4493644802915,
            "lng": 114.1709049802915
          },
          "southwest": {
            "lat": 22.4466665197085,
            "lng": 114.1682070197085
          }
        }
      },
      "partial_match": true,
      "place_id": "ChIJv8otyUAIBDQRzE72jKYypIc",
      "types": [
        "premise"
      ]
    }
  ],
  "geocode_tc": [
    {
      "address_components": [
        {
          "long_name": "6-16",
          "short_name": "6-16",
          "types": [
            "street_number"
          ]
        },
        {
          "long_name": "\u6771\u660c\u8857",
          "short_name": "\u6771\u660c\u8857",
          "types": [
            "route"
          ]
        },
        {
          "long_name": "\u5927\u57d4",
          "short_name": "\u5927\u57d4",
          "types": [
            "neighborhood",
            "political"
          ]
        },
        {
          "long_name": "\u65b0\u754c",
          "short_name": "\u65b0\u754c",
          "types": [
            "administrative_area_level_1",
            "political"
          ]
        },
        {
          "long_name": "\u9999\u6e2f",
          "short_name": "HK",
          "types": [
            "country",
            "political"
          ]
        }
      ],
      "formatted_address": "\u9999\u6e2f\u5927\u57d4\u6771\u660c\u88576-16\u865f\u5730\u4e0b F \u8216",
      "geometry": {
        "location": {
          "lat": 22.4480327,
          "lng": 114.1695309
        },
        "location_type": "ROOFTOP",
        "viewport": {
          "northeast": {
            "lat": 22.4493816802915,
            "lng": 114.1708798802915
          },
          "southwest": {
            "lat": 22.4466837197085,
            "lng": 114.1681819197085
          }
        }
      },
      "place_id": "ChIJfRowyUAIBDQRsEwntHDR2T0",
      "plus_code": {
        "compound_code": "C5X9+6R \u9999\u6e2f",
        "global_code": "7PJPC5X9+6R"
      },
      "types": [
        "establishment",
        "food",
        "point_of_interest",
        "restaurant"
      ]
    }
  ],
  "licno": "3195801290",
  "timestamp": 1564975666,
  "version": "1564966095"
}
