{
  "adr_en": "CURRY HOUSE COCO ICHIBANYA, SHOP L008, G/F, JUSCO LAI CHI KOK STORE, AQUAMARINE, 8 SHAM SHING ROAD, KOWLOON",
  "adr_tc": "\u4e5d\u9f8d\u6df1\u76db\u8def8\u865f\u78a7\u6d77\u85cd\u5929\u5409\u4e4b\u5cf6\u8354\u679d\u89d2\u5e97\u5730\u4e0bL008\u5e97 \u58f9\u756a\u5c4b",
  "geocode_en": [
    {
      "address_components": [
        {
          "long_name": "Hong Kong",
          "short_name": "HK",
          "types": [
            "country",
            "political"
          ]
        }
      ],
      "formatted_address": "All Those Portions Comm Area G/F, 1/F, 2/F, Podium of Aquamarine, 8 Sham Shing Road, Kowloon, Hong Kong",
      "geometry": {
        "location": {
          "lat": 22.332855,
          "lng": 114.149146
        },
        "location_type": "GEOMETRIC_CENTER",
        "viewport": {
          "northeast": {
            "lat": 22.3342039802915,
            "lng": 114.1504949802915
          },
          "southwest": {
            "lat": 22.3315060197085,
            "lng": 114.1477970197085
          }
        }
      },
      "partial_match": true,
      "place_id": "ChIJc3AeZqsABDQRWTJ1RDz705Y",
      "plus_code": {
        "compound_code": "84MX+4M Hong Kong",
        "global_code": "7PJP84MX+4M"
      },
      "types": [
        "establishment",
        "point_of_interest"
      ]
    },
    {
      "address_components": [
        {
          "long_name": "8",
          "short_name": "8",
          "types": [
            "street_number"
          ]
        },
        {
          "long_name": "Sham Shing Road",
          "short_name": "Sham Shing Rd",
          "types": [
            "route"
          ]
        },
        {
          "long_name": "Cheung Sha Wan",
          "short_name": "Cheung Sha Wan",
          "types": [
            "neighborhood",
            "political"
          ]
        },
        {
          "long_name": "Kowloon",
          "short_name": "Kowloon",
          "types": [
            "administrative_area_level_1",
            "political"
          ]
        },
        {
          "long_name": "Hong Kong",
          "short_name": "HK",
          "types": [
            "country",
            "political"
          ]
        }
      ],
      "formatted_address": "8 Sham Shing Rd, Cheung Sha Wan, Hong Kong",
      "geometry": {
        "location": {
          "lat": 22.3333896,
          "lng": 114.1490055
        },
        "location_type": "ROOFTOP",
        "viewport": {
          "northeast": {
            "lat": 22.3347385802915,
            "lng": 114.1503544802915
          },
          "southwest": {
            "lat": 22.3320406197085,
            "lng": 114.1476565197085
          }
        }
      },
      "partial_match": true,
      "place_id": "ChIJp3lCEKsABDQR0qY1E9DHbGg",
      "plus_code": {
        "compound_code": "84MX+9J Hong Kong",
        "global_code": "7PJP84MX+9J"
      },
      "types": [
        "street_address"
      ]
    }
  ],
  "geocode_tc": [
    {
      "address_components": [
        {
          "long_name": "8",
          "short_name": "8",
          "types": [
            "street_number"
          ]
        },
        {
          "long_name": "\u6df1\u76db\u8def",
          "short_name": "\u6df1\u76db\u8def",
          "types": [
            "route"
          ]
        },
        {
          "long_name": "\u9577\u6c99\u7063",
          "short_name": "\u9577\u6c99\u7063",
          "types": [
            "neighborhood",
            "political"
          ]
        },
        {
          "long_name": "\u9999\u6e2f",
          "short_name": "HK",
          "types": [
            "country",
            "political"
          ]
        }
      ],
      "formatted_address": "\u9999\u6e2f\u9577\u6c99\u7063\u6df1\u76db\u8def8\u865f\u865f \u78a7\u6d77 \u85cd\u5929 AEON \u8d85\u7d1a \u5dff \u5834 \u5730\u4e0b L008 \u865f \u8216",
      "geometry": {
        "location": {
          "lat": 22.332444,
          "lng": 114.148614
        },
        "location_type": "ROOFTOP",
        "viewport": {
          "northeast": {
            "lat": 22.3337929802915,
            "lng": 114.1499629802915
          },
          "southwest": {
            "lat": 22.3310950197085,
            "lng": 114.1472650197085
          }
        }
      },
      "place_id": "ChIJo6DkbKsABDQRnLpOmq_ievk",
      "plus_code": {
        "compound_code": "84JX+XC \u9999\u6e2f",
        "global_code": "7PJP84JX+XC"
      },
      "types": [
        "establishment",
        "food",
        "point_of_interest",
        "restaurant"
      ]
    },
    {
      "address_components": [
        {
          "long_name": "\u9999\u6e2f",
          "short_name": "HK",
          "types": [
            "country",
            "political"
          ]
        }
      ],
      "formatted_address": "\u4e5d\u9f8d\u6df1\u76db\u8def8\u865f\u78a7\u6d77\u85cd\u5929\u5730\u4e0b\u81f3\u4e8c\u6a13, \u9999\u6e2f",
      "geometry": {
        "location": {
          "lat": 22.3322222,
          "lng": 114.1486111
        },
        "location_type": "GEOMETRIC_CENTER",
        "viewport": {
          "northeast": {
            "lat": 22.3335711802915,
            "lng": 114.1499600802915
          },
          "southwest": {
            "lat": 22.3308732197085,
            "lng": 114.1472621197085
          }
        }
      },
      "place_id": "ChIJYRUOdKsABDQRf1mCOYIbAFo",
      "plus_code": {
        "compound_code": "84JX+VC \u9999\u6e2f",
        "global_code": "7PJP84JX+VC"
      },
      "types": [
        "department_store",
        "establishment",
        "point_of_interest",
        "shopping_mall",
        "store"
      ]
    }
  ],
  "licno": "2263802885",
  "timestamp": 1564968756,
  "version": "1564966095"
}
