{
  "adr_en": "\u6771\u8208, SHOP G, H & I ON G/F., KWONG ON BUILDING, 20-26 WAN TAU STREET, TAI PO, NEW TERRITORIES",
  "adr_tc": "\u65b0\u754c\u5927\u57d4\u904b\u982d\u885720-26\u865f \u5ee3\u5b89\u5927\u5ec8\u5730\u4e0b \u7b2c G, H & I \u865f\u92ea \u6771\u8208",
  "geocode_en": [
    {
      "address_components": [
        {
          "long_name": "Kwong On Building",
          "short_name": "Kwong On Building",
          "types": [
            "premise"
          ]
        },
        {
          "long_name": "20",
          "short_name": "20",
          "types": [
            "street_number"
          ]
        },
        {
          "long_name": "Wan Tau Street",
          "short_name": "Wan Tau St",
          "types": [
            "route"
          ]
        },
        {
          "long_name": "Tai Po",
          "short_name": "Tai Po",
          "types": [
            "neighborhood",
            "political"
          ]
        },
        {
          "long_name": "New Territories",
          "short_name": "New Territories",
          "types": [
            "administrative_area_level_1",
            "political"
          ]
        },
        {
          "long_name": "Hong Kong",
          "short_name": "HK",
          "types": [
            "country",
            "political"
          ]
        }
      ],
      "formatted_address": "Kwong On Building, 20 Wan Tau St, Tai Po, Hong Kong",
      "geometry": {
        "bounds": {
          "northeast": {
            "lat": 22.447259,
            "lng": 114.168808
          },
          "southwest": {
            "lat": 22.4469669,
            "lng": 114.168362
          }
        },
        "location": {
          "lat": 22.4471461,
          "lng": 114.1685055
        },
        "location_type": "ROOFTOP",
        "viewport": {
          "northeast": {
            "lat": 22.4484619302915,
            "lng": 114.1699339802915
          },
          "southwest": {
            "lat": 22.4457639697085,
            "lng": 114.1672360197085
          }
        }
      },
      "partial_match": true,
      "place_id": "ChIJSSmkl0AIBDQRQuwqGeae2Yo",
      "types": [
        "premise"
      ]
    }
  ],
  "geocode_tc": [
    {
      "address_components": [
        {
          "long_name": "\u5ee3\u5b89\u5927\u5ec8",
          "short_name": "\u5ee3\u5b89\u5927\u5ec8",
          "types": [
            "premise"
          ]
        },
        {
          "long_name": "20",
          "short_name": "20",
          "types": [
            "street_number"
          ]
        },
        {
          "long_name": "\u904b\u982d\u8857",
          "short_name": "\u904b\u982d\u8857",
          "types": [
            "route"
          ]
        },
        {
          "long_name": "\u5927\u57d4",
          "short_name": "\u5927\u57d4",
          "types": [
            "neighborhood",
            "political"
          ]
        },
        {
          "long_name": "\u65b0\u754c",
          "short_name": "\u65b0\u754c",
          "types": [
            "administrative_area_level_1",
            "political"
          ]
        },
        {
          "long_name": "\u9999\u6e2f",
          "short_name": "HK",
          "types": [
            "country",
            "political"
          ]
        }
      ],
      "formatted_address": "\u9999\u6e2f\u5927\u57d4\u904b\u982d\u885720\u865f\u5ee3\u5b89\u5927\u5ec8",
      "geometry": {
        "bounds": {
          "northeast": {
            "lat": 22.447259,
            "lng": 114.168808
          },
          "southwest": {
            "lat": 22.4469669,
            "lng": 114.168362
          }
        },
        "location": {
          "lat": 22.4471461,
          "lng": 114.1685055
        },
        "location_type": "ROOFTOP",
        "viewport": {
          "northeast": {
            "lat": 22.4484619302915,
            "lng": 114.1699339802915
          },
          "southwest": {
            "lat": 22.4457639697085,
            "lng": 114.1672360197085
          }
        }
      },
      "partial_match": true,
      "place_id": "ChIJSSmkl0AIBDQRQuwqGeae2Yo",
      "types": [
        "premise"
      ]
    },
    {
      "address_components": [
        {
          "long_name": "\u5927\u57d4",
          "short_name": "\u5927\u57d4",
          "types": [
            "neighborhood",
            "political"
          ]
        },
        {
          "long_name": "\u65b0\u754c",
          "short_name": "\u65b0\u754c",
          "types": [
            "administrative_area_level_1",
            "political"
          ]
        },
        {
          "long_name": "\u9999\u6e2f",
          "short_name": "HK",
          "types": [
            "country",
            "political"
          ]
        }
      ],
      "formatted_address": "\u9999\u6e2f\u5927\u57d4\u904b\u982d\u885720\u865f\uff0c\u5ee3\u5b89\u5927\u53a6\uff0c\u5730\u4e0b",
      "geometry": {
        "location": {
          "lat": 22.4471461,
          "lng": 114.1685055
        },
        "location_type": "GEOMETRIC_CENTER",
        "viewport": {
          "northeast": {
            "lat": 22.4484950802915,
            "lng": 114.1698544802915
          },
          "southwest": {
            "lat": 22.44579711970849,
            "lng": 114.1671565197085
          }
        }
      },
      "partial_match": true,
      "place_id": "ChIJIfIKl0AIBDQRrZsmYjMIq3I",
      "plus_code": {
        "compound_code": "C5W9+VC \u9999\u6e2f\u5927\u57d4",
        "global_code": "7PJPC5W9+VC"
      },
      "types": [
        "establishment",
        "food",
        "point_of_interest",
        "restaurant"
      ]
    }
  ],
  "licno": "2295800068",
  "timestamp": 1564975666,
  "version": "1564966095"
}
