{
  "adr_en": "Watami Japanese Dining (Grand Tower Shop) / Pastaholic, SHOP 208, 2/F, ONE GRAND TOWER, 639 NATHAN ROAD, MONG KOK, KOWLOON",
  "adr_tc": "\u4e5d\u9f8d\u65fa\u89d2\u5f4c\u6566\u9053639\u865f\u96c5\u862d\u4e2d\u5fc3\u4e00\u671f2\u6a13208\u865f\u8216 \u5c45\u98df\u5c4b\u548c\u6c11(\u96c5\u862d\u4e2d\u5fc3\u5e97)",
  "geocode_en": [
    {
      "address_components": [
        {
          "long_name": "639\u865f",
          "short_name": "639\u865f",
          "types": [
            "street_number"
          ]
        },
        {
          "long_name": "Nathan Road",
          "short_name": "Nathan Rd",
          "types": [
            "route"
          ]
        },
        {
          "long_name": "Mong Kok",
          "short_name": "Mong Kok",
          "types": [
            "neighborhood",
            "political"
          ]
        },
        {
          "long_name": "Kowloon",
          "short_name": "Kowloon",
          "types": [
            "administrative_area_level_1",
            "political"
          ]
        },
        {
          "long_name": "Hong Kong",
          "short_name": "HK",
          "types": [
            "country",
            "political"
          ]
        }
      ],
      "formatted_address": "639\u865f Nathan Rd, Mong Kok, Hong Kong",
      "geometry": {
        "location": {
          "lat": 22.3181087,
          "lng": 114.1693955
        },
        "location_type": "ROOFTOP",
        "viewport": {
          "northeast": {
            "lat": 22.3194576802915,
            "lng": 114.1707444802915
          },
          "southwest": {
            "lat": 22.3167597197085,
            "lng": 114.1680465197085
          }
        }
      },
      "partial_match": true,
      "place_id": "ChIJYUGMoscABDQR9PViJawbRQk",
      "plus_code": {
        "compound_code": "8599+6Q Hong Kong",
        "global_code": "7PJP8599+6Q"
      },
      "types": [
        "establishment",
        "food",
        "point_of_interest",
        "restaurant"
      ]
    },
    {
      "address_components": [
        {
          "long_name": "Hong Kong",
          "short_name": "HK",
          "types": [
            "country",
            "political"
          ]
        }
      ],
      "formatted_address": "Hong Kong, \u5f4c\u6566\u9053639\u865f \u96c5\u862d\u4e2d\u5fc3\u4e00\u671f8\u6a13835\u5ba4",
      "geometry": {
        "location": {
          "lat": 22.317912,
          "lng": 114.169191
        },
        "location_type": "GEOMETRIC_CENTER",
        "viewport": {
          "northeast": {
            "lat": 22.3192609802915,
            "lng": 114.1705399802915
          },
          "southwest": {
            "lat": 22.3165630197085,
            "lng": 114.1678420197085
          }
        }
      },
      "partial_match": true,
      "place_id": "ChIJ41KCmMcABDQRXb84QUsRPJc",
      "types": [
        "establishment",
        "point_of_interest"
      ]
    }
  ],
  "geocode_tc": [
    {
      "address_components": [
        {
          "long_name": "\u9999\u6e2f",
          "short_name": "HK",
          "types": [
            "country",
            "political"
          ]
        }
      ],
      "formatted_address": "\u9999\u6e2fMong Kok \u96c5\u862d\u4e2d\u5fc32\u6a13208\u865f\u8216",
      "geometry": {
        "location": {
          "lat": 22.3180548,
          "lng": 114.1692267
        },
        "location_type": "GEOMETRIC_CENTER",
        "viewport": {
          "northeast": {
            "lat": 22.3194037802915,
            "lng": 114.1705756802915
          },
          "southwest": {
            "lat": 22.3167058197085,
            "lng": 114.1678777197085
          }
        }
      },
      "place_id": "ChIJm4PzvMcABDQRafG9C8_NAXQ",
      "plus_code": {
        "compound_code": "8599+6M \u9999\u6e2f",
        "global_code": "7PJP8599+6M"
      },
      "types": [
        "establishment",
        "food",
        "point_of_interest",
        "restaurant"
      ]
    }
  ],
  "licno": "2262808682",
  "timestamp": 1564968756,
  "version": "1564966095"
}
