{
  "adr_en": "\u5de6\u9e9f\u53f3\u674e\u7ca5\u9eb5\u5c0f\u83dc\u5c08\u9580\u5e97, SHOP NO. 110 & 111, 1/F, WHAMPOA GOURMET PLACE, SITE 8, WHAMPOA GARDEN, HUNG HOM, KOWLOON",
  "adr_tc": "\u4e5d\u9f8d\u7d05\u78e1\u9ec3\u57d4\u82b1\u5712\u7b2c\u516b\u671f\u9ec3\u57d4\u7f8e\u98df\u574a\u4e00\u6a13110-111\u865f\u92ea \u5de6\u9e9f\u53f3\u674e\u7ca5\u9eb5\u5c0f\u83dc\u5c08\u9580\u5e97",
  "geocode_en": [
    {
      "address_components": [
        {
          "long_name": "Hong Kong",
          "short_name": "HK",
          "types": [
            "country",
            "political"
          ]
        }
      ],
      "formatted_address": "Wonderful Worlds of Whampoa, Whampoa Gourmet Place(Site 8), 1/F, 110-111, Hong Kong",
      "geometry": {
        "location": {
          "lat": 22.304888,
          "lng": 114.190698
        },
        "location_type": "GEOMETRIC_CENTER",
        "viewport": {
          "northeast": {
            "lat": 22.3062369802915,
            "lng": 114.1920469802915
          },
          "southwest": {
            "lat": 22.3035390197085,
            "lng": 114.1893490197085
          }
        }
      },
      "place_id": "ChIJlUYSEOAABDQRyaE5NM0IW2s",
      "plus_code": {
        "compound_code": "853R+X7 Hong Kong",
        "global_code": "7PJP853R+X7"
      },
      "types": [
        "establishment",
        "food",
        "point_of_interest",
        "restaurant"
      ]
    }
  ],
  "geocode_tc": [
    {
      "address_components": [
        {
          "long_name": "\u9ec3\u57d4\u82b1\u5712",
          "short_name": "\u9ec3\u57d4\u82b1\u5712",
          "types": [
            "neighborhood",
            "political"
          ]
        },
        {
          "long_name": "\u4e5d\u9f8d",
          "short_name": "\u4e5d\u9f8d",
          "types": [
            "administrative_area_level_1",
            "political"
          ]
        },
        {
          "long_name": "\u9999\u6e2f",
          "short_name": "HK",
          "types": [
            "country",
            "political"
          ]
        }
      ],
      "formatted_address": "\u9999\u6e2f\u9ec3\u57d4\u82b1\u5712\u9ec3\u57d4\u7f8e\u98df\u574a\u4e00\u6a13110\ufe63111\u865f",
      "geometry": {
        "location": {
          "lat": 22.3048661,
          "lng": 114.1907479
        },
        "location_type": "GEOMETRIC_CENTER",
        "viewport": {
          "northeast": {
            "lat": 22.3062150802915,
            "lng": 114.1920968802915
          },
          "southwest": {
            "lat": 22.30351711970849,
            "lng": 114.1893989197085
          }
        }
      },
      "place_id": "ChIJ5bMKEOAABDQRby8l0ScOtts",
      "plus_code": {
        "compound_code": "853R+W7 \u9999\u6e2f",
        "global_code": "7PJP853R+W7"
      },
      "types": [
        "establishment",
        "food",
        "point_of_interest",
        "restaurant"
      ]
    },
    {
      "address_components": [
        {
          "long_name": "\u9999\u6e2f",
          "short_name": "HK",
          "types": [
            "country",
            "political"
          ]
        }
      ],
      "formatted_address": "Wonderful Worlds of Whampoa, Whampoa Gourmet Place(Site 8), 1/F, 110-111, \u9999\u6e2f",
      "geometry": {
        "location": {
          "lat": 22.304888,
          "lng": 114.190698
        },
        "location_type": "GEOMETRIC_CENTER",
        "viewport": {
          "northeast": {
            "lat": 22.3062369802915,
            "lng": 114.1920469802915
          },
          "southwest": {
            "lat": 22.3035390197085,
            "lng": 114.1893490197085
          }
        }
      },
      "place_id": "ChIJlUYSEOAABDQRyaE5NM0IW2s",
      "plus_code": {
        "compound_code": "853R+X7 \u9999\u6e2f",
        "global_code": "7PJP853R+X7"
      },
      "types": [
        "establishment",
        "food",
        "point_of_interest",
        "restaurant"
      ]
    }
  ],
  "licno": "2252803587",
  "timestamp": 1564968756,
  "version": "1564966095"
}
