{
  "adr_en": "Ka Kee, G/F, MAU WAH MANSION, 24A BELCHER'S STREET, WESTERN, HONG KONG",
  "adr_tc": "\u9999\u6e2f\u5351\u8def\u4e4d\u885724A\u865f \u61cb\u83ef\u5927\u5ec8\u5730\u4e0b \u52a0\u8a18",
  "geocode_en": [
    {
      "address_components": [
        {
          "long_name": "Mau Wah Mansion",
          "short_name": "Mau Wah Mansion",
          "types": [
            "premise"
          ]
        },
        {
          "long_name": "22-24A",
          "short_name": "22-24A",
          "types": [
            "street_number"
          ]
        },
        {
          "long_name": "Belcher's Street",
          "short_name": "Belcher's St",
          "types": [
            "route"
          ]
        },
        {
          "long_name": "Sai Wan",
          "short_name": "Sai Wan",
          "types": [
            "neighborhood",
            "political"
          ]
        },
        {
          "long_name": "Hong Kong Island",
          "short_name": "Hong Kong Island",
          "types": [
            "administrative_area_level_1",
            "political"
          ]
        },
        {
          "long_name": "Hong Kong",
          "short_name": "HK",
          "types": [
            "country",
            "political"
          ]
        }
      ],
      "formatted_address": "Mau Wah Mansion, 22-24A Belcher's St, Sai Wan, Hong Kong",
      "geometry": {
        "bounds": {
          "northeast": {
            "lat": 22.283701,
            "lng": 114.1310031
          },
          "southwest": {
            "lat": 22.283364,
            "lng": 114.130632
          }
        },
        "location": {
          "lat": 22.2835671,
          "lng": 114.1307905
        },
        "location_type": "ROOFTOP",
        "viewport": {
          "northeast": {
            "lat": 22.2848814802915,
            "lng": 114.1321665302915
          },
          "southwest": {
            "lat": 22.2821835197085,
            "lng": 114.1294685697085
          }
        }
      },
      "partial_match": true,
      "place_id": "ChIJDc8Lw5r_AzQRauJEQ9PGYVs",
      "types": [
        "premise"
      ]
    }
  ],
  "geocode_tc": [
    {
      "address_components": [
        {
          "long_name": "24\u865f",
          "short_name": "24\u865f",
          "types": [
            "street_number"
          ]
        },
        {
          "long_name": "\u5351\u8def\u4e4d\u8857",
          "short_name": "\u5351\u8def\u4e4d\u8857",
          "types": [
            "route"
          ]
        },
        {
          "long_name": "\u897f\u74b0",
          "short_name": "\u897f\u74b0",
          "types": [
            "neighborhood",
            "political"
          ]
        },
        {
          "long_name": "\u9999\u6e2f\u5cf6",
          "short_name": "\u9999\u6e2f\u5cf6",
          "types": [
            "administrative_area_level_1",
            "political"
          ]
        },
        {
          "long_name": "\u9999\u6e2f",
          "short_name": "HK",
          "types": [
            "country",
            "political"
          ]
        }
      ],
      "formatted_address": "\u9999\u6e2f\u897f\u74b0\u5351\u8def\u4e4d\u885724\u865f",
      "geometry": {
        "location": {
          "lat": 22.2835999,
          "lng": 114.1306703
        },
        "location_type": "ROOFTOP",
        "viewport": {
          "northeast": {
            "lat": 22.2849488802915,
            "lng": 114.1320192802915
          },
          "southwest": {
            "lat": 22.2822509197085,
            "lng": 114.1293213197085
          }
        }
      },
      "partial_match": true,
      "place_id": "ChIJ5Scz6Jr_AzQRaPvETYdlPl0",
      "plus_code": {
        "compound_code": "74MJ+C7 \u9999\u6e2f",
        "global_code": "7PJP74MJ+C7"
      },
      "types": [
        "establishment",
        "food",
        "point_of_interest",
        "restaurant"
      ]
    }
  ],
  "licno": "2214140484",
  "timestamp": 1564968756,
  "version": "1564966095"
}
