{
  "adr_en": "Alabar, SHOP NO.3(NO.38), THE UG/F, KAM KWONG MANSION, 36-44 KING KWONG ST., HAPPY VALLEY, WAN CHAI, HONG KONG",
  "adr_tc": "\u9999\u6e2f\u8dd1\u99ac\u5730\u666f\u5149\u885736-44\u865f\u9ad8\u5c64\u5730\u4e0b3\u865f\u821638\u865f Alabar",
  "geocode_en": [
    {
      "address_components": [
        {
          "long_name": "SHOP NO.3(NO",
          "short_name": "SHOP NO.3(NO",
          "types": [
            "subpremise"
          ]
        },
        {
          "long_name": "Kam Kwong Mansion",
          "short_name": "Kam Kwong Mansion",
          "types": [
            "premise"
          ]
        },
        {
          "long_name": "36-44",
          "short_name": "36-44",
          "types": [
            "street_number"
          ]
        },
        {
          "long_name": "King Kwong Street",
          "short_name": "King Kwong St",
          "types": [
            "route"
          ]
        },
        {
          "long_name": "Happy Valley",
          "short_name": "Happy Valley",
          "types": [
            "neighborhood",
            "political"
          ]
        },
        {
          "long_name": "Hong Kong Island",
          "short_name": "Hong Kong Island",
          "types": [
            "administrative_area_level_1",
            "political"
          ]
        },
        {
          "long_name": "Hong Kong",
          "short_name": "HK",
          "types": [
            "country",
            "political"
          ]
        }
      ],
      "formatted_address": "SHOP NO.3(NO, Kam Kwong Mansion, 36-44 King Kwong St, Happy Valley, Hong Kong",
      "geometry": {
        "bounds": {
          "northeast": {
            "lat": 22.2689809,
            "lng": 114.1843991
          },
          "southwest": {
            "lat": 22.268795,
            "lng": 114.184124
          }
        },
        "location": {
          "lat": 22.2688956,
          "lng": 114.1842733
        },
        "location_type": "ROOFTOP",
        "viewport": {
          "northeast": {
            "lat": 22.2702369302915,
            "lng": 114.1856105302915
          },
          "southwest": {
            "lat": 22.2675389697085,
            "lng": 114.1829125697085
          }
        }
      },
      "partial_match": true,
      "place_id": "Ek1TSE9QIE5PLjMoTk8sIEthbSBLd29uZyBNYW5zaW9uLCAzNi00NCBLaW5nIEt3b25nIFN0LCBIYXBweSBWYWxsZXksIEhvbmcgS29uZyIoGiYKFgoUChIJr_hMvk4ABDQRZrCG7rvKwFsSDFNIT1AgTk8uMyhOTw",
      "types": [
        "subpremise"
      ]
    }
  ],
  "geocode_tc": [
    {
      "address_components": [
        {
          "long_name": "\u9999\u6e2f",
          "short_name": "HK",
          "types": [
            "country",
            "political"
          ]
        }
      ],
      "formatted_address": "\u9999\u6e2f\u8dd1\u99ac\u5730\u666f\u5149\u885738\u865f\u5730\u4e0b",
      "geometry": {
        "location": {
          "lat": 22.268882,
          "lng": 114.184292
        },
        "location_type": "GEOMETRIC_CENTER",
        "viewport": {
          "northeast": {
            "lat": 22.2702309802915,
            "lng": 114.1856409802915
          },
          "southwest": {
            "lat": 22.2675330197085,
            "lng": 114.1829430197085
          }
        }
      },
      "place_id": "ChIJBc1Dvk4ABDQRMUq6N0teGDk",
      "plus_code": {
        "compound_code": "759M+HP \u9999\u6e2f",
        "global_code": "7PJP759M+HP"
      },
      "types": [
        "bar",
        "establishment",
        "point_of_interest"
      ]
    }
  ],
  "licno": "3112188325",
  "timestamp": 1564975666,
  "version": "1564966095"
}
