{
  "adr_en": "HING KEE ROASTED MEAT AND SEAFOOD RESTAURANT, COOKED FOOD STALL NOS. 9-12, G/F, SAM SHING ESTATE, 6 SAM SHING STREET, TUEN MUN, NEW TERRITORIES",
  "adr_tc": "\u65b0\u754c\u5c6f\u9580\u4e09\u8056\u88576\u865f\u4e09\u8056\u90a8\u5730\u4e0b\u719f\u98df\u4e2d\u5fc39-12\u865f \u8208\u8a18\u71d2\u81d8\u6d77\u9bae\u98ef\u5e97",
  "geocode_en": [
    {
      "address_components": [
        {
          "long_name": "Hong Kong",
          "short_name": "HK",
          "types": [
            "country",
            "political"
          ]
        }
      ],
      "formatted_address": "Shop 2, G/F, Cooked Food Plaza, Sam Shing Estate, Tuen Mun, Hong Kong",
      "geometry": {
        "location": {
          "lat": 22.3817552,
          "lng": 113.9776692
        },
        "location_type": "GEOMETRIC_CENTER",
        "viewport": {
          "northeast": {
            "lat": 22.3831041802915,
            "lng": 113.9790181802915
          },
          "southwest": {
            "lat": 22.3804062197085,
            "lng": 113.9763202197085
          }
        }
      },
      "place_id": "ChIJMZXgnGr7AzQRqmSHapkwH1w",
      "plus_code": {
        "compound_code": "9XJH+P3 Hong Kong",
        "global_code": "7PJM9XJH+P3"
      },
      "types": [
        "establishment",
        "food",
        "point_of_interest",
        "restaurant"
      ]
    }
  ],
  "geocode_tc": [
    {
      "address_components": [
        {
          "long_name": "\u9999\u6e2f",
          "short_name": "HK",
          "types": [
            "country",
            "political"
          ]
        }
      ],
      "formatted_address": "Tuen Mun \u5c6f \u9580 \u4e09 \u8056 \u6751 \u516d\u89d2 \u4ead \u5730\u4e0b 9-12 \u865f \u8216, \u9999\u6e2f",
      "geometry": {
        "location": {
          "lat": 22.3817747,
          "lng": 113.9774305
        },
        "location_type": "GEOMETRIC_CENTER",
        "viewport": {
          "northeast": {
            "lat": 22.3831236802915,
            "lng": 113.9787794802915
          },
          "southwest": {
            "lat": 22.38042571970849,
            "lng": 113.9760815197085
          }
        }
      },
      "place_id": "ChIJMZXgnGr7AzQR-vVxR2UaEFQ",
      "plus_code": {
        "compound_code": "9XJG+PX \u9999\u6e2f",
        "global_code": "7PJM9XJG+PX"
      },
      "types": [
        "establishment",
        "food",
        "point_of_interest",
        "restaurant"
      ]
    }
  ],
  "licno": "2293801979",
  "timestamp": 1564968756,
  "version": "1564966095"
}
