{
  "adr_en": "TORIHANA, SHOP NO. 15, G/F., WAH TO BUILDING, NO. 42 WOOD ROAD, NO. 29 BURROWS STREET, NO. 22-30 CROSS LANE, HONG KONG",
  "adr_tc": "\u9999\u6e2f\u4ea4\u52a0\u91cc22-30\u865f\u5df4\u8def\u58eb\u885729\u865f\u6d3b\u905342\u865f\u83ef\u90fd\u6a13 \u5730\u4e0b15\u865f\u92ea \u9ce5\u83ef",
  "geocode_en": [
    {
      "address_components": [
        {
          "long_name": "30",
          "short_name": "30",
          "types": [
            "street_number"
          ]
        },
        {
          "long_name": "Cross Lane",
          "short_name": "Cross Ln",
          "types": [
            "route"
          ]
        },
        {
          "long_name": "Wan Chai",
          "short_name": "Wan Chai",
          "types": [
            "neighborhood",
            "political"
          ]
        },
        {
          "long_name": "Hong Kong Island",
          "short_name": "Hong Kong Island",
          "types": [
            "administrative_area_level_1",
            "political"
          ]
        },
        {
          "long_name": "Hong Kong",
          "short_name": "HK",
          "types": [
            "country",
            "political"
          ]
        }
      ],
      "formatted_address": "30 Cross Ln, Wan Chai, Hong Kong",
      "geometry": {
        "location": {
          "lat": 22.2764001,
          "lng": 114.1762136
        },
        "location_type": "ROOFTOP",
        "viewport": {
          "northeast": {
            "lat": 22.2777490802915,
            "lng": 114.1775625802915
          },
          "southwest": {
            "lat": 22.2750511197085,
            "lng": 114.1748646197085
          }
        }
      },
      "partial_match": true,
      "place_id": "ChIJUWt8G1sABDQRUBexnXcDvFQ",
      "plus_code": {
        "compound_code": "75GG+HF Wan Chai, Hong Kong",
        "global_code": "7PJP75GG+HF"
      },
      "types": [
        "establishment",
        "food",
        "point_of_interest",
        "restaurant"
      ]
    },
    {
      "address_components": [
        {
          "long_name": "BUILDING, NO. 42",
          "short_name": "BUILDING, NO. 42",
          "types": [
            "subpremise"
          ]
        },
        {
          "long_name": "Vine Centre 2",
          "short_name": "Vine Centre 2",
          "types": [
            "premise"
          ]
        },
        {
          "long_name": "29",
          "short_name": "29",
          "types": [
            "street_number"
          ]
        },
        {
          "long_name": "Burrows Street",
          "short_name": "Burrows St",
          "types": [
            "route"
          ]
        },
        {
          "long_name": "Wan Chai",
          "short_name": "Wan Chai",
          "types": [
            "neighborhood",
            "political"
          ]
        },
        {
          "long_name": "Hong Kong Island",
          "short_name": "Hong Kong Island",
          "types": [
            "administrative_area_level_1",
            "political"
          ]
        },
        {
          "long_name": "Hong Kong",
          "short_name": "HK",
          "types": [
            "country",
            "political"
          ]
        }
      ],
      "formatted_address": "BUILDING, NO. 42, Vine Centre 2, 29 Burrows St, Wan Chai, Hong Kong",
      "geometry": {
        "bounds": {
          "northeast": {
            "lat": 22.276376,
            "lng": 114.1765786
          },
          "southwest": {
            "lat": 22.2760672,
            "lng": 114.1761471
          }
        },
        "location": {
          "lat": 22.2761865,
          "lng": 114.1763354
        },
        "location_type": "ROOFTOP",
        "viewport": {
          "northeast": {
            "lat": 22.2775705802915,
            "lng": 114.1777118302915
          },
          "southwest": {
            "lat": 22.2748726197085,
            "lng": 114.1750138697085
          }
        }
      },
      "partial_match": true,
      "place_id": "EkNCVUlMRElORywgTk8uIDQyLCBWaW5lIENlbnRyZSAyLCAyOSBCdXJyb3dzIFN0LCBXYW4gQ2hhaSwgSG9uZyBLb25nIiwaKgoWChQKEgmdUF8cWwAENBGQvP4vXt8FTxIQQlVJTERJTkcsIE5PLiA0Mg",
      "types": [
        "subpremise"
      ]
    },
    {
      "address_components": [
        {
          "long_name": "NO. 22-30",
          "short_name": "NO. 22-30",
          "types": [
            "subpremise"
          ]
        },
        {
          "long_name": "Vine Centre 2",
          "short_name": "Vine Centre 2",
          "types": [
            "premise"
          ]
        },
        {
          "long_name": "29",
          "short_name": "29",
          "types": [
            "street_number"
          ]
        },
        {
          "long_name": "Burrows Street",
          "short_name": "Burrows St",
          "types": [
            "route"
          ]
        },
        {
          "long_name": "Wan Chai",
          "short_name": "Wan Chai",
          "types": [
            "neighborhood",
            "political"
          ]
        },
        {
          "long_name": "Hong Kong Island",
          "short_name": "Hong Kong Island",
          "types": [
            "administrative_area_level_1",
            "political"
          ]
        },
        {
          "long_name": "Hong Kong",
          "short_name": "HK",
          "types": [
            "country",
            "political"
          ]
        }
      ],
      "formatted_address": "NO. 22-30, Vine Centre 2, 29 Burrows St, Wan Chai, Hong Kong",
      "geometry": {
        "bounds": {
          "northeast": {
            "lat": 22.276376,
            "lng": 114.1765786
          },
          "southwest": {
            "lat": 22.2760672,
            "lng": 114.1761471
          }
        },
        "location": {
          "lat": 22.2761865,
          "lng": 114.1763354
        },
        "location_type": "ROOFTOP",
        "viewport": {
          "northeast": {
            "lat": 22.2775705802915,
            "lng": 114.1777118302915
          },
          "southwest": {
            "lat": 22.2748726197085,
            "lng": 114.1750138697085
          }
        }
      },
      "partial_match": true,
      "place_id": "EjxOTy4gMjItMzAsIFZpbmUgQ2VudHJlIDIsIDI5IEJ1cnJvd3MgU3QsIFdhbiBDaGFpLCBIb25nIEtvbmciJRojChYKFAoSCZ1QXxxbAAQ0EZC8_i9e3wVPEglOTy4gMjItMzA",
      "types": [
        "subpremise"
      ]
    }
  ],
  "geocode_tc": [
    {
      "address_components": [
        {
          "long_name": "\u5df4\u8def\u58eb\u8857",
          "short_name": "\u5df4\u8def\u58eb\u8857",
          "types": [
            "route"
          ]
        },
        {
          "long_name": "\u7063\u4ed4",
          "short_name": "\u7063\u4ed4",
          "types": [
            "neighborhood",
            "political"
          ]
        },
        {
          "long_name": "\u9999\u6e2f\u5cf6",
          "short_name": "\u9999\u6e2f\u5cf6",
          "types": [
            "administrative_area_level_1",
            "political"
          ]
        },
        {
          "long_name": "\u9999\u6e2f",
          "short_name": "HK",
          "types": [
            "country",
            "political"
          ]
        }
      ],
      "formatted_address": "\u9999\u6e2f\u7063\u4ed4\u5df4\u8def\u58eb\u8857",
      "geometry": {
        "bounds": {
          "northeast": {
            "lat": 22.2775541,
            "lng": 114.1767262
          },
          "southwest": {
            "lat": 22.2761222,
            "lng": 114.1762153
          }
        },
        "location": {
          "lat": 22.2768831,
          "lng": 114.1765
        },
        "location_type": "GEOMETRIC_CENTER",
        "viewport": {
          "northeast": {
            "lat": 22.2781871302915,
            "lng": 114.1778197302915
          },
          "southwest": {
            "lat": 22.2754891697085,
            "lng": 114.1751217697085
          }
        }
      },
      "partial_match": true,
      "place_id": "ChIJkUCAAVsABDQRUJFw4t7Qa8Y",
      "types": [
        "route"
      ]
    },
    {
      "address_components": [
        {
          "long_name": "\u4ea4\u52a0\u91cc",
          "short_name": "\u4ea4\u52a0\u91cc",
          "types": [
            "route"
          ]
        },
        {
          "long_name": "\u7063\u4ed4",
          "short_name": "\u7063\u4ed4",
          "types": [
            "neighborhood",
            "political"
          ]
        },
        {
          "long_name": "\u9999\u6e2f\u5cf6",
          "short_name": "\u9999\u6e2f\u5cf6",
          "types": [
            "administrative_area_level_1",
            "political"
          ]
        },
        {
          "long_name": "\u9999\u6e2f",
          "short_name": "HK",
          "types": [
            "country",
            "political"
          ]
        }
      ],
      "formatted_address": "\u9999\u6e2f\u7063\u4ed4\u4ea4\u52a0\u91cc",
      "geometry": {
        "bounds": {
          "northeast": {
            "lat": 22.276921,
            "lng": 114.1775738
          },
          "southwest": {
            "lat": 22.2762245,
            "lng": 114.1757973
          }
        },
        "location": {
          "lat": 22.2764851,
          "lng": 114.1765384
        },
        "location_type": "GEOMETRIC_CENTER",
        "viewport": {
          "northeast": {
            "lat": 22.2779217302915,
            "lng": 114.1780345302915
          },
          "southwest": {
            "lat": 22.2752237697085,
            "lng": 114.1753365697085
          }
        }
      },
      "partial_match": true,
      "place_id": "ChIJoed2_VoABDQRghxec641SGs",
      "types": [
        "route"
      ]
    },
    {
      "address_components": [
        {
          "long_name": "\u5730\u4e0b3\u865f\u8216",
          "short_name": "\u5730\u4e0b3\u865f\u8216",
          "types": [
            "subpremise"
          ]
        },
        {
          "long_name": "\u666e\u57fa\u5546\u696d\u4e2d\u5fc3",
          "short_name": "\u666e\u57fa\u5546\u696d\u4e2d\u5fc3",
          "types": [
            "premise"
          ]
        },
        {
          "long_name": "5\u865f",
          "short_name": "5\u865f",
          "types": [
            "street_number"
          ]
        },
        {
          "long_name": "\u6cb3\u5167\u9053",
          "short_name": "\u6cb3\u5167\u9053",
          "types": [
            "route"
          ]
        },
        {
          "long_name": "\u5c16\u6c99\u5480",
          "short_name": "\u5c16\u6c99\u5480",
          "types": [
            "neighborhood",
            "political"
          ]
        },
        {
          "long_name": "\u4e5d\u9f8d",
          "short_name": "\u4e5d\u9f8d",
          "types": [
            "administrative_area_level_1",
            "political"
          ]
        },
        {
          "long_name": "\u9999\u6e2f",
          "short_name": "HK",
          "types": [
            "country",
            "political"
          ]
        }
      ],
      "formatted_address": "\u9999\u6e2f\u5c16\u6c99\u5480\u6cb3\u5167\u90535\u865f\u666e\u57fa\u5546\u696d\u4e2d\u5fc3\u5730\u4e0b3\u865f\u8216",
      "geometry": {
        "location": {
          "lat": 22.2977236,
          "lng": 114.1742414
        },
        "location_type": "ROOFTOP",
        "viewport": {
          "northeast": {
            "lat": 22.2990725802915,
            "lng": 114.1755903802915
          },
          "southwest": {
            "lat": 22.29637461970849,
            "lng": 114.1728924197085
          }
        }
      },
      "partial_match": true,
      "place_id": "ChIJK8ZyBe4ABDQR1kqBGEv4-Ik",
      "plus_code": {
        "compound_code": "75XF+3M \u9999\u6e2f",
        "global_code": "7PJP75XF+3M"
      },
      "types": [
        "establishment",
        "food",
        "point_of_interest",
        "restaurant"
      ]
    }
  ],
  "licno": "3112806254",
  "timestamp": 1564975666,
  "version": "1564966095"
}
