{
  "adr_en": "\u6d77\u661f, SHOP NO. 203, PODIUM FLOOR, NAM FUNG HOUSE, NAM SHAN ESTATE, SHEK KIP MEI, SHAM SHUI PO, KOWLOON",
  "adr_tc": "\u4e5d\u9f8d\u6df1\u6c34\u57d7\u77f3\u7864\u5c3e\u5357\u5c71\u6751\u5357\u8c50\u6a13203\u865f\u8216\u5e73\u53f0 \u6d77\u661f",
  "geocode_en": [
    {
      "address_components": [
        {
          "long_name": "Hong Kong",
          "short_name": "HK",
          "types": [
            "country",
            "political"
          ]
        }
      ],
      "formatted_address": "111 Tai Hang Tung Road, Hong Kong",
      "geometry": {
        "location": {
          "lat": 22.333174,
          "lng": 114.170588
        },
        "location_type": "GEOMETRIC_CENTER",
        "viewport": {
          "northeast": {
            "lat": 22.3345229802915,
            "lng": 114.1719369802915
          },
          "southwest": {
            "lat": 22.3318250197085,
            "lng": 114.1692390197085
          }
        }
      },
      "partial_match": true,
      "place_id": "ChIJ8Ts_HTUHBDQRY5TUtZ0yxyw",
      "plus_code": {
        "compound_code": "85MC+76 Hong Kong",
        "global_code": "7PJP85MC+76"
      },
      "types": [
        "establishment",
        "point_of_interest"
      ]
    },
    {
      "address_components": [
        {
          "long_name": "Shek Kip Mei",
          "short_name": "Shek Kip Mei",
          "types": [
            "neighborhood",
            "political"
          ]
        },
        {
          "long_name": "Kowloon",
          "short_name": "Kowloon",
          "types": [
            "administrative_area_level_1",
            "political"
          ]
        },
        {
          "long_name": "Hong Kong",
          "short_name": "HK",
          "types": [
            "country",
            "political"
          ]
        }
      ],
      "formatted_address": "Shek Kip Mei, Hong Kong",
      "geometry": {
        "bounds": {
          "northeast": {
            "lat": 22.3354985,
            "lng": 114.1694631
          },
          "southwest": {
            "lat": 22.3305711,
            "lng": 114.1639753
          }
        },
        "location": {
          "lat": 22.3337786,
          "lng": 114.1674019
        },
        "location_type": "APPROXIMATE",
        "viewport": {
          "northeast": {
            "lat": 22.3354985,
            "lng": 114.1694631
          },
          "southwest": {
            "lat": 22.3305711,
            "lng": 114.1639753
          }
        }
      },
      "partial_match": true,
      "place_id": "ChIJC8XkcUoHBDQRgqKMdK92EN4",
      "types": [
        "neighborhood",
        "political"
      ]
    }
  ],
  "geocode_tc": [
    {
      "address_components": [
        {
          "long_name": "\u6df1\u6c34\u57d7",
          "short_name": "\u6df1\u6c34\u57d7",
          "types": [
            "neighborhood",
            "political"
          ]
        },
        {
          "long_name": "\u4e5d\u9f8d",
          "short_name": "\u4e5d\u9f8d",
          "types": [
            "administrative_area_level_1",
            "political"
          ]
        },
        {
          "long_name": "\u9999\u6e2f",
          "short_name": "HK",
          "types": [
            "country",
            "political"
          ]
        }
      ],
      "formatted_address": "\u9999\u6e2f\u6df1\u6c34\u57d7",
      "geometry": {
        "bounds": {
          "northeast": {
            "lat": 22.3363634,
            "lng": 114.1645006
          },
          "southwest": {
            "lat": 22.321758,
            "lng": 114.148766
          }
        },
        "location": {
          "lat": 22.3285899,
          "lng": 114.1602846
        },
        "location_type": "APPROXIMATE",
        "viewport": {
          "northeast": {
            "lat": 22.3363634,
            "lng": 114.1645006
          },
          "southwest": {
            "lat": 22.321758,
            "lng": 114.148766
          }
        }
      },
      "partial_match": true,
      "place_id": "ChIJC6pfobQABDQRTn_pueERhuM",
      "types": [
        "neighborhood",
        "political"
      ]
    },
    {
      "address_components": [
        {
          "long_name": "\u9999\u6e2f",
          "short_name": "HK",
          "types": [
            "country",
            "political"
          ]
        }
      ],
      "formatted_address": "\u9999\u6e2f\u5927\u5751\u897f\u8857",
      "geometry": {
        "location": {
          "lat": 22.3332035,
          "lng": 114.1705354
        },
        "location_type": "GEOMETRIC_CENTER",
        "viewport": {
          "northeast": {
            "lat": 22.3345524802915,
            "lng": 114.1718843802915
          },
          "southwest": {
            "lat": 22.3318545197085,
            "lng": 114.1691864197085
          }
        }
      },
      "partial_match": true,
      "place_id": "ChIJLTg_HTUHBDQR95PnmlGiFjk",
      "plus_code": {
        "compound_code": "85MC+76 \u9999\u6e2f",
        "global_code": "7PJP85MC+76"
      },
      "types": [
        "establishment",
        "point_of_interest"
      ]
    },
    {
      "address_components": [
        {
          "long_name": "\u77f3\u7864\u5c3e",
          "short_name": "\u77f3\u7864\u5c3e",
          "types": [
            "neighborhood",
            "political"
          ]
        },
        {
          "long_name": "\u4e5d\u9f8d",
          "short_name": "\u4e5d\u9f8d",
          "types": [
            "administrative_area_level_1",
            "political"
          ]
        },
        {
          "long_name": "\u9999\u6e2f",
          "short_name": "HK",
          "types": [
            "country",
            "political"
          ]
        }
      ],
      "formatted_address": "\u9999\u6e2f\u77f3\u7864\u5c3e",
      "geometry": {
        "bounds": {
          "northeast": {
            "lat": 22.3354985,
            "lng": 114.1694631
          },
          "southwest": {
            "lat": 22.3305711,
            "lng": 114.1639753
          }
        },
        "location": {
          "lat": 22.3337786,
          "lng": 114.1674019
        },
        "location_type": "APPROXIMATE",
        "viewport": {
          "northeast": {
            "lat": 22.3354985,
            "lng": 114.1694631
          },
          "southwest": {
            "lat": 22.3305711,
            "lng": 114.1639753
          }
        }
      },
      "partial_match": true,
      "place_id": "ChIJC8XkcUoHBDQRgqKMdK92EN4",
      "types": [
        "neighborhood",
        "political"
      ]
    },
    {
      "address_components": [
        {
          "long_name": "\u5357\u5c71\u90a8",
          "short_name": "\u5357\u5c71\u90a8",
          "types": [
            "establishment",
            "point_of_interest",
            "transit_station"
          ]
        },
        {
          "long_name": "\u4e5d\u9f8d",
          "short_name": "\u4e5d\u9f8d",
          "types": [
            "administrative_area_level_1",
            "political"
          ]
        },
        {
          "long_name": "\u9999\u6e2f",
          "short_name": "HK",
          "types": [
            "country",
            "political"
          ]
        }
      ],
      "formatted_address": "\u9999\u6e2f\u5357\u5c71\u90a8",
      "geometry": {
        "location": {
          "lat": 22.332789,
          "lng": 114.170269
        },
        "location_type": "GEOMETRIC_CENTER",
        "viewport": {
          "northeast": {
            "lat": 22.3341379802915,
            "lng": 114.1716179802915
          },
          "southwest": {
            "lat": 22.3314400197085,
            "lng": 114.1689200197085
          }
        }
      },
      "partial_match": true,
      "place_id": "ChIJgxwmGTUHBDQRCSITy2p-ZMQ",
      "plus_code": {
        "compound_code": "85MC+44 \u9999\u6e2f",
        "global_code": "7PJP85MC+44"
      },
      "types": [
        "establishment",
        "point_of_interest",
        "transit_station"
      ]
    }
  ],
  "licno": "2263064353",
  "timestamp": 1564968756,
  "version": "1564966095"
}
