{
  "adr_en": "\u597d\u6ecb\u5473\u8eca\u4ed4\u9eb5, SHOP 43A & 43B, G/F, MANOR CENTRE SHOPPING ARCADE, 213 UN CHAU STREET, SHAM SHUI PO, KOWLOON",
  "adr_tc": "\u4e5d\u9f8d\u6df1\u6c34\u57d7\u5143\u5dde\u8857213\u865f\u7f8e\u5c45\u4e2d\u5fc343A\uff0643B\u8216\u5730\u4e0b \u597d\u6ecb\u5473\u8eca\u4ed4\u9eb5",
  "geocode_en": [
    {
      "address_components": [
        {
          "long_name": "Hong Kong",
          "short_name": "HK",
          "types": [
            "country",
            "political"
          ]
        }
      ],
      "formatted_address": "Shop 43A & 43B, G/F, Manor Centre Shopping Arcade, 213 Un Chau Street, Sham Shui Po, Kowloon, Hong Kong",
      "geometry": {
        "location": {
          "lat": 22.334534,
          "lng": 114.15971
        },
        "location_type": "GEOMETRIC_CENTER",
        "viewport": {
          "northeast": {
            "lat": 22.3358829802915,
            "lng": 114.1610589802915
          },
          "southwest": {
            "lat": 22.3331850197085,
            "lng": 114.1583610197085
          }
        }
      },
      "place_id": "ChIJUfXe6EwHBDQRj0FT6b8NtTg",
      "plus_code": {
        "compound_code": "85M5+RV Hong Kong",
        "global_code": "7PJP85M5+RV"
      },
      "types": [
        "establishment",
        "food",
        "point_of_interest",
        "restaurant"
      ]
    }
  ],
  "geocode_tc": [
    {
      "address_components": [
        {
          "long_name": "213",
          "short_name": "213",
          "types": [
            "street_number"
          ]
        },
        {
          "long_name": "\u5143\u5dde\u8857",
          "short_name": "\u5143\u5dde\u8857",
          "types": [
            "route"
          ]
        },
        {
          "long_name": "\u83f4\u7531",
          "short_name": "\u83f4\u7531",
          "types": [
            "neighborhood",
            "political"
          ]
        },
        {
          "long_name": "\u4e5d\u9f8d",
          "short_name": "\u4e5d\u9f8d",
          "types": [
            "administrative_area_level_1",
            "political"
          ]
        },
        {
          "long_name": "\u9999\u6e2f",
          "short_name": "HK",
          "types": [
            "country",
            "political"
          ]
        }
      ],
      "formatted_address": "\u9999\u6e2f\u83f4\u7531\u5143\u5dde\u8857213\u865f",
      "geometry": {
        "location": {
          "lat": 22.3348181,
          "lng": 114.1597737
        },
        "location_type": "ROOFTOP",
        "viewport": {
          "northeast": {
            "lat": 22.3361670802915,
            "lng": 114.1611226802915
          },
          "southwest": {
            "lat": 22.3334691197085,
            "lng": 114.1584247197085
          }
        }
      },
      "partial_match": true,
      "place_id": "ChIJRyZr7kwHBDQRWDIeaDCvnOM",
      "plus_code": {
        "compound_code": "85M5+WW \u9999\u6e2f",
        "global_code": "7PJP85M5+WW"
      },
      "types": [
        "establishment",
        "point_of_interest",
        "shopping_mall"
      ]
    },
    {
      "address_components": [
        {
          "long_name": "\u9999\u6e2f",
          "short_name": "HK",
          "types": [
            "country",
            "political"
          ]
        }
      ],
      "formatted_address": "Shop 43A & 43B, G/F, Manor Centre Shopping Arcade, 213 Un Chau Street, Sham Shui Po, Kowloon, \u9999\u6e2f",
      "geometry": {
        "location": {
          "lat": 22.334534,
          "lng": 114.15971
        },
        "location_type": "GEOMETRIC_CENTER",
        "viewport": {
          "northeast": {
            "lat": 22.3358829802915,
            "lng": 114.1610589802915
          },
          "southwest": {
            "lat": 22.3331850197085,
            "lng": 114.1583610197085
          }
        }
      },
      "partial_match": true,
      "place_id": "ChIJUfXe6EwHBDQRj0FT6b8NtTg",
      "plus_code": {
        "compound_code": "85M5+RV \u9999\u6e2f",
        "global_code": "7PJP85M5+RV"
      },
      "types": [
        "establishment",
        "food",
        "point_of_interest",
        "restaurant"
      ]
    }
  ],
  "licno": "3163800319",
  "timestamp": 1564975666,
  "version": "1564966095"
}
