{
  "adr_en": "Kappou Watanabe, G/F, 61 SA PO ROAD, KOWLOON CITY, KOWLOON",
  "adr_tc": "\u4e5d\u9f8d\u4e5d\u9f8d\u57ce\u6c99\u57d4\u905361\u865f\u5730\u4e0b \u5272\u70f9\u6e21\u908a",
  "geocode_en": [
    {
      "address_components": [
        {
          "long_name": "G",
          "short_name": "G",
          "types": [
            "subpremise"
          ]
        },
        {
          "long_name": "61",
          "short_name": "61",
          "types": [
            "street_number"
          ]
        },
        {
          "long_name": "Sa Po Road",
          "short_name": "Sa Po Rd",
          "types": [
            "route"
          ]
        },
        {
          "long_name": "Kowloon City",
          "short_name": "Kowloon City",
          "types": [
            "neighborhood",
            "political"
          ]
        },
        {
          "long_name": "Kowloon",
          "short_name": "Kowloon",
          "types": [
            "administrative_area_level_1",
            "political"
          ]
        },
        {
          "long_name": "Hong Kong",
          "short_name": "HK",
          "types": [
            "country",
            "political"
          ]
        }
      ],
      "formatted_address": "G, 61 Sa Po Rd, Kowloon City, Hong Kong",
      "geometry": {
        "location": {
          "lat": 22.330018,
          "lng": 114.192564
        },
        "location_type": "ROOFTOP",
        "viewport": {
          "northeast": {
            "lat": 22.3313669802915,
            "lng": 114.1939129802915
          },
          "southwest": {
            "lat": 22.3286690197085,
            "lng": 114.1912150197085
          }
        }
      },
      "partial_match": true,
      "place_id": "EidHLCA2MSBTYSBQbyBSZCwgS293bG9vbiBDaXR5LCBIb25nIEtvbmciHRobChYKFAoSCR8dZnHVBgQ0EV4C2W1cyduiEgFH",
      "types": [
        "subpremise"
      ]
    },
    {
      "address_components": [
        {
          "long_name": "F",
          "short_name": "F",
          "types": [
            "subpremise"
          ]
        },
        {
          "long_name": "61",
          "short_name": "61",
          "types": [
            "street_number"
          ]
        },
        {
          "long_name": "Sa Po Road",
          "short_name": "Sa Po Rd",
          "types": [
            "route"
          ]
        },
        {
          "long_name": "Kowloon City",
          "short_name": "Kowloon City",
          "types": [
            "neighborhood",
            "political"
          ]
        },
        {
          "long_name": "Kowloon",
          "short_name": "Kowloon",
          "types": [
            "administrative_area_level_1",
            "political"
          ]
        },
        {
          "long_name": "Hong Kong",
          "short_name": "HK",
          "types": [
            "country",
            "political"
          ]
        }
      ],
      "formatted_address": "F, 61 Sa Po Rd, Kowloon City, Hong Kong",
      "geometry": {
        "location": {
          "lat": 22.330018,
          "lng": 114.192564
        },
        "location_type": "ROOFTOP",
        "viewport": {
          "northeast": {
            "lat": 22.3313669802915,
            "lng": 114.1939129802915
          },
          "southwest": {
            "lat": 22.3286690197085,
            "lng": 114.1912150197085
          }
        }
      },
      "partial_match": true,
      "place_id": "EidGLCA2MSBTYSBQbyBSZCwgS293bG9vbiBDaXR5LCBIb25nIEtvbmciHRobChYKFAoSCR8dZnHVBgQ0EV4C2W1cyduiEgFG",
      "types": [
        "subpremise"
      ]
    }
  ],
  "geocode_tc": [
    {
      "address_components": [
        {
          "long_name": "\u4e5d\u9f8d\u57ce",
          "short_name": "\u4e5d\u9f8d\u57ce",
          "types": [
            "neighborhood",
            "political"
          ]
        },
        {
          "long_name": "\u4e5d\u9f8d",
          "short_name": "\u4e5d\u9f8d",
          "types": [
            "administrative_area_level_1",
            "political"
          ]
        },
        {
          "long_name": "\u9999\u6e2f",
          "short_name": "HK",
          "types": [
            "country",
            "political"
          ]
        }
      ],
      "formatted_address": "\u9999\u6e2f\u4e5d\u9f8d\u57ce",
      "geometry": {
        "bounds": {
          "northeast": {
            "lat": 22.334573,
            "lng": 114.1959461
          },
          "southwest": {
            "lat": 22.3273791,
            "lng": 114.1869807
          }
        },
        "location": {
          "lat": 22.3306602,
          "lng": 114.1920172
        },
        "location_type": "APPROXIMATE",
        "viewport": {
          "northeast": {
            "lat": 22.334573,
            "lng": 114.1959461
          },
          "southwest": {
            "lat": 22.3273791,
            "lng": 114.1869807
          }
        }
      },
      "partial_match": true,
      "place_id": "ChIJP3hdSykBBDQR0CKCEWs5nKs",
      "types": [
        "neighborhood",
        "political"
      ]
    }
  ],
  "licno": "2252805282",
  "timestamp": 1564968756,
  "version": "1564966095"
}
