{
  "adr_en": "ZENON CAFE, G/F. & PORTION OF 1/F., TUNG CHAI BUILDING, 86 WELLINGTON STREET, CENTRAL, HONG KONG",
  "adr_tc": "\u9999\u6e2f\u4e2d\u74b0\u5a01\u9748\u9813\u885786\u865f\u901a\u6fdf\u5927\u5ec8\u5730\u4e0b\u53ca1\u6a13\u90e8\u4efd ZENON CAFE",
  "geocode_en": [
    {
      "address_components": [
        {
          "long_name": "86\u865f",
          "short_name": "86\u865f",
          "types": [
            "street_number"
          ]
        },
        {
          "long_name": "Wellington Street",
          "short_name": "Wellington St",
          "types": [
            "route"
          ]
        },
        {
          "long_name": "Central",
          "short_name": "Central",
          "types": [
            "neighborhood",
            "political"
          ]
        },
        {
          "long_name": "Hong Kong",
          "short_name": "HK",
          "types": [
            "country",
            "political"
          ]
        }
      ],
      "formatted_address": "Hong Kong, Central, Wellington St, 86\u865fHK \u9999\u6e2f\u5cf6",
      "geometry": {
        "location": {
          "lat": 22.2827292,
          "lng": 114.1546604
        },
        "location_type": "ROOFTOP",
        "viewport": {
          "northeast": {
            "lat": 22.2840781802915,
            "lng": 114.1560093802915
          },
          "southwest": {
            "lat": 22.2813802197085,
            "lng": 114.1533114197085
          }
        }
      },
      "partial_match": true,
      "place_id": "ChIJ25uqXXsABDQR01lyu7ypyIA",
      "plus_code": {
        "compound_code": "75M3+3V Central, Hong Kong",
        "global_code": "7PJP75M3+3V"
      },
      "types": [
        "cafe",
        "establishment",
        "food",
        "point_of_interest"
      ]
    },
    {
      "address_components": [
        {
          "long_name": "Tung Chai Building",
          "short_name": "Tung Chai Building",
          "types": [
            "premise"
          ]
        },
        {
          "long_name": "86-90",
          "short_name": "86-90",
          "types": [
            "street_number"
          ]
        },
        {
          "long_name": "Wellington Street",
          "short_name": "Wellington St",
          "types": [
            "route"
          ]
        },
        {
          "long_name": "Central",
          "short_name": "Central",
          "types": [
            "neighborhood",
            "political"
          ]
        },
        {
          "long_name": "Hong Kong Island",
          "short_name": "Hong Kong Island",
          "types": [
            "administrative_area_level_1",
            "political"
          ]
        },
        {
          "long_name": "Hong Kong",
          "short_name": "HK",
          "types": [
            "country",
            "political"
          ]
        }
      ],
      "formatted_address": "Tung Chai Building, 86-90 Wellington St, Central, Hong Kong",
      "geometry": {
        "bounds": {
          "northeast": {
            "lat": 22.28288,
            "lng": 114.1545891
          },
          "southwest": {
            "lat": 22.2827479,
            "lng": 114.154463
          }
        },
        "location": {
          "lat": 22.2828178,
          "lng": 114.1545485
        },
        "location_type": "ROOFTOP",
        "viewport": {
          "northeast": {
            "lat": 22.2841629302915,
            "lng": 114.1558750302915
          },
          "southwest": {
            "lat": 22.2814649697085,
            "lng": 114.1531770697085
          }
        }
      },
      "partial_match": true,
      "place_id": "ChIJs53YXHsABDQRLKv6cwkG1FA",
      "types": [
        "premise"
      ]
    }
  ],
  "geocode_tc": [
    {
      "address_components": [
        {
          "long_name": "86\u865f",
          "short_name": "86\u865f",
          "types": [
            "street_number"
          ]
        },
        {
          "long_name": "\u5a01\u9748\u9813\u8857",
          "short_name": "\u5a01\u9748\u9813\u8857",
          "types": [
            "route"
          ]
        },
        {
          "long_name": "\u4e2d\u74b0",
          "short_name": "\u4e2d\u74b0",
          "types": [
            "neighborhood",
            "political"
          ]
        },
        {
          "long_name": "\u9999\u6e2f",
          "short_name": "HK",
          "types": [
            "country",
            "political"
          ]
        }
      ],
      "formatted_address": "\u9999\u6e2f\u4e2d\u74b0\u5a01\u9748\u9813\u885786\u865fHK \u9999\u6e2f\u5cf6",
      "geometry": {
        "location": {
          "lat": 22.2827292,
          "lng": 114.1546604
        },
        "location_type": "ROOFTOP",
        "viewport": {
          "northeast": {
            "lat": 22.2840781802915,
            "lng": 114.1560093802915
          },
          "southwest": {
            "lat": 22.2813802197085,
            "lng": 114.1533114197085
          }
        }
      },
      "place_id": "ChIJ25uqXXsABDQR01lyu7ypyIA",
      "plus_code": {
        "compound_code": "75M3+3V \u9999\u6e2f\u4e2d\u74b0",
        "global_code": "7PJP75M3+3V"
      },
      "types": [
        "cafe",
        "establishment",
        "food",
        "point_of_interest"
      ]
    }
  ],
  "licno": "3118806201",
  "timestamp": 1564975666,
  "version": "1564966095"
}
