{
  "adr_en": "Ringer Hut, SHOP NOS. 1-091-093, LEVEL 1, COMMERCIAL PORTION OF TSEUNG KWAN O PLAZA, 1 TONG TAK STREET, TSEUNG KWAN O, SAI KUNG, NEW TERRITORIES",
  "adr_tc": "\u65b0\u754c\u897f\u8ca2\u5c07\u8ecd\u6fb3\u5510\u5fb7\u88571\u865f \u5c07\u8ecd\u6fb3\u5ee3\u58341\u6a131-091-093\u865f\u92ea \u7a1c\u95a3\u5c4b",
  "geocode_en": [
    {
      "address_components": [
        {
          "long_name": "091-093 \u865f\u8216",
          "short_name": "091-093 \u865f\u8216",
          "types": [
            "subpremise"
          ]
        },
        {
          "long_name": "1",
          "short_name": "1",
          "types": [
            "street_number"
          ]
        },
        {
          "long_name": "Tong Tak Street",
          "short_name": "Tong Tak St",
          "types": [
            "route"
          ]
        },
        {
          "long_name": "Tseung Kwan O",
          "short_name": "Tseung Kwan O",
          "types": [
            "neighborhood",
            "political"
          ]
        },
        {
          "long_name": "Hong Kong",
          "short_name": "HK",
          "types": [
            "country",
            "political"
          ]
        }
      ],
      "formatted_address": "Hong Kong, Tseung Kwan O, Tong Tak St, 1\u865f, 091-093 \u865f\u8216, \u5c07\u8ecd\u6fb3\u5ee3\u5834 L1",
      "geometry": {
        "location": {
          "lat": 22.3090238,
          "lng": 114.2631612
        },
        "location_type": "ROOFTOP",
        "viewport": {
          "northeast": {
            "lat": 22.3103727802915,
            "lng": 114.2645101802915
          },
          "southwest": {
            "lat": 22.3076748197085,
            "lng": 114.2618122197085
          }
        }
      },
      "place_id": "ChIJXdbSzYwDBDQRc3iqDdiWv5I",
      "plus_code": {
        "compound_code": "8757+J7 Hong Kong",
        "global_code": "7PJP8757+J7"
      },
      "types": [
        "establishment",
        "food",
        "point_of_interest",
        "restaurant"
      ]
    }
  ],
  "geocode_tc": [
    {
      "address_components": [
        {
          "long_name": "1",
          "short_name": "1",
          "types": [
            "street_number"
          ]
        },
        {
          "long_name": "\u5510\u5fb7\u8857",
          "short_name": "\u5510\u5fb7\u8857",
          "types": [
            "route"
          ]
        },
        {
          "long_name": "\u5c07\u8ecd\u6fb3",
          "short_name": "\u5c07\u8ecd\u6fb3",
          "types": [
            "neighborhood",
            "political"
          ]
        },
        {
          "long_name": "\u65b0\u754c",
          "short_name": "\u65b0\u754c",
          "types": [
            "administrative_area_level_1",
            "political"
          ]
        },
        {
          "long_name": "\u9999\u6e2f",
          "short_name": "HK",
          "types": [
            "country",
            "political"
          ]
        }
      ],
      "formatted_address": "\u9999\u6e2f\u5c07\u8ecd\u6fb3\u5510\u5fb7\u88571\u865f",
      "geometry": {
        "location": {
          "lat": 22.308295,
          "lng": 114.26277
        },
        "location_type": "ROOFTOP",
        "viewport": {
          "northeast": {
            "lat": 22.3096439802915,
            "lng": 114.2641189802915
          },
          "southwest": {
            "lat": 22.30694601970849,
            "lng": 114.2614210197085
          }
        }
      },
      "partial_match": true,
      "place_id": "ChIJVUW4KvMDBDQReJ7veKAdphE",
      "plus_code": {
        "compound_code": "8757+84 \u9999\u6e2f",
        "global_code": "7PJP8757+84"
      },
      "types": [
        "street_address"
      ]
    },
    {
      "address_components": [
        {
          "long_name": "\u9999\u6e2f",
          "short_name": "HK",
          "types": [
            "country",
            "political"
          ]
        }
      ],
      "formatted_address": "1 Tong Tak Street, \u9999\u6e2f",
      "geometry": {
        "location": {
          "lat": 22.3088929,
          "lng": 114.2624969
        },
        "location_type": "GEOMETRIC_CENTER",
        "viewport": {
          "northeast": {
            "lat": 22.3102418802915,
            "lng": 114.2638458802915
          },
          "southwest": {
            "lat": 22.3075439197085,
            "lng": 114.2611479197085
          }
        }
      },
      "partial_match": true,
      "place_id": "ChIJE-FWMvMDBDQRBCxQzoVA-Ao",
      "plus_code": {
        "compound_code": "8756+HX \u9999\u6e2f",
        "global_code": "7PJP8756+HX"
      },
      "types": [
        "establishment",
        "point_of_interest",
        "shopping_mall"
      ]
    },
    {
      "address_components": [
        {
          "long_name": "\u9999\u6e2f",
          "short_name": "HK",
          "types": [
            "country",
            "political"
          ]
        }
      ],
      "formatted_address": "Shop B5-19, B1/F, Aeon Whampoa Store, G/F & Basement 1, Site 5&6 Whampoa Garden Hung Hom, KL, \u9999\u6e2f",
      "geometry": {
        "location": {
          "lat": 22.303843,
          "lng": 114.190238
        },
        "location_type": "GEOMETRIC_CENTER",
        "viewport": {
          "northeast": {
            "lat": 22.3051919802915,
            "lng": 114.1915869802915
          },
          "southwest": {
            "lat": 22.3024940197085,
            "lng": 114.1888890197085
          }
        }
      },
      "partial_match": true,
      "place_id": "ChIJXZsFOeAABDQR5_MtJj7a9Pg",
      "plus_code": {
        "compound_code": "853R+G3 \u9999\u6e2f",
        "global_code": "7PJP853R+G3"
      },
      "types": [
        "establishment",
        "food",
        "point_of_interest",
        "restaurant"
      ]
    }
  ],
  "licno": "2298802782",
  "timestamp": 1564975666,
  "version": "1564966095"
}
