{
  "adr_en": "McDonald's, SHOP G7A ON G/F 1B12-14 ON 1ST BASEMENT, TREASURE WORLD, WHAMPOA GARDEN, SITE 11., HUNG HOM, KOWLOON CITY, KOWLOON",
  "adr_tc": "\u4e5d\u9f8d\u9ec3\u57d4\u82b1\u5712\u7b2c11\u671f\u805a\u5bf6\u574a\u5730\u4e0bG7A\u8216\u53ca\u5730\u5eab1\u6a131 B12\u81f314\u8216 G7A\u8216\u53ca\u5730\u5eab1\u6a131B12\u81f314\u8216 McDonald's",
  "geocode_en": [
    {
      "address_components": [
        {
          "long_name": "Hung Hom",
          "short_name": "Hung Hom",
          "types": [
            "neighborhood",
            "political"
          ]
        },
        {
          "long_name": "Kowloon",
          "short_name": "Kowloon",
          "types": [
            "administrative_area_level_1",
            "political"
          ]
        },
        {
          "long_name": "Hong Kong",
          "short_name": "HK",
          "types": [
            "country",
            "political"
          ]
        }
      ],
      "formatted_address": "Hung Hom, Hong Kong",
      "geometry": {
        "location": {
          "lat": 22.305727,
          "lng": 114.1902
        },
        "location_type": "GEOMETRIC_CENTER",
        "viewport": {
          "northeast": {
            "lat": 22.3070759802915,
            "lng": 114.1915489802915
          },
          "southwest": {
            "lat": 22.3043780197085,
            "lng": 114.1888510197085
          }
        }
      },
      "partial_match": true,
      "place_id": "ChIJr8l_CuAABDQRl4l1r60-GOs",
      "plus_code": {
        "compound_code": "854R+73 Hong Kong",
        "global_code": "7PJP854R+73"
      },
      "types": [
        "establishment",
        "parking",
        "point_of_interest"
      ]
    }
  ],
  "geocode_tc": [
    {
      "address_components": [
        {
          "long_name": "\u7d05\u78e1",
          "short_name": "\u7d05\u78e1",
          "types": [
            "neighborhood",
            "political"
          ]
        },
        {
          "long_name": "\u4e5d\u9f8d",
          "short_name": "\u4e5d\u9f8d",
          "types": [
            "administrative_area_level_1",
            "political"
          ]
        },
        {
          "long_name": "\u9999\u6e2f",
          "short_name": "HK",
          "types": [
            "country",
            "political"
          ]
        }
      ],
      "formatted_address": "\u9999\u6e2f\u7d05\u78e1",
      "geometry": {
        "location": {
          "lat": 22.305727,
          "lng": 114.1902
        },
        "location_type": "GEOMETRIC_CENTER",
        "viewport": {
          "northeast": {
            "lat": 22.3070759802915,
            "lng": 114.1915489802915
          },
          "southwest": {
            "lat": 22.3043780197085,
            "lng": 114.1888510197085
          }
        }
      },
      "partial_match": true,
      "place_id": "ChIJr8l_CuAABDQRl4l1r60-GOs",
      "plus_code": {
        "compound_code": "854R+73 \u9999\u6e2f",
        "global_code": "7PJP854R+73"
      },
      "types": [
        "establishment",
        "parking",
        "point_of_interest"
      ]
    },
    {
      "address_components": [
        {
          "long_name": "\u9999\u6e2f",
          "short_name": "HK",
          "types": [
            "country",
            "political"
          ]
        }
      ],
      "formatted_address": "G/F Entrance at Tak On Street, Whampoa Treasure World, Whampoa Garden Site 11, Hung Hom, \u9999\u6e2f",
      "geometry": {
        "location": {
          "lat": 22.305582,
          "lng": 114.190005
        },
        "location_type": "GEOMETRIC_CENTER",
        "viewport": {
          "northeast": {
            "lat": 22.3069309802915,
            "lng": 114.1913539802915
          },
          "southwest": {
            "lat": 22.30423301970849,
            "lng": 114.1886560197085
          }
        }
      },
      "partial_match": true,
      "place_id": "ChIJGSfVdOAABDQRQDazHmuK538",
      "plus_code": {
        "compound_code": "854R+62 \u9999\u6e2f",
        "global_code": "7PJP854R+62"
      },
      "types": [
        "establishment",
        "point_of_interest"
      ]
    }
  ],
  "licno": "2252162727",
  "timestamp": 1564968756,
  "version": "1564966095"
}
