{
  "adr_en": "(no record found), STALL NO. 33-36 & 132-135, G/F, LEI YUE MUN PLAZA MARKET, LEI YUE MUN ROAD, YAU TONG, KOWLOON",
  "adr_tc": "\u4e5d\u9f8d\u6cb9\u5858\u9bc9\u9b5a\u9580\u9053\u9bc9\u9b5a\u9580\u5ee3\u5834\u8857\u5e02\u5730\u4e0b33-36\u53ca 132-135\u865f\u6a94 \u592a\u5b50\u8336\u9910\u5ef3",
  "geocode_en": [
    {
      "address_components": [
        {
          "long_name": "Yau Tong",
          "short_name": "Yau Tong",
          "types": [
            "neighborhood",
            "political"
          ]
        },
        {
          "long_name": "Kowloon",
          "short_name": "Kowloon",
          "types": [
            "administrative_area_level_1",
            "political"
          ]
        },
        {
          "long_name": "Hong Kong",
          "short_name": "HK",
          "types": [
            "country",
            "political"
          ]
        }
      ],
      "formatted_address": "Yau Tong, Hong Kong",
      "geometry": {
        "location": {
          "lat": 22.2959445,
          "lng": 114.2395141
        },
        "location_type": "GEOMETRIC_CENTER",
        "viewport": {
          "northeast": {
            "lat": 22.2972934802915,
            "lng": 114.2408630802915
          },
          "southwest": {
            "lat": 22.29459551970849,
            "lng": 114.2381651197085
          }
        }
      },
      "partial_match": true,
      "place_id": "ChIJBdH6jt8DBDQRAMmnqAONySc",
      "plus_code": {
        "compound_code": "76WQ+9R Hong Kong",
        "global_code": "7PJP76WQ+9R"
      },
      "types": [
        "establishment",
        "point_of_interest"
      ]
    }
  ],
  "geocode_tc": [
    {
      "address_components": [
        {
          "long_name": "\u9999\u6e2f",
          "short_name": "HK",
          "types": [
            "country",
            "political"
          ]
        }
      ],
      "formatted_address": "\u9999\u6e2f\u6cb9\u5858\u9bc9\u9b5a\u9580\u5ee3\u5834\u5730\u4e0b\u6cb9\u5858\u8857\u5e0232-33\u53ca131-132\u865f\u8216",
      "geometry": {
        "location": {
          "lat": 22.297063,
          "lng": 114.239277
        },
        "location_type": "GEOMETRIC_CENTER",
        "viewport": {
          "northeast": {
            "lat": 22.2984119802915,
            "lng": 114.2406259802915
          },
          "southwest": {
            "lat": 22.2957140197085,
            "lng": 114.2379280197085
          }
        }
      },
      "place_id": "ChIJDTfw9t8DBDQR1SZUXKP86K8",
      "plus_code": {
        "compound_code": "76WQ+RP \u9999\u6e2f",
        "global_code": "7PJP76WQ+RP"
      },
      "types": [
        "establishment",
        "food",
        "point_of_interest",
        "restaurant"
      ]
    }
  ],
  "licno": "2251806321",
  "timestamp": 1564968756,
  "version": "1564966095"
}
