{
  "adr_en": "COUSIN WONTON NOODLE, SHOP D, G/F AND PORTION OF COCKLOFT, CHIK TAT HOUSE, 10-22 CHIK TAK LANE, TAI WAI, SHA TIN, NEW TERRITORIES",
  "adr_tc": "\u65b0\u754c\u6c99\u7530\u5927\u570d\u7a4d\u5fb7\u91cc10-22\u865f\u7a4d\u9054\u6a13\u5730\u4e0bD\u92ea\u53ca\u95a3\u6a13\u90e8\u4efd \u8001\u8868\u96f2\u541e\u9eb5",
  "geocode_en": [
    {
      "address_components": [
        {
          "long_name": "Chik Tat House",
          "short_name": "Chik Tat House",
          "types": [
            "premise"
          ]
        },
        {
          "long_name": "10-22",
          "short_name": "10-22",
          "types": [
            "street_number"
          ]
        },
        {
          "long_name": "Chik Tak Lane",
          "short_name": "Chik Tak Ln",
          "types": [
            "route"
          ]
        },
        {
          "long_name": "Tai Wai",
          "short_name": "Tai Wai",
          "types": [
            "neighborhood",
            "political"
          ]
        },
        {
          "long_name": "New Territories",
          "short_name": "New Territories",
          "types": [
            "administrative_area_level_1",
            "political"
          ]
        },
        {
          "long_name": "Hong Kong",
          "short_name": "HK",
          "types": [
            "country",
            "political"
          ]
        }
      ],
      "formatted_address": "Chik Tat House, 10-22 Chik Tak Ln, Tai Wai, Hong Kong",
      "geometry": {
        "bounds": {
          "northeast": {
            "lat": 22.375808,
            "lng": 114.1780459
          },
          "southwest": {
            "lat": 22.375584,
            "lng": 114.177754
          }
        },
        "location": {
          "lat": 22.3757063,
          "lng": 114.1779105
        },
        "location_type": "ROOFTOP",
        "viewport": {
          "northeast": {
            "lat": 22.3770449802915,
            "lng": 114.1792489302915
          },
          "southwest": {
            "lat": 22.3743470197085,
            "lng": 114.1765509697085
          }
        }
      },
      "partial_match": true,
      "place_id": "ChIJv_54lKcHBDQRgi7DuTXtYt0",
      "types": [
        "premise"
      ]
    }
  ],
  "geocode_tc": [
    {
      "address_components": [
        {
          "long_name": "\u6a13\u5730\u4e0bD\u92ea",
          "short_name": "\u6a13\u5730\u4e0bD\u92ea",
          "types": [
            "subpremise"
          ]
        },
        {
          "long_name": "\u7a4d\u9054\u6a13",
          "short_name": "\u7a4d\u9054\u6a13",
          "types": [
            "premise"
          ]
        },
        {
          "long_name": "10-22",
          "short_name": "10-22",
          "types": [
            "street_number"
          ]
        },
        {
          "long_name": "\u7a4d\u5fb7\u91cc",
          "short_name": "\u7a4d\u5fb7\u91cc",
          "types": [
            "route"
          ]
        },
        {
          "long_name": "\u5927\u570d",
          "short_name": "\u5927\u570d",
          "types": [
            "neighborhood",
            "political"
          ]
        },
        {
          "long_name": "\u65b0\u754c",
          "short_name": "\u65b0\u754c",
          "types": [
            "administrative_area_level_1",
            "political"
          ]
        },
        {
          "long_name": "\u9999\u6e2f",
          "short_name": "HK",
          "types": [
            "country",
            "political"
          ]
        }
      ],
      "formatted_address": "\u9999\u6e2f\u5927\u570d\u7a4d\u5fb7\u91cc10-22\u865f\u7a4d\u9054\u6a13\u6a13\u5730\u4e0bD\u92ea",
      "geometry": {
        "bounds": {
          "northeast": {
            "lat": 22.375808,
            "lng": 114.1780459
          },
          "southwest": {
            "lat": 22.375584,
            "lng": 114.177754
          }
        },
        "location": {
          "lat": 22.3757063,
          "lng": 114.1779105
        },
        "location_type": "ROOFTOP",
        "viewport": {
          "northeast": {
            "lat": 22.3770449802915,
            "lng": 114.1792489302915
          },
          "southwest": {
            "lat": 22.3743470197085,
            "lng": 114.1765509697085
          }
        }
      },
      "partial_match": true,
      "place_id": "EkTmqJPlnLDkuItE6YuqLCBDaGlrIFRhdCBIb3VzZSwgMTAtMjIgQ2hpayBUYWsgTG4sIFRhaSBXYWksIEhvbmcgS29uZyIpGicKFgoUChIJv_54lKcHBDQRgi7DuTXtYt0SDeaok-WcsOS4i0Tpi6o",
      "types": [
        "subpremise"
      ]
    },
    {
      "address_components": [
        {
          "long_name": "18",
          "short_name": "18",
          "types": [
            "street_number"
          ]
        },
        {
          "long_name": "\u7a4d\u4fe1\u8857",
          "short_name": "\u7a4d\u4fe1\u8857",
          "types": [
            "route"
          ]
        },
        {
          "long_name": "\u5927\u570d",
          "short_name": "\u5927\u570d",
          "types": [
            "neighborhood",
            "political"
          ]
        },
        {
          "long_name": "\u65b0\u754c",
          "short_name": "\u65b0\u754c",
          "types": [
            "administrative_area_level_1",
            "political"
          ]
        },
        {
          "long_name": "\u9999\u6e2f",
          "short_name": "HK",
          "types": [
            "country",
            "political"
          ]
        }
      ],
      "formatted_address": "\u9999\u6e2f\u5927\u570d\u7a4d\u4fe1\u885718\u865f",
      "geometry": {
        "location": {
          "lat": 22.376131,
          "lng": 114.177745
        },
        "location_type": "ROOFTOP",
        "viewport": {
          "northeast": {
            "lat": 22.3774799802915,
            "lng": 114.1790939802915
          },
          "southwest": {
            "lat": 22.3747820197085,
            "lng": 114.1763960197085
          }
        }
      },
      "partial_match": true,
      "place_id": "ChIJK8PhvacHBDQRYSYOLCZOe_U",
      "plus_code": {
        "compound_code": "95GH+F3 \u9999\u6e2f",
        "global_code": "7PJP95GH+F3"
      },
      "types": [
        "establishment",
        "food",
        "point_of_interest",
        "restaurant"
      ]
    }
  ],
  "licno": "3197801425",
  "timestamp": 1564975666,
  "version": "1564966095"
}
