{
  "adr_en": "\u65b0\u661f\u9910\u5ef3, SHOP B, G/F, (MAJOR PORT.), SHUN FAT BLDG., 447-449 SHUN NING RD, SHAM SHUI PO, SHAM SHUI PO, KOWLOON",
  "adr_tc": "\u4e5d\u9f8d\u9806\u5be7\u9053 447 - 449 \u865f\u9806\u767c\u5927\u5ec8\u5730\u4e0b B \u8216(\u4e3b\u8981\u90e8\u4efd) \u65b0\u661f\u9910\u5ef3",
  "geocode_en": [
    {
      "address_components": [
        {
          "long_name": "Shun Fat Building",
          "short_name": "Shun Fat Building",
          "types": [
            "premise"
          ]
        },
        {
          "long_name": "445-449",
          "short_name": "445-449",
          "types": [
            "street_number"
          ]
        },
        {
          "long_name": "Shun Ning Road",
          "short_name": "Shun Ning Rd",
          "types": [
            "route"
          ]
        },
        {
          "long_name": "So Uk",
          "short_name": "So Uk",
          "types": [
            "neighborhood",
            "political"
          ]
        },
        {
          "long_name": "Kowloon",
          "short_name": "Kowloon",
          "types": [
            "administrative_area_level_1",
            "political"
          ]
        },
        {
          "long_name": "Hong Kong",
          "short_name": "HK",
          "types": [
            "country",
            "political"
          ]
        }
      ],
      "formatted_address": "Shun Fat Building, 445-449 Shun Ning Rd, So Uk, Hong Kong",
      "geometry": {
        "bounds": {
          "northeast": {
            "lat": 22.3393929,
            "lng": 114.1561835
          },
          "southwest": {
            "lat": 22.339168,
            "lng": 114.1559415
          }
        },
        "location": {
          "lat": 22.3392642,
          "lng": 114.1560562
        },
        "location_type": "ROOFTOP",
        "viewport": {
          "northeast": {
            "lat": 22.3406294302915,
            "lng": 114.1574114802915
          },
          "southwest": {
            "lat": 22.33793146970849,
            "lng": 114.1547135197085
          }
        }
      },
      "partial_match": true,
      "place_id": "ChIJ65T9AE4HBDQR0EmLBuuEwTY",
      "types": [
        "premise"
      ]
    },
    {
      "address_components": [
        {
          "long_name": "447",
          "short_name": "447",
          "types": [
            "street_number"
          ]
        },
        {
          "long_name": "Shun Ning Road",
          "short_name": "Shun Ning Rd",
          "types": [
            "route"
          ]
        },
        {
          "long_name": "So Uk",
          "short_name": "So Uk",
          "types": [
            "neighborhood",
            "political"
          ]
        },
        {
          "long_name": "Kowloon",
          "short_name": "Kowloon",
          "types": [
            "administrative_area_level_1",
            "political"
          ]
        },
        {
          "long_name": "Hong Kong",
          "short_name": "HK",
          "types": [
            "country",
            "political"
          ]
        }
      ],
      "formatted_address": "447 Shun Ning Rd, So Uk, Hong Kong",
      "geometry": {
        "location": {
          "lat": 22.3393259,
          "lng": 114.1561717
        },
        "location_type": "RANGE_INTERPOLATED",
        "viewport": {
          "northeast": {
            "lat": 22.3406748802915,
            "lng": 114.1575206802915
          },
          "southwest": {
            "lat": 22.3379769197085,
            "lng": 114.1548227197085
          }
        }
      },
      "partial_match": true,
      "place_id": "EiI0NDcgU2h1biBOaW5nIFJkLCBTbyBVaywgSG9uZyBLb25nIhsSGQoUChIJjUj_Bk4HBDQRyoI-5iRvHGoQvwM",
      "types": [
        "street_address"
      ]
    }
  ],
  "geocode_tc": [
    {
      "address_components": [
        {
          "long_name": "\u9806\u767c\u5927\u5ec8",
          "short_name": "\u9806\u767c\u5927\u5ec8",
          "types": [
            "premise"
          ]
        },
        {
          "long_name": "445-449",
          "short_name": "445-449",
          "types": [
            "street_number"
          ]
        },
        {
          "long_name": "\u9806\u5be7\u9053",
          "short_name": "\u9806\u5be7\u9053",
          "types": [
            "route"
          ]
        },
        {
          "long_name": "\u8607\u5c4b",
          "short_name": "\u8607\u5c4b",
          "types": [
            "neighborhood",
            "political"
          ]
        },
        {
          "long_name": "\u4e5d\u9f8d",
          "short_name": "\u4e5d\u9f8d",
          "types": [
            "administrative_area_level_1",
            "political"
          ]
        },
        {
          "long_name": "\u9999\u6e2f",
          "short_name": "HK",
          "types": [
            "country",
            "political"
          ]
        }
      ],
      "formatted_address": "\u9999\u6e2f\u8607\u5c4b\u9806\u5be7\u9053445-449\u865f\u9806\u767c\u5927\u5ec8",
      "geometry": {
        "bounds": {
          "northeast": {
            "lat": 22.3393929,
            "lng": 114.1561835
          },
          "southwest": {
            "lat": 22.339168,
            "lng": 114.1559415
          }
        },
        "location": {
          "lat": 22.3392642,
          "lng": 114.1560562
        },
        "location_type": "ROOFTOP",
        "viewport": {
          "northeast": {
            "lat": 22.3406294302915,
            "lng": 114.1574114802915
          },
          "southwest": {
            "lat": 22.33793146970849,
            "lng": 114.1547135197085
          }
        }
      },
      "partial_match": true,
      "place_id": "ChIJ65T9AE4HBDQR0EmLBuuEwTY",
      "types": [
        "premise"
      ]
    }
  ],
  "licno": "2263250075",
  "timestamp": 1564968756,
  "version": "1564966095"
}
