{
  "adr_en": "\u9038\u7fe0\u8ed2, SHOP G11, G12 & G18, G/F, MIRROR TOWER, 61 MODY ROAD, TSIM SHA TSUI, KOWLOON",
  "adr_tc": "\u4e5d\u9f8d\u5c16\u6c99\u5480\u9ebc\u5730\u905361\u865f\u51a0\u83ef\u4e2d\u5fc3\u5730\u4e0bG11,G12\u53caG18\u92ea \u9038\u7fe0\u8ed2",
  "geocode_en": [
    {
      "address_components": [
        {
          "long_name": "Tsim Sha Tsui",
          "short_name": "Tsim Sha Tsui",
          "types": [
            "neighborhood",
            "political"
          ]
        },
        {
          "long_name": "Kowloon",
          "short_name": "Kowloon",
          "types": [
            "administrative_area_level_1",
            "political"
          ]
        },
        {
          "long_name": "Hong Kong",
          "short_name": "HK",
          "types": [
            "country",
            "political"
          ]
        }
      ],
      "formatted_address": "Tsim Sha Tsui, Hong Kong",
      "geometry": {
        "location": {
          "lat": 22.2996874,
          "lng": 114.1757443
        },
        "location_type": "GEOMETRIC_CENTER",
        "viewport": {
          "northeast": {
            "lat": 22.3010363802915,
            "lng": 114.1770932802915
          },
          "southwest": {
            "lat": 22.2983384197085,
            "lng": 114.1743953197085
          }
        }
      },
      "partial_match": true,
      "place_id": "ChIJW-xaLe4ABDQR6bAY-nDTo7Y",
      "plus_code": {
        "compound_code": "75XG+V7 Hong Kong",
        "global_code": "7PJP75XG+V7"
      },
      "types": [
        "establishment",
        "food",
        "point_of_interest",
        "restaurant"
      ]
    },
    {
      "address_components": [
        {
          "long_name": "G11",
          "short_name": "G11",
          "types": [
            "subpremise"
          ]
        },
        {
          "long_name": "Mirror Tower",
          "short_name": "Mirror Tower",
          "types": [
            "premise"
          ]
        },
        {
          "long_name": "61",
          "short_name": "61",
          "types": [
            "street_number"
          ]
        },
        {
          "long_name": "Mody Road",
          "short_name": "Mody Rd",
          "types": [
            "route"
          ]
        },
        {
          "long_name": "Tsim Sha Tsui East",
          "short_name": "Tsim Sha Tsui East",
          "types": [
            "neighborhood",
            "political"
          ]
        },
        {
          "long_name": "Kowloon",
          "short_name": "Kowloon",
          "types": [
            "administrative_area_level_1",
            "political"
          ]
        },
        {
          "long_name": "Hong Kong",
          "short_name": "HK",
          "types": [
            "country",
            "political"
          ]
        }
      ],
      "formatted_address": "G11, Mirror Tower, 61 Mody Rd, Tsim Sha Tsui East, Hong Kong",
      "geometry": {
        "bounds": {
          "northeast": {
            "lat": 22.297758,
            "lng": 114.1767529
          },
          "southwest": {
            "lat": 22.297309,
            "lng": 114.176268
          }
        },
        "location": {
          "lat": 22.2975648,
          "lng": 114.1764939
        },
        "location_type": "ROOFTOP",
        "viewport": {
          "northeast": {
            "lat": 22.2988824802915,
            "lng": 114.1778594302915
          },
          "southwest": {
            "lat": 22.2961845197085,
            "lng": 114.1751614697085
          }
        }
      },
      "partial_match": true,
      "place_id": "EjxHMTEsIE1pcnJvciBUb3dlciwgNjEgTW9keSBSZCwgVHNpbSBTaGEgVHN1aSBFYXN0LCBIb25nIEtvbmciHxodChYKFAoSCdFD7DLuAAQ0EYIGyL0f_Y9LEgNHMTE",
      "types": [
        "subpremise"
      ]
    }
  ],
  "geocode_tc": [
    {
      "address_components": [
        {
          "long_name": "\u9999\u6e2f",
          "short_name": "HK",
          "types": [
            "country",
            "political"
          ]
        }
      ],
      "formatted_address": "\u5c16\u6c99\u5480 \u6771\u90e8 \u9ebd \u5730\u9053 61 \u865f \u51a0\u83ef \u4e2d\u5fc3 \u5730\u4e0b G11, G12 \u865f \u92ea, \u9999\u6e2f",
      "geometry": {
        "location": {
          "lat": 22.2974893,
          "lng": 114.176725
        },
        "location_type": "GEOMETRIC_CENTER",
        "viewport": {
          "northeast": {
            "lat": 22.2988382802915,
            "lng": 114.1780739802915
          },
          "southwest": {
            "lat": 22.2961403197085,
            "lng": 114.1753760197085
          }
        }
      },
      "place_id": "ChIJk2_y0u8ABDQRBT-noYjV8sE",
      "plus_code": {
        "compound_code": "75WG+XM \u9999\u6e2f",
        "global_code": "7PJP75WG+XM"
      },
      "types": [
        "establishment",
        "food",
        "point_of_interest",
        "restaurant"
      ]
    }
  ],
  "licno": "2261814639",
  "timestamp": 1564968756,
  "version": "1564966095"
}
