{
  "adr_en": "Du Hsiao Yueh, AREA ADJACENT TO SHOP NO. B215 & SHOP NO. B215, BASEMENT 2, TIMES SQUARE, 1 MATHESON STREET, CAUSEWAY BAY, HONG KONG",
  "adr_tc": "\u9999\u6e2f\u9285\u947c\u7063\u52ff\u5730\u81e3\u8857 1 \u865f\u6642\u4ee3\u5ee3\u5834\u5730\u5eab 2 \u5c64 B215 \u865f\u92ea\u53ca B215 \u865f\u92ea\u524d\u5730\u65b9 \u5ea6\u5c0f\u6708",
  "geocode_en": [
    {
      "address_components": [
        {
          "long_name": "17",
          "short_name": "17",
          "types": [
            "street_number"
          ]
        },
        {
          "long_name": "Canton Road",
          "short_name": "Canton Rd",
          "types": [
            "route"
          ]
        },
        {
          "long_name": "Hong Kong",
          "short_name": "HK",
          "types": [
            "country",
            "political"
          ]
        }
      ],
      "formatted_address": "Hong Kong, Canton Rd, 17\u865f\u6d77\u6e2f \u57ce \u6d77\u904b \u5927\u5ec8 LCX 3 \u6a13 31 \u865f \u92ea",
      "geometry": {
        "location": {
          "lat": 22.2946937,
          "lng": 114.1661014
        },
        "location_type": "ROOFTOP",
        "viewport": {
          "northeast": {
            "lat": 22.2960426802915,
            "lng": 114.1674503802915
          },
          "southwest": {
            "lat": 22.2933447197085,
            "lng": 114.1647524197085
          }
        }
      },
      "partial_match": true,
      "place_id": "ChIJK98_2owABDQR5PIW58_eqeQ",
      "plus_code": {
        "compound_code": "75V8+VC Hong Kong",
        "global_code": "7PJP75V8+VC"
      },
      "types": [
        "establishment",
        "food",
        "point_of_interest",
        "restaurant"
      ]
    },
    {
      "address_components": [
        {
          "long_name": "1\u865f",
          "short_name": "1\u865f",
          "types": [
            "premise"
          ]
        },
        {
          "long_name": "\u52ff\u5730\u81e3\u8857",
          "short_name": "\u52ff\u5730\u81e3\u8857",
          "types": [
            "route"
          ]
        },
        {
          "long_name": "\u9285\u947c\u7063",
          "short_name": "\u9285\u947c\u7063",
          "types": [
            "neighborhood",
            "political"
          ]
        },
        {
          "long_name": "\u9999\u6e2f\u5cf6",
          "short_name": "\u9999\u6e2f\u5cf6",
          "types": [
            "administrative_area_level_1",
            "political"
          ]
        },
        {
          "long_name": "Hong Kong",
          "short_name": "HK",
          "types": [
            "country",
            "political"
          ]
        }
      ],
      "formatted_address": "Hong Kong, \u9285\u947c\u7063\u52ff\u5730\u81e3\u88571\u865f",
      "geometry": {
        "location": {
          "lat": 22.2781357,
          "lng": 114.1821587
        },
        "location_type": "ROOFTOP",
        "viewport": {
          "northeast": {
            "lat": 22.2794846802915,
            "lng": 114.1835076802915
          },
          "southwest": {
            "lat": 22.2767867197085,
            "lng": 114.1808097197085
          }
        }
      },
      "partial_match": true,
      "place_id": "ChIJ_bAR11AABDQRGxsNeGwaZYM",
      "plus_code": {
        "compound_code": "75HJ+7V Hong Kong",
        "global_code": "7PJP75HJ+7V"
      },
      "types": [
        "establishment",
        "point_of_interest",
        "shopping_mall"
      ]
    },
    {
      "address_components": [
        {
          "long_name": "1",
          "short_name": "1",
          "types": [
            "street_number"
          ]
        },
        {
          "long_name": "Matheson Street",
          "short_name": "Matheson St",
          "types": [
            "route"
          ]
        },
        {
          "long_name": "Causeway Bay",
          "short_name": "Causeway Bay",
          "types": [
            "neighborhood",
            "political"
          ]
        },
        {
          "long_name": "Hong Kong Island",
          "short_name": "Hong Kong Island",
          "types": [
            "administrative_area_level_1",
            "political"
          ]
        },
        {
          "long_name": "Hong Kong",
          "short_name": "HK",
          "types": [
            "country",
            "political"
          ]
        }
      ],
      "formatted_address": "1 Matheson St, Causeway Bay, Hong Kong",
      "geometry": {
        "bounds": {
          "northeast": {
            "lat": 22.278549,
            "lng": 114.1828
          },
          "southwest": {
            "lat": 22.2777224,
            "lng": 114.1815174
          }
        },
        "location": {
          "lat": 22.278151,
          "lng": 114.1821136
        },
        "location_type": "ROOFTOP",
        "viewport": {
          "northeast": {
            "lat": 22.2794846802915,
            "lng": 114.1835076802915
          },
          "southwest": {
            "lat": 22.27678671970849,
            "lng": 114.1808097197085
          }
        }
      },
      "partial_match": true,
      "place_id": "ChIJe2j62lAABDQRGn0XOuWPsFg",
      "types": [
        "premise"
      ]
    }
  ],
  "geocode_tc": [
    {
      "address_components": [
        {
          "long_name": "1",
          "short_name": "1",
          "types": [
            "street_number"
          ]
        },
        {
          "long_name": "\u52ff\u5730\u81e3\u8857",
          "short_name": "\u52ff\u5730\u81e3\u8857",
          "types": [
            "route"
          ]
        },
        {
          "long_name": "\u9285\u947c\u7063",
          "short_name": "\u9285\u947c\u7063",
          "types": [
            "neighborhood",
            "political"
          ]
        },
        {
          "long_name": "\u9999\u6e2f\u5cf6",
          "short_name": "\u9999\u6e2f\u5cf6",
          "types": [
            "administrative_area_level_1",
            "political"
          ]
        },
        {
          "long_name": "\u9999\u6e2f",
          "short_name": "HK",
          "types": [
            "country",
            "political"
          ]
        }
      ],
      "formatted_address": "\u9999\u6e2f\u9285\u947c\u7063\u52ff\u5730\u81e3\u88571\u865f",
      "geometry": {
        "bounds": {
          "northeast": {
            "lat": 22.2783093,
            "lng": 114.1818783
          },
          "southwest": {
            "lat": 22.2781965,
            "lng": 114.1817676
          }
        },
        "location": {
          "lat": 22.2782512,
          "lng": 114.1818234
        },
        "location_type": "ROOFTOP",
        "viewport": {
          "northeast": {
            "lat": 22.2796018802915,
            "lng": 114.1831719302915
          },
          "southwest": {
            "lat": 22.2769039197085,
            "lng": 114.1804739697085
          }
        }
      },
      "partial_match": true,
      "place_id": "ChIJoebUxFAABDQRqkc0t3p2LnE",
      "types": [
        "establishment",
        "point_of_interest",
        "subpremise"
      ]
    }
  ],
  "licno": "2212809103",
  "timestamp": 1564966180,
  "version": "1564966095"
}
