{
  "adr_en": "The French Table, 23/F., 237-239 HENNESSY ROAD, WAN CHAI, HONG KONG",
  "adr_tc": "\u9999\u6e2f\u8ed2\u5c3c\u8a69\u9053237-239\u865f23\u6a13 The French Table",
  "geocode_en": [
    {
      "address_components": [
        {
          "long_name": "Wan Chai",
          "short_name": "Wan Chai",
          "types": [
            "neighborhood",
            "political"
          ]
        },
        {
          "long_name": "Hong Kong Island",
          "short_name": "Hong Kong Island",
          "types": [
            "administrative_area_level_1",
            "political"
          ]
        },
        {
          "long_name": "Hong Kong",
          "short_name": "HK",
          "types": [
            "country",
            "political"
          ]
        }
      ],
      "formatted_address": "Hong Kong, Wan Chai, \u8ed2\u5c3c\u8a69\u9053239\u865f23\u6a13",
      "geometry": {
        "location": {
          "lat": 22.2780898,
          "lng": 114.1760527
        },
        "location_type": "GEOMETRIC_CENTER",
        "viewport": {
          "northeast": {
            "lat": 22.2794387802915,
            "lng": 114.1774016802915
          },
          "southwest": {
            "lat": 22.2767408197085,
            "lng": 114.1747037197085
          }
        }
      },
      "partial_match": true,
      "place_id": "ChIJlc3SsVsABDQRVIhXDsu_OAI",
      "plus_code": {
        "compound_code": "75HG+6C Wan Chai, Hong Kong",
        "global_code": "7PJP75HG+6C"
      },
      "types": [
        "establishment",
        "food",
        "point_of_interest",
        "restaurant"
      ]
    },
    {
      "address_components": [
        {
          "long_name": "23",
          "short_name": "23",
          "types": [
            "subpremise"
          ]
        },
        {
          "long_name": "239",
          "short_name": "239",
          "types": [
            "street_number"
          ]
        },
        {
          "long_name": "Hennessy Road",
          "short_name": "Hennessy Rd",
          "types": [
            "route"
          ]
        },
        {
          "long_name": "Wan Chai",
          "short_name": "Wan Chai",
          "types": [
            "neighborhood",
            "political"
          ]
        },
        {
          "long_name": "Hong Kong Island",
          "short_name": "Hong Kong Island",
          "types": [
            "administrative_area_level_1",
            "political"
          ]
        },
        {
          "long_name": "Hong Kong",
          "short_name": "HK",
          "types": [
            "country",
            "political"
          ]
        }
      ],
      "formatted_address": "23, 239 Hennessy Rd, Wan Chai, Hong Kong",
      "geometry": {
        "bounds": {
          "northeast": {
            "lat": 22.278204,
            "lng": 114.176059
          },
          "southwest": {
            "lat": 22.278066,
            "lng": 114.1759788
          }
        },
        "location": {
          "lat": 22.2781411,
          "lng": 114.1760179
        },
        "location_type": "ROOFTOP",
        "viewport": {
          "northeast": {
            "lat": 22.2794839802915,
            "lng": 114.1773678802915
          },
          "southwest": {
            "lat": 22.2767860197085,
            "lng": 114.1746699197085
          }
        }
      },
      "partial_match": true,
      "place_id": "EigyMywgMjM5IEhlbm5lc3N5IFJkLCBXYW4gQ2hhaSwgSG9uZyBLb25nIh4aHAoWChQKEgndoVmwWwAENBF09JCLDuHbgBICMjM",
      "types": [
        "subpremise"
      ]
    },
    {
      "address_components": [
        {
          "long_name": "F",
          "short_name": "F",
          "types": [
            "subpremise"
          ]
        },
        {
          "long_name": "239",
          "short_name": "239",
          "types": [
            "street_number"
          ]
        },
        {
          "long_name": "Hennessy Road",
          "short_name": "Hennessy Rd",
          "types": [
            "route"
          ]
        },
        {
          "long_name": "Wan Chai",
          "short_name": "Wan Chai",
          "types": [
            "neighborhood",
            "political"
          ]
        },
        {
          "long_name": "Hong Kong Island",
          "short_name": "Hong Kong Island",
          "types": [
            "administrative_area_level_1",
            "political"
          ]
        },
        {
          "long_name": "Hong Kong",
          "short_name": "HK",
          "types": [
            "country",
            "political"
          ]
        }
      ],
      "formatted_address": "F, 239 Hennessy Rd, Wan Chai, Hong Kong",
      "geometry": {
        "bounds": {
          "northeast": {
            "lat": 22.278204,
            "lng": 114.176059
          },
          "southwest": {
            "lat": 22.278066,
            "lng": 114.1759788
          }
        },
        "location": {
          "lat": 22.2781411,
          "lng": 114.1760179
        },
        "location_type": "ROOFTOP",
        "viewport": {
          "northeast": {
            "lat": 22.2794839802915,
            "lng": 114.1773678802915
          },
          "southwest": {
            "lat": 22.2767860197085,
            "lng": 114.1746699197085
          }
        }
      },
      "partial_match": true,
      "place_id": "EidGLCAyMzkgSGVubmVzc3kgUmQsIFdhbiBDaGFpLCBIb25nIEtvbmciHRobChYKFAoSCd2hWbBbAAQ0EXT0kIsO4duAEgFG",
      "types": [
        "subpremise"
      ]
    },
    {
      "address_components": [
        {
          "long_name": "237",
          "short_name": "237",
          "types": [
            "street_number"
          ]
        },
        {
          "long_name": "Hennessy Road",
          "short_name": "Hennessy Rd",
          "types": [
            "route"
          ]
        },
        {
          "long_name": "Wan Chai",
          "short_name": "Wan Chai",
          "types": [
            "neighborhood",
            "political"
          ]
        },
        {
          "long_name": "Hong Kong Island",
          "short_name": "Hong Kong Island",
          "types": [
            "administrative_area_level_1",
            "political"
          ]
        },
        {
          "long_name": "Hong Kong",
          "short_name": "HK",
          "types": [
            "country",
            "political"
          ]
        }
      ],
      "formatted_address": "237 Hennessy Rd, Wan Chai, Hong Kong",
      "geometry": {
        "location": {
          "lat": 22.2781089,
          "lng": 114.1759984
        },
        "location_type": "RANGE_INTERPOLATED",
        "viewport": {
          "northeast": {
            "lat": 22.2794578802915,
            "lng": 114.1773473802915
          },
          "southwest": {
            "lat": 22.2767599197085,
            "lng": 114.1746494197085
          }
        }
      },
      "partial_match": true,
      "place_id": "EiQyMzcgSGVubmVzc3kgUmQsIFdhbiBDaGFpLCBIb25nIEtvbmciGxIZChQKEgmNWT-lWwAENBFMlXIi2ZHlZxDtAQ",
      "types": [
        "street_address"
      ]
    }
  ],
  "geocode_tc": [
    {
      "address_components": [
        {
          "long_name": "\u7063\u4ed4",
          "short_name": "\u7063\u4ed4",
          "types": [
            "neighborhood",
            "political"
          ]
        },
        {
          "long_name": "\u9999\u6e2f\u5cf6",
          "short_name": "\u9999\u6e2f\u5cf6",
          "types": [
            "administrative_area_level_1",
            "political"
          ]
        },
        {
          "long_name": "\u9999\u6e2f",
          "short_name": "HK",
          "types": [
            "country",
            "political"
          ]
        }
      ],
      "formatted_address": "\u9999\u6e2f\u7063\u4ed4\u8ed2\u5c3c\u8a69\u9053239\u865f23\u6a13",
      "geometry": {
        "location": {
          "lat": 22.2780898,
          "lng": 114.1760527
        },
        "location_type": "GEOMETRIC_CENTER",
        "viewport": {
          "northeast": {
            "lat": 22.2794387802915,
            "lng": 114.1774016802915
          },
          "southwest": {
            "lat": 22.2767408197085,
            "lng": 114.1747037197085
          }
        }
      },
      "place_id": "ChIJlc3SsVsABDQRVIhXDsu_OAI",
      "plus_code": {
        "compound_code": "75HG+6C \u9999\u6e2f\u7063\u4ed4",
        "global_code": "7PJP75HG+6C"
      },
      "types": [
        "establishment",
        "food",
        "point_of_interest",
        "restaurant"
      ]
    }
  ],
  "licno": "2212810125",
  "timestamp": 1564966180,
  "version": "1564966095"
}
