{
  "adr_en": "MOU MOU CLUB, SHOP NO. 364A, LEVEL 3,  MA ON SHAN PLAZA, 608 SAI SHA ROAD, MA ON SHAN, SHA TIN, NEW TERRITORIES",
  "adr_tc": "\u65b0\u754c\u6c99\u7530\u99ac\u978d\u5c71\u897f\u6c99\u8def608\u865f\u99ac\u978d\u5c71\u5ee3\u5834\u7b2c3\u5c64364A\u865f\u92ea \u725b\u6dae\u934b",
  "geocode_en": [
    {
      "address_components": [
        {
          "long_name": "Ma On Shan",
          "short_name": "Ma On Shan",
          "types": [
            "neighborhood",
            "political"
          ]
        },
        {
          "long_name": "New Territories",
          "short_name": "New Territories",
          "types": [
            "administrative_area_level_1",
            "political"
          ]
        },
        {
          "long_name": "Hong Kong",
          "short_name": "HK",
          "types": [
            "country",
            "political"
          ]
        }
      ],
      "formatted_address": "Shop 364A, 3/F, Ma On Shan Plaza, Ma On Shan, Hong Kong",
      "geometry": {
        "location": {
          "lat": 22.4257046,
          "lng": 114.2315733
        },
        "location_type": "GEOMETRIC_CENTER",
        "viewport": {
          "northeast": {
            "lat": 22.4270535802915,
            "lng": 114.2329222802915
          },
          "southwest": {
            "lat": 22.4243556197085,
            "lng": 114.2302243197085
          }
        }
      },
      "partial_match": true,
      "place_id": "ChIJu3SkFLEIBDQROpaLolZy0Gw",
      "plus_code": {
        "compound_code": "C6GJ+7J Hong Kong",
        "global_code": "7PJPC6GJ+7J"
      },
      "types": [
        "establishment",
        "food",
        "point_of_interest",
        "restaurant"
      ]
    },
    {
      "address_components": [
        {
          "long_name": "SHOP NO. 364A, LEVEL",
          "short_name": "SHOP NO. 364A, LEVEL",
          "types": [
            "subpremise"
          ]
        },
        {
          "long_name": "Ma On Shan Plaza",
          "short_name": "Ma On Shan Plaza",
          "types": [
            "premise"
          ]
        },
        {
          "long_name": "608",
          "short_name": "608",
          "types": [
            "street_number"
          ]
        },
        {
          "long_name": "Sai Sha Road",
          "short_name": "Sai Sha Rd",
          "types": [
            "route"
          ]
        },
        {
          "long_name": "Ma On Shan",
          "short_name": "Ma On Shan",
          "types": [
            "neighborhood",
            "political"
          ]
        },
        {
          "long_name": "New Territories",
          "short_name": "New Territories",
          "types": [
            "administrative_area_level_1",
            "political"
          ]
        },
        {
          "long_name": "Hong Kong",
          "short_name": "HK",
          "types": [
            "country",
            "political"
          ]
        }
      ],
      "formatted_address": "SHOP NO. 364A, LEVEL, Ma On Shan Plaza, 608 Sai Sha Rd, Ma On Shan, Hong Kong",
      "geometry": {
        "bounds": {
          "northeast": {
            "lat": 22.4260492,
            "lng": 114.2323906
          },
          "southwest": {
            "lat": 22.4248319,
            "lng": 114.2302878
          }
        },
        "location": {
          "lat": 22.4253282,
          "lng": 114.2310624
        },
        "location_type": "ROOFTOP",
        "viewport": {
          "northeast": {
            "lat": 22.4267895302915,
            "lng": 114.2326881802915
          },
          "southwest": {
            "lat": 22.42409156970849,
            "lng": 114.2299902197085
          }
        }
      },
      "partial_match": true,
      "place_id": "Ek1TSE9QIE5PLiAzNjRBLCBMRVZFTCwgTWEgT24gU2hhbiBQbGF6YSwgNjA4IFNhaSBTaGEgUmQsIE1hIE9uIFNoYW4sIEhvbmcgS29uZyIwGi4KFgoUChIJxdqKDbEIBDQRckGbU7-QaScSFFNIT1AgTk8uIDM2NEEsIExFVkVM",
      "types": [
        "subpremise"
      ]
    },
    {
      "address_components": [
        {
          "long_name": "NO. 364A, LEVEL 3",
          "short_name": "NO. 364A, LEVEL 3",
          "types": [
            "subpremise"
          ]
        },
        {
          "long_name": "Ma On Shan Plaza",
          "short_name": "Ma On Shan Plaza",
          "types": [
            "premise"
          ]
        },
        {
          "long_name": "608",
          "short_name": "608",
          "types": [
            "street_number"
          ]
        },
        {
          "long_name": "Sai Sha Road",
          "short_name": "Sai Sha Rd",
          "types": [
            "route"
          ]
        },
        {
          "long_name": "Ma On Shan",
          "short_name": "Ma On Shan",
          "types": [
            "neighborhood",
            "political"
          ]
        },
        {
          "long_name": "New Territories",
          "short_name": "New Territories",
          "types": [
            "administrative_area_level_1",
            "political"
          ]
        },
        {
          "long_name": "Hong Kong",
          "short_name": "HK",
          "types": [
            "country",
            "political"
          ]
        }
      ],
      "formatted_address": "NO. 364A, LEVEL 3, Ma On Shan Plaza, 608 Sai Sha Rd, Ma On Shan, Hong Kong",
      "geometry": {
        "bounds": {
          "northeast": {
            "lat": 22.4260492,
            "lng": 114.2323906
          },
          "southwest": {
            "lat": 22.4248319,
            "lng": 114.2302878
          }
        },
        "location": {
          "lat": 22.4253282,
          "lng": 114.2310624
        },
        "location_type": "ROOFTOP",
        "viewport": {
          "northeast": {
            "lat": 22.4267895302915,
            "lng": 114.2326881802915
          },
          "southwest": {
            "lat": 22.42409156970849,
            "lng": 114.2299902197085
          }
        }
      },
      "partial_match": true,
      "place_id": "EkpOTy4gMzY0QSwgTEVWRUwgMywgTWEgT24gU2hhbiBQbGF6YSwgNjA4IFNhaSBTaGEgUmQsIE1hIE9uIFNoYW4sIEhvbmcgS29uZyItGisKFgoUChIJxdqKDbEIBDQRckGbU7-QaScSEU5PLiAzNjRBLCBMRVZFTCAz",
      "types": [
        "subpremise"
      ]
    }
  ],
  "geocode_tc": [
    {
      "address_components": [
        {
          "long_name": "Ma On Shan",
          "short_name": "Ma On Shan",
          "types": [
            "neighborhood",
            "political"
          ]
        },
        {
          "long_name": "New Territories",
          "short_name": "New Territories",
          "types": [
            "administrative_area_level_1",
            "political"
          ]
        },
        {
          "long_name": "\u9999\u6e2f",
          "short_name": "HK",
          "types": [
            "country",
            "political"
          ]
        }
      ],
      "formatted_address": "Shop 364A, 3/F, Ma On Shan Plaza, Ma On Shan, \u9999\u6e2f",
      "geometry": {
        "location": {
          "lat": 22.4257046,
          "lng": 114.2315733
        },
        "location_type": "GEOMETRIC_CENTER",
        "viewport": {
          "northeast": {
            "lat": 22.4270535802915,
            "lng": 114.2329222802915
          },
          "southwest": {
            "lat": 22.4243556197085,
            "lng": 114.2302243197085
          }
        }
      },
      "place_id": "ChIJu3SkFLEIBDQROpaLolZy0Gw",
      "plus_code": {
        "compound_code": "C6GJ+7J \u9999\u6e2f",
        "global_code": "7PJPC6GJ+7J"
      },
      "types": [
        "establishment",
        "food",
        "point_of_interest",
        "restaurant"
      ]
    }
  ],
  "licno": "2297805988",
  "timestamp": 1564975666,
  "version": "1564966095"
}
