{
  "adr_en": "Express Bar By Lassana, SHOP NO. 2, 1/F, MANULIFE FINANCIAL CENTRE, 223-231 WAI YIP STREET, KWUN TONG, KOWLOON",
  "adr_tc": "\u4e5d\u9f8d\u5b98\u5858\u5049\u696d\u8857223-231\u865f\u5b8f\u5229\u91d1\u878d\u4e2d\u5fc31\u6a132\u865f\u8216 Express Bar By Lassana",
  "geocode_en": [
    {
      "address_components": [
        {
          "long_name": "Hong Kong",
          "short_name": "HK",
          "types": [
            "country",
            "political"
          ]
        }
      ],
      "formatted_address": "Hong Kong, \u89c0\u5858\u5049\u696d\u8857223\u865f\u5b8f\u5229\u91d1\u878d\u4e2d\u5fc31\u6a132\u865f\u8216",
      "geometry": {
        "location": {
          "lat": 22.3071664,
          "lng": 114.2241933
        },
        "location_type": "GEOMETRIC_CENTER",
        "viewport": {
          "northeast": {
            "lat": 22.3085153802915,
            "lng": 114.2255422802915
          },
          "southwest": {
            "lat": 22.3058174197085,
            "lng": 114.2228443197085
          }
        }
      },
      "partial_match": true,
      "place_id": "ChIJc-9_ikQBBDQRlO_WRV1e2dc",
      "plus_code": {
        "compound_code": "864F+VM Hong Kong",
        "global_code": "7PJP864F+VM"
      },
      "types": [
        "establishment",
        "food",
        "point_of_interest",
        "store"
      ]
    },
    {
      "address_components": [
        {
          "long_name": "Manulife Financial Centre Tower A",
          "short_name": "Manulife Financial Centre Tower A",
          "types": [
            "premise"
          ]
        },
        {
          "long_name": "223",
          "short_name": "223",
          "types": [
            "street_number"
          ]
        },
        {
          "long_name": "Wai Yip Street",
          "short_name": "Wai Yip St",
          "types": [
            "route"
          ]
        },
        {
          "long_name": "Kwun Tong",
          "short_name": "Kwun Tong",
          "types": [
            "neighborhood",
            "political"
          ]
        },
        {
          "long_name": "Kowloon",
          "short_name": "Kowloon",
          "types": [
            "administrative_area_level_1",
            "political"
          ]
        },
        {
          "long_name": "Hong Kong",
          "short_name": "HK",
          "types": [
            "country",
            "political"
          ]
        }
      ],
      "formatted_address": "Manulife Financial Centre Tower A, 223 Wai Yip St, Kwun Tong, Hong Kong",
      "geometry": {
        "bounds": {
          "northeast": {
            "lat": 22.3082,
            "lng": 114.223905
          },
          "southwest": {
            "lat": 22.307554,
            "lng": 114.223275
          }
        },
        "location": {
          "lat": 22.3078829,
          "lng": 114.2235394
        },
        "location_type": "ROOFTOP",
        "viewport": {
          "northeast": {
            "lat": 22.3092259802915,
            "lng": 114.2249389802915
          },
          "southwest": {
            "lat": 22.3065280197085,
            "lng": 114.2222410197085
          }
        }
      },
      "partial_match": true,
      "place_id": "ChIJKU8NW0QBBDQR4gkLNBy5N5Y",
      "types": [
        "premise"
      ]
    }
  ],
  "geocode_tc": [
    {
      "address_components": [
        {
          "long_name": "\u9999\u6e2f",
          "short_name": "HK",
          "types": [
            "country",
            "political"
          ]
        }
      ],
      "formatted_address": "\u9999\u6e2f\u89c0\u5858\u5049\u696d\u8857223\u865f\u5b8f\u5229\u91d1\u878d\u4e2d\u5fc31\u6a132\u865f\u8216",
      "geometry": {
        "location": {
          "lat": 22.3071664,
          "lng": 114.2241933
        },
        "location_type": "GEOMETRIC_CENTER",
        "viewport": {
          "northeast": {
            "lat": 22.3085153802915,
            "lng": 114.2255422802915
          },
          "southwest": {
            "lat": 22.3058174197085,
            "lng": 114.2228443197085
          }
        }
      },
      "place_id": "ChIJc-9_ikQBBDQRlO_WRV1e2dc",
      "plus_code": {
        "compound_code": "864F+VM \u9999\u6e2f",
        "global_code": "7PJP864F+VM"
      },
      "types": [
        "establishment",
        "food",
        "point_of_interest",
        "store"
      ]
    }
  ],
  "licno": "3151801050",
  "timestamp": 1564975666,
  "version": "1564966095"
}
