{
  "adr_en": "Beer Station, G/F, DD 104, LOT 3250 A3, KWONG HA TONG, FAIRVIEW PARK ROAD, YUEN LONG, NEW TERRITORIES",
  "adr_tc": "\u65b0\u754c\u5143\u6717\u9326\u7d89\u5927\u9053 \u4e08\u91cf\u7d04\u4efd\u7b2c104\u7d04\u5730\u6bb5 \u7b2c3250\u865fA\u6bb5\u7b2c3\u5206\u6bb5 \u6c5f\u590f\u5802\u5730\u4e0b \u5564\u9152\u7ad9",
  "geocode_en": [
    {
      "address_components": [
        {
          "long_name": "Hong Kong",
          "short_name": "HK",
          "types": [
            "country",
            "political"
          ]
        }
      ],
      "formatted_address": "G/F, DD 104, Lot 3250 A3, Kwong Ha Tong, Fairview Park Road, Yuen Long, New Territories, Hong Kong",
      "geometry": {
        "location": {
          "lat": 22.480886,
          "lng": 114.047833
        },
        "location_type": "GEOMETRIC_CENTER",
        "viewport": {
          "northeast": {
            "lat": 22.4822349802915,
            "lng": 114.0491819802915
          },
          "southwest": {
            "lat": 22.4795370197085,
            "lng": 114.0464840197085
          }
        }
      },
      "partial_match": true,
      "place_id": "ChIJScTlxNTwAzQRYh5VELdZrO4",
      "plus_code": {
        "compound_code": "F2JX+94 Hong Kong",
        "global_code": "7PJPF2JX+94"
      },
      "types": [
        "establishment",
        "point_of_interest"
      ]
    }
  ],
  "geocode_tc": [
    {
      "address_components": [
        {
          "long_name": "\u9326\u7d89\u82b1\u5712\u5927\u9053",
          "short_name": "\u9326\u7d89\u82b1\u5712\u5927\u9053",
          "types": [
            "route"
          ]
        },
        {
          "long_name": "\u5143\u6717",
          "short_name": "\u5143\u6717",
          "types": [
            "neighborhood",
            "political"
          ]
        },
        {
          "long_name": "\u65b0\u754c",
          "short_name": "\u65b0\u754c",
          "types": [
            "administrative_area_level_1",
            "political"
          ]
        },
        {
          "long_name": "\u9999\u6e2f",
          "short_name": "HK",
          "types": [
            "country",
            "political"
          ]
        }
      ],
      "formatted_address": "\u9999\u6e2f\u5143\u6717\u9326\u7d89\u82b1\u5712\u5927\u9053",
      "geometry": {
        "bounds": {
          "northeast": {
            "lat": 22.4734441,
            "lng": 114.0548251
          },
          "southwest": {
            "lat": 22.4710445,
            "lng": 114.0498773
          }
        },
        "location": {
          "lat": 22.4723508,
          "lng": 114.052104
        },
        "location_type": "GEOMETRIC_CENTER",
        "viewport": {
          "northeast": {
            "lat": 22.4735932802915,
            "lng": 114.0548251
          },
          "southwest": {
            "lat": 22.4708953197085,
            "lng": 114.0498773
          }
        }
      },
      "partial_match": true,
      "place_id": "EihGYWlydmlldyBQYXJrIEJsdmQsIFl1ZW4gTG9uZywgSG9uZyBLb25nIi4qLAoUChIJCZercDL3AzQR48Deag-RXq0SFAoSCblmb_a78AM0EeZDtbXiyo01",
      "types": [
        "route"
      ]
    },
    {
      "address_components": [
        {
          "long_name": "\u6c5f\u590f\u5340",
          "short_name": "\u6c5f\u590f\u5340",
          "types": [
            "political",
            "sublocality",
            "sublocality_level_1"
          ]
        },
        {
          "long_name": "\u6b66\u6f22\u5e02",
          "short_name": "\u6b66\u6f22\u5e02",
          "types": [
            "locality",
            "political"
          ]
        },
        {
          "long_name": "\u6e56\u5317\u7701",
          "short_name": "\u6e56\u5317\u7701",
          "types": [
            "administrative_area_level_1",
            "political"
          ]
        },
        {
          "long_name": "\u4e2d\u570b",
          "short_name": "CN",
          "types": [
            "country",
            "political"
          ]
        }
      ],
      "formatted_address": "\u4e2d\u570b\u6e56\u5317\u7701\u6b66\u6f22\u5e02\u6c5f\u590f\u5340",
      "geometry": {
        "bounds": {
          "northeast": {
            "lat": 30.5333699,
            "lng": 114.5986751
          },
          "southwest": {
            "lat": 29.9690766,
            "lng": 114.0367239
          }
        },
        "location": {
          "lat": 30.375552,
          "lng": 114.320726
        },
        "location_type": "APPROXIMATE",
        "viewport": {
          "northeast": {
            "lat": 30.5333699,
            "lng": 114.5986751
          },
          "southwest": {
            "lat": 29.9690766,
            "lng": 114.0367239
          }
        }
      },
      "partial_match": true,
      "place_id": "ChIJ02zcFU_PLjQR-nHkN7HJx4U",
      "types": [
        "political",
        "sublocality",
        "sublocality_level_1"
      ]
    }
  ],
  "licno": "3194001158",
  "timestamp": 1564975666,
  "version": "1564966095"
}
