{
  "adr_en": "\u91d1\u69ae\u5c0f\u5eda, SHOP NOS. 21-23, G/F, HANG FUK BUILDING, YAN OI TONG CIRCUIT, 11-15 KEI LUN PATH, TUEN MUN, NEW TERRITORIES",
  "adr_tc": "\u65b0\u754c\u5c6f\u9580\u4ec1\u611b\u5802\u8857\u5e78\u798f\u6a13\u5730\u92ea21-23\u865f(\u9e92\u9e9f\u5f9111-15\u865f) \u91d1\u69ae\u5c0f\u5eda",
  "geocode_en": [
    {
      "address_components": [
        {
          "long_name": "Tuen Mun",
          "short_name": "Tuen Mun",
          "types": [
            "neighborhood",
            "political"
          ]
        },
        {
          "long_name": "New Territories",
          "short_name": "New Territories",
          "types": [
            "administrative_area_level_1",
            "political"
          ]
        },
        {
          "long_name": "Hong Kong",
          "short_name": "HK",
          "types": [
            "country",
            "political"
          ]
        }
      ],
      "formatted_address": "Hong Kong, Tuen Mun, \u4f55\u798f\u5802 \u9e92\u9e9f \u4fd3 3-8 \u865f \u5730\u8216 \u91d1 \u6eff \u95a3 \uff087-11 \u4fbf\u5229 \u5e97 \u65c1",
      "geometry": {
        "location": {
          "lat": 22.396609,
          "lng": 113.976986
        },
        "location_type": "GEOMETRIC_CENTER",
        "viewport": {
          "northeast": {
            "lat": 22.3979579802915,
            "lng": 113.9783349802915
          },
          "southwest": {
            "lat": 22.39526001970849,
            "lng": 113.9756370197085
          }
        }
      },
      "partial_match": true,
      "place_id": "ChIJDSuFmCL7AzQRJklnEz0lpig",
      "plus_code": {
        "compound_code": "9XWG+JQ Tuen Mun, Hong Kong",
        "global_code": "7PJM9XWG+JQ"
      },
      "types": [
        "establishment",
        "food",
        "point_of_interest",
        "restaurant"
      ]
    },
    {
      "address_components": [
        {
          "long_name": "Hang Fuk Building Phase III",
          "short_name": "Hang Fuk Building Phase III",
          "types": [
            "premise"
          ]
        },
        {
          "long_name": "1",
          "short_name": "1",
          "types": [
            "street_number"
          ]
        },
        {
          "long_name": "Kei Lun Path",
          "short_name": "Kei Lun Path",
          "types": [
            "route"
          ]
        },
        {
          "long_name": "San Hui",
          "short_name": "San Hui",
          "types": [
            "neighborhood",
            "political"
          ]
        },
        {
          "long_name": "New Territories",
          "short_name": "New Territories",
          "types": [
            "administrative_area_level_1",
            "political"
          ]
        },
        {
          "long_name": "Hong Kong",
          "short_name": "HK",
          "types": [
            "country",
            "political"
          ]
        }
      ],
      "formatted_address": "Hang Fuk Building Phase III, 1 Kei Lun Path, San Hui, Hong Kong",
      "geometry": {
        "bounds": {
          "northeast": {
            "lat": 22.3967519,
            "lng": 113.977353
          },
          "southwest": {
            "lat": 22.39633,
            "lng": 113.9771401
          }
        },
        "location": {
          "lat": 22.3966672,
          "lng": 113.9772046
        },
        "location_type": "ROOFTOP",
        "viewport": {
          "northeast": {
            "lat": 22.3978899302915,
            "lng": 113.9785955302915
          },
          "southwest": {
            "lat": 22.3951919697085,
            "lng": 113.9758975697085
          }
        }
      },
      "partial_match": true,
      "place_id": "ChIJk2EKnyL7AzQRNAA_mBtfE_8",
      "types": [
        "premise"
      ]
    },
    {
      "address_components": [
        {
          "long_name": "11",
          "short_name": "11",
          "types": [
            "street_number"
          ]
        },
        {
          "long_name": "Yan Oi Tong Circuit",
          "short_name": "Yan Oi Tong Circuit",
          "types": [
            "route"
          ]
        },
        {
          "long_name": "San Hui",
          "short_name": "San Hui",
          "types": [
            "neighborhood",
            "political"
          ]
        },
        {
          "long_name": "New Territories",
          "short_name": "New Territories",
          "types": [
            "administrative_area_level_1",
            "political"
          ]
        },
        {
          "long_name": "Hong Kong",
          "short_name": "HK",
          "types": [
            "country",
            "political"
          ]
        }
      ],
      "formatted_address": "11 Yan Oi Tong Circuit, San Hui, Hong Kong",
      "geometry": {
        "location": {
          "lat": 22.3953209,
          "lng": 113.977136
        },
        "location_type": "RANGE_INTERPOLATED",
        "viewport": {
          "northeast": {
            "lat": 22.3966698802915,
            "lng": 113.9784849802915
          },
          "southwest": {
            "lat": 22.3939719197085,
            "lng": 113.9757870197085
          }
        }
      },
      "partial_match": true,
      "place_id": "EioxMSBZYW4gT2kgVG9uZyBDaXJjdWl0LCBTYW4gSHVpLCBIb25nIEtvbmciGhIYChQKEgn3Ow6mIvsDNBESiLIj0icgWBAL",
      "types": [
        "street_address"
      ]
    }
  ],
  "geocode_tc": [
    {
      "address_components": [
        {
          "long_name": "\u5c6f\u9580",
          "short_name": "\u5c6f\u9580",
          "types": [
            "neighborhood",
            "political"
          ]
        },
        {
          "long_name": "\u65b0\u754c",
          "short_name": "\u65b0\u754c",
          "types": [
            "administrative_area_level_1",
            "political"
          ]
        },
        {
          "long_name": "\u9999\u6e2f",
          "short_name": "HK",
          "types": [
            "country",
            "political"
          ]
        }
      ],
      "formatted_address": "\u9999\u6e2f\u5c6f\u9580\u4f55\u798f\u5802 \u9e92\u9e9f \u4fd3 3-8 \u865f \u5730\u8216 \u91d1 \u6eff \u95a3 \uff087-11 \u4fbf\u5229 \u5e97 \u65c1",
      "geometry": {
        "location": {
          "lat": 22.396609,
          "lng": 113.976986
        },
        "location_type": "GEOMETRIC_CENTER",
        "viewport": {
          "northeast": {
            "lat": 22.3979579802915,
            "lng": 113.9783349802915
          },
          "southwest": {
            "lat": 22.39526001970849,
            "lng": 113.9756370197085
          }
        }
      },
      "place_id": "ChIJDSuFmCL7AzQRJklnEz0lpig",
      "plus_code": {
        "compound_code": "9XWG+JQ \u9999\u6e2f\u5c6f\u9580",
        "global_code": "7PJM9XWG+JQ"
      },
      "types": [
        "establishment",
        "food",
        "point_of_interest",
        "restaurant"
      ]
    }
  ],
  "licno": "2293803683",
  "timestamp": 1564968756,
  "version": "1564966095"
}
