{
  "adr_en": "\u60f3\u4e0d\u8d77\u4f86, SHOP 5, 1/F, ENTERPRISE SQUARE, 9 SHEUNG YUET ROAD, KOWLOON BAY, KOWLOON",
  "adr_tc": "\u4e5d\u9f8d\u4e5d\u9f8d\u7063\u5e38\u6085\u90539\u865f \u4f01\u696d\u5ee3\u58341\u6a135\u865f\u8216 \u60f3\u4e0d\u8d77\u4f86",
  "geocode_en": [
    {
      "address_components": [
        {
          "long_name": "Hong Kong",
          "short_name": "HK",
          "types": [
            "country",
            "political"
          ]
        }
      ],
      "formatted_address": "5A-C, 1/F, 9 Sheung Yuet Road, Kowloon Bay, Hong Kong",
      "geometry": {
        "location": {
          "lat": 22.3223898,
          "lng": 114.2078881
        },
        "location_type": "GEOMETRIC_CENTER",
        "viewport": {
          "northeast": {
            "lat": 22.3237387802915,
            "lng": 114.2092370802915
          },
          "southwest": {
            "lat": 22.3210408197085,
            "lng": 114.2065391197085
          }
        }
      },
      "partial_match": true,
      "place_id": "ChIJsy5xnzMBBDQRy4nXEqLt8jo",
      "plus_code": {
        "compound_code": "86C5+X5 Hong Kong",
        "global_code": "7PJP86C5+X5"
      },
      "types": [
        "establishment",
        "food",
        "point_of_interest",
        "restaurant"
      ]
    },
    {
      "address_components": [
        {
          "long_name": "Enterprise Square",
          "short_name": "Enterprise Square",
          "types": [
            "premise"
          ]
        },
        {
          "long_name": "9",
          "short_name": "9",
          "types": [
            "street_number"
          ]
        },
        {
          "long_name": "Sheung Yuet Road",
          "short_name": "Sheung Yuet Rd",
          "types": [
            "route"
          ]
        },
        {
          "long_name": "Kowloon Bay",
          "short_name": "Kowloon Bay",
          "types": [
            "neighborhood",
            "political"
          ]
        },
        {
          "long_name": "Kowloon",
          "short_name": "Kowloon",
          "types": [
            "administrative_area_level_1",
            "political"
          ]
        },
        {
          "long_name": "Hong Kong",
          "short_name": "HK",
          "types": [
            "country",
            "political"
          ]
        }
      ],
      "formatted_address": "Enterprise Square, 9 Sheung Yuet Rd, Kowloon Bay, Hong Kong",
      "geometry": {
        "bounds": {
          "northeast": {
            "lat": 22.3224499,
            "lng": 114.208205
          },
          "southwest": {
            "lat": 22.3216651,
            "lng": 114.2076379
          }
        },
        "location": {
          "lat": 22.3220294,
          "lng": 114.2079355
        },
        "location_type": "ROOFTOP",
        "viewport": {
          "northeast": {
            "lat": 22.3234064802915,
            "lng": 114.2092704302915
          },
          "southwest": {
            "lat": 22.3207085197085,
            "lng": 114.2065724697085
          }
        }
      },
      "partial_match": true,
      "place_id": "ChIJnSS5mDMBBDQRfJgSq77JaNM",
      "types": [
        "premise"
      ]
    }
  ],
  "geocode_tc": [
    {
      "address_components": [
        {
          "long_name": "\u5e38\u6085\u9053",
          "short_name": "\u5e38\u6085\u9053",
          "types": [
            "route"
          ]
        },
        {
          "long_name": "\u4e5d\u9f8d\u7063",
          "short_name": "\u4e5d\u9f8d\u7063",
          "types": [
            "neighborhood",
            "political"
          ]
        },
        {
          "long_name": "\u4e5d\u9f8d",
          "short_name": "\u4e5d\u9f8d",
          "types": [
            "administrative_area_level_1",
            "political"
          ]
        },
        {
          "long_name": "\u9999\u6e2f",
          "short_name": "HK",
          "types": [
            "country",
            "political"
          ]
        }
      ],
      "formatted_address": "\u9999\u6e2f\u4e5d\u9f8d\u7063\u5e38\u6085\u9053\u4f01\u696d\u5ee3\u5834",
      "geometry": {
        "location": {
          "lat": 22.3220434,
          "lng": 114.207954
        },
        "location_type": "GEOMETRIC_CENTER",
        "viewport": {
          "northeast": {
            "lat": 22.3233923802915,
            "lng": 114.2093029802915
          },
          "southwest": {
            "lat": 22.3206944197085,
            "lng": 114.2066050197085
          }
        }
      },
      "place_id": "ChIJWUPFmTMBBDQRYu5ewN4yAJ0",
      "plus_code": {
        "compound_code": "86C5+R5 \u9999\u6e2f",
        "global_code": "7PJP86C5+R5"
      },
      "types": [
        "establishment",
        "point_of_interest",
        "premise"
      ]
    }
  ],
  "licno": "2251252278",
  "timestamp": 1564968756,
  "version": "1564966095"
}
