{
  "adr_en": "Coins, 15/F, THE WAVE, 184 NATHAN ROAD, TSIM SHA TSUI, KOWLOON",
  "adr_tc": "\u4e5d\u9f8d\u5c16\u6c99\u5480 \u5f4c\u6566\u9053184\u865f THE WAVE \u5341\u4e94\u6a13 Coins",
  "geocode_en": [
    {
      "address_components": [
        {
          "long_name": "184",
          "short_name": "184",
          "types": [
            "street_number"
          ]
        },
        {
          "long_name": "Nathan Road",
          "short_name": "Nathan Rd",
          "types": [
            "route"
          ]
        },
        {
          "long_name": "Tsim Sha Tsui",
          "short_name": "Tsim Sha Tsui",
          "types": [
            "neighborhood",
            "political"
          ]
        },
        {
          "long_name": "Kowloon",
          "short_name": "Kowloon",
          "types": [
            "administrative_area_level_1",
            "political"
          ]
        },
        {
          "long_name": "Hong Kong",
          "short_name": "HK",
          "types": [
            "country",
            "political"
          ]
        }
      ],
      "formatted_address": "184 Nathan Rd, Tsim Sha Tsui, Hong Kong",
      "geometry": {
        "bounds": {
          "northeast": {
            "lat": 22.30308,
            "lng": 114.172215
          },
          "southwest": {
            "lat": 22.3029681,
            "lng": 114.171902
          }
        },
        "location": {
          "lat": 22.3030378,
          "lng": 114.1720585
        },
        "location_type": "ROOFTOP",
        "viewport": {
          "northeast": {
            "lat": 22.3043730302915,
            "lng": 114.1734074802915
          },
          "southwest": {
            "lat": 22.3016750697085,
            "lng": 114.1707095197085
          }
        }
      },
      "partial_match": true,
      "place_id": "ChIJ_XeeiusABDQRSLVxAKWCcvo",
      "types": [
        "premise"
      ]
    }
  ],
  "geocode_tc": [
    {
      "address_components": [
        {
          "long_name": "184",
          "short_name": "184",
          "types": [
            "street_number"
          ]
        },
        {
          "long_name": "\u5f4c\u6566\u9053",
          "short_name": "\u5f4c\u6566\u9053",
          "types": [
            "route"
          ]
        },
        {
          "long_name": "\u5c16\u6c99\u5480",
          "short_name": "\u5c16\u6c99\u5480",
          "types": [
            "neighborhood",
            "political"
          ]
        },
        {
          "long_name": "\u4e5d\u9f8d",
          "short_name": "\u4e5d\u9f8d",
          "types": [
            "administrative_area_level_1",
            "political"
          ]
        },
        {
          "long_name": "\u9999\u6e2f",
          "short_name": "HK",
          "types": [
            "country",
            "political"
          ]
        }
      ],
      "formatted_address": "\u9999\u6e2f\u5c16\u6c99\u5480\u5f4c\u6566\u9053184\u865f",
      "geometry": {
        "bounds": {
          "northeast": {
            "lat": 22.30308,
            "lng": 114.172215
          },
          "southwest": {
            "lat": 22.3029681,
            "lng": 114.171902
          }
        },
        "location": {
          "lat": 22.3030378,
          "lng": 114.1720585
        },
        "location_type": "ROOFTOP",
        "viewport": {
          "northeast": {
            "lat": 22.3043730302915,
            "lng": 114.1734074802915
          },
          "southwest": {
            "lat": 22.3016750697085,
            "lng": 114.1707095197085
          }
        }
      },
      "partial_match": true,
      "place_id": "ChIJ_XeeiusABDQRSLVxAKWCcvo",
      "types": [
        "premise"
      ]
    }
  ],
  "licno": "3161807325",
  "timestamp": 1564975666,
  "version": "1564966095"
}
