{
  "adr_en": "WHAT THE PHO, SHOP G11, GROUND FLOOR, PARK CENTRAL, NO.9 TONG TAK STREET, TSEUNG KWAN O, SAI KUNG, NEW TERRITORIES",
  "adr_tc": "\u65b0\u754c\u897f\u8ca2\u5c07\u8ecd\u6fb3\u5510\u5fb7\u88579\u865f\u5c07\u8ecd\u6fb3\u4e2d\u5fc3\u5730\u4e0bG11\u92ea WHAT THE PHO",
  "geocode_en": [
    {
      "address_components": [
        {
          "long_name": "Hong Kong",
          "short_name": "HK",
          "types": [
            "country",
            "political"
          ]
        }
      ],
      "formatted_address": "Hong Kong, Shop G11, G/F, Park Central, Tseung Kwan O, Kowloon",
      "geometry": {
        "location": {
          "lat": 22.3074512,
          "lng": 114.2577451
        },
        "location_type": "GEOMETRIC_CENTER",
        "viewport": {
          "northeast": {
            "lat": 22.3088001802915,
            "lng": 114.2590940802915
          },
          "southwest": {
            "lat": 22.3061022197085,
            "lng": 114.2563961197085
          }
        }
      },
      "partial_match": true,
      "place_id": "ChIJqyKhF_IDBDQR_0vRlhV4Izc",
      "plus_code": {
        "compound_code": "8745+X3 Hong Kong",
        "global_code": "7PJP8745+X3"
      },
      "types": [
        "establishment",
        "food",
        "point_of_interest",
        "restaurant"
      ]
    },
    {
      "address_components": [
        {
          "long_name": "Park Central",
          "short_name": "Park Central",
          "types": [
            "premise"
          ]
        },
        {
          "long_name": "Tseung Kwan O",
          "short_name": "Tseung Kwan O",
          "types": [
            "neighborhood",
            "political"
          ]
        },
        {
          "long_name": "New Territories",
          "short_name": "New Territories",
          "types": [
            "administrative_area_level_1",
            "political"
          ]
        },
        {
          "long_name": "Hong Kong",
          "short_name": "HK",
          "types": [
            "country",
            "political"
          ]
        }
      ],
      "formatted_address": "Park Central, Tseung Kwan O, Hong Kong",
      "geometry": {
        "bounds": {
          "northeast": {
            "lat": 22.3079892,
            "lng": 114.2585073
          },
          "southwest": {
            "lat": 22.3059989,
            "lng": 114.2558303
          }
        },
        "location": {
          "lat": 22.3067664,
          "lng": 114.2565099
        },
        "location_type": "GEOMETRIC_CENTER",
        "viewport": {
          "northeast": {
            "lat": 22.3083430302915,
            "lng": 114.2585177802915
          },
          "southwest": {
            "lat": 22.3056450697085,
            "lng": 114.2558198197085
          }
        }
      },
      "partial_match": true,
      "place_id": "ChIJjxxGA_IDBDQRYNZUwgk-bVA",
      "types": [
        "premise"
      ]
    },
    {
      "address_components": [
        {
          "long_name": "9",
          "short_name": "9",
          "types": [
            "street_number"
          ]
        },
        {
          "long_name": "Tong Tak Street",
          "short_name": "Tong Tak St",
          "types": [
            "route"
          ]
        },
        {
          "long_name": "Tseung Kwan O",
          "short_name": "Tseung Kwan O",
          "types": [
            "neighborhood",
            "political"
          ]
        },
        {
          "long_name": "New Territories",
          "short_name": "New Territories",
          "types": [
            "administrative_area_level_1",
            "political"
          ]
        },
        {
          "long_name": "Hong Kong",
          "short_name": "HK",
          "types": [
            "country",
            "political"
          ]
        }
      ],
      "formatted_address": "\u65b0\u754c\u5c07\u8ecd\u6fb3\u5510\u5fb7\u88579\u865f\u5c07\u8ecd\u6fb3\u4e2d\u5fc3(Park Central) \u5730\u4e0bG47\u865f\u92ea G/F, Shop G47, Park Central Shopping Centre, 9 Tong Tak St, Tseung Kwan O, Hong Kong",
      "geometry": {
        "location": {
          "lat": 22.3067844,
          "lng": 114.25681
        },
        "location_type": "ROOFTOP",
        "viewport": {
          "northeast": {
            "lat": 22.3081333802915,
            "lng": 114.2581589802915
          },
          "southwest": {
            "lat": 22.3054354197085,
            "lng": 114.2554610197085
          }
        }
      },
      "partial_match": true,
      "place_id": "ChIJve6EBvIDBDQRzz1TxeWW4lM",
      "plus_code": {
        "compound_code": "8744+PP Tseung Kwan O, Hong Kong",
        "global_code": "7PJP8744+PP"
      },
      "types": [
        "establishment",
        "jewelry_store",
        "point_of_interest",
        "shopping_mall",
        "store"
      ]
    }
  ],
  "geocode_tc": [
    {
      "address_components": [
        {
          "long_name": "\u9999\u6e2f",
          "short_name": "HK",
          "types": [
            "country",
            "political"
          ]
        }
      ],
      "formatted_address": "\u9999\u6e2fShop G11, G/F, Park Central, Tseung Kwan O, Kowloon",
      "geometry": {
        "location": {
          "lat": 22.3074512,
          "lng": 114.2577451
        },
        "location_type": "GEOMETRIC_CENTER",
        "viewport": {
          "northeast": {
            "lat": 22.3088001802915,
            "lng": 114.2590940802915
          },
          "southwest": {
            "lat": 22.3061022197085,
            "lng": 114.2563961197085
          }
        }
      },
      "partial_match": true,
      "place_id": "ChIJqyKhF_IDBDQR_0vRlhV4Izc",
      "plus_code": {
        "compound_code": "8745+X3 \u9999\u6e2f",
        "global_code": "7PJP8745+X3"
      },
      "types": [
        "establishment",
        "food",
        "point_of_interest",
        "restaurant"
      ]
    },
    {
      "address_components": [
        {
          "long_name": "\u5c07\u8ecd\u6fb3\u4e2d\u5fc3",
          "short_name": "\u5c07\u8ecd\u6fb3\u4e2d\u5fc3",
          "types": [
            "premise"
          ]
        },
        {
          "long_name": "9",
          "short_name": "9",
          "types": [
            "street_number"
          ]
        },
        {
          "long_name": "\u5510\u5fb7\u8857",
          "short_name": "\u5510\u5fb7\u8857",
          "types": [
            "route"
          ]
        },
        {
          "long_name": "\u5c07\u8ecd\u6fb3",
          "short_name": "\u5c07\u8ecd\u6fb3",
          "types": [
            "neighborhood",
            "political"
          ]
        },
        {
          "long_name": "\u65b0\u754c",
          "short_name": "\u65b0\u754c",
          "types": [
            "administrative_area_level_1",
            "political"
          ]
        },
        {
          "long_name": "\u9999\u6e2f",
          "short_name": "HK",
          "types": [
            "country",
            "political"
          ]
        }
      ],
      "formatted_address": "\u9999\u6e2f\u5c07\u8ecd\u6fb3\u5510\u5fb7\u88579\u865f\u5c07\u8ecd\u6fb3\u4e2d\u5fc3",
      "geometry": {
        "bounds": {
          "northeast": {
            "lat": 22.3080306,
            "lng": 114.2583952
          },
          "southwest": {
            "lat": 22.3063321,
            "lng": 114.2559789
          }
        },
        "location": {
          "lat": 22.3072012,
          "lng": 114.2570671
        },
        "location_type": "ROOFTOP",
        "viewport": {
          "northeast": {
            "lat": 22.3085303302915,
            "lng": 114.2585360302915
          },
          "southwest": {
            "lat": 22.3058323697085,
            "lng": 114.2558380697085
          }
        }
      },
      "partial_match": true,
      "place_id": "ChIJseOJHPIDBDQRUH568I1Z_b8",
      "types": [
        "premise"
      ]
    }
  ],
  "licno": "2298803952",
  "timestamp": 1564975666,
  "version": "1564966095"
}
