{
  "adr_en": "SNOW FLAME, SHOP 2, G/F,  CHEONG HING MANSION, 53-61 YAN HING STREET, TAI PO, NEW TERRITORIES",
  "adr_tc": "\u65b0\u754c\u5927\u57d4\u4ec1\u8208\u885753-61\u865f\u660c\u6176\u5927\u5ec8\u5730\u4e0b2\u865f\u92ea \u96ea\u7130",
  "geocode_en": [
    {
      "address_components": [
        {
          "long_name": "Cheong Hing Building",
          "short_name": "Cheong Hing Building",
          "types": [
            "premise"
          ]
        },
        {
          "long_name": "53-61",
          "short_name": "53-61",
          "types": [
            "street_number"
          ]
        },
        {
          "long_name": "Yan Hing Street",
          "short_name": "Yan Hing St",
          "types": [
            "route"
          ]
        },
        {
          "long_name": "Tai Po",
          "short_name": "Tai Po",
          "types": [
            "neighborhood",
            "political"
          ]
        },
        {
          "long_name": "New Territories",
          "short_name": "New Territories",
          "types": [
            "administrative_area_level_1",
            "political"
          ]
        },
        {
          "long_name": "Hong Kong",
          "short_name": "HK",
          "types": [
            "country",
            "political"
          ]
        }
      ],
      "formatted_address": "Cheong Hing Building, 53-61 Yan Hing St, Tai Po, Hong Kong",
      "geometry": {
        "bounds": {
          "northeast": {
            "lat": 22.4494379,
            "lng": 114.164023
          },
          "southwest": {
            "lat": 22.4492159,
            "lng": 114.1638081
          }
        },
        "location": {
          "lat": 22.4493311,
          "lng": 114.1639306
        },
        "location_type": "ROOFTOP",
        "viewport": {
          "northeast": {
            "lat": 22.4506758802915,
            "lng": 114.1652645302915
          },
          "southwest": {
            "lat": 22.4479779197085,
            "lng": 114.1625665697085
          }
        }
      },
      "partial_match": true,
      "place_id": "ChIJ3ehAzT4IBDQRckk-7zQj-QQ",
      "types": [
        "premise"
      ]
    }
  ],
  "geocode_tc": [
    {
      "address_components": [
        {
          "long_name": "\u865f\u92ea",
          "short_name": "\u865f\u92ea",
          "types": [
            "subpremise"
          ]
        },
        {
          "long_name": "\u660c\u6176\u5927\u5ec8",
          "short_name": "\u660c\u6176\u5927\u5ec8",
          "types": [
            "premise"
          ]
        },
        {
          "long_name": "53-61",
          "short_name": "53-61",
          "types": [
            "street_number"
          ]
        },
        {
          "long_name": "\u4ec1\u8208\u8857",
          "short_name": "\u4ec1\u8208\u8857",
          "types": [
            "route"
          ]
        },
        {
          "long_name": "\u5927\u57d4",
          "short_name": "\u5927\u57d4",
          "types": [
            "neighborhood",
            "political"
          ]
        },
        {
          "long_name": "\u65b0\u754c",
          "short_name": "\u65b0\u754c",
          "types": [
            "administrative_area_level_1",
            "political"
          ]
        },
        {
          "long_name": "\u9999\u6e2f",
          "short_name": "HK",
          "types": [
            "country",
            "political"
          ]
        }
      ],
      "formatted_address": "\u9999\u6e2f\u5927\u57d4\u4ec1\u8208\u885753-61\u865f\u660c\u6176\u5927\u5ec8\u865f\u92ea",
      "geometry": {
        "bounds": {
          "northeast": {
            "lat": 22.4494379,
            "lng": 114.164023
          },
          "southwest": {
            "lat": 22.4492159,
            "lng": 114.1638081
          }
        },
        "location": {
          "lat": 22.4493311,
          "lng": 114.1639306
        },
        "location_type": "ROOFTOP",
        "viewport": {
          "northeast": {
            "lat": 22.4506758802915,
            "lng": 114.1652645302915
          },
          "southwest": {
            "lat": 22.4479779197085,
            "lng": 114.1625665697085
          }
        }
      },
      "partial_match": true,
      "place_id": "EkLomZ_pi6osIENoZW9uZyBIaW5nIEJ1aWxkaW5nLCA1My02MSBZYW4gSGluZyBTdCwgVGFpIFBvLCBIb25nIEtvbmciIhogChYKFAoSCd3oQM0-CAQ0EXJJPu80I_kEEgbomZ_pi6o",
      "types": [
        "subpremise"
      ]
    },
    {
      "address_components": [
        {
          "long_name": "55\u865f",
          "short_name": "55\u865f",
          "types": [
            "street_number"
          ]
        },
        {
          "long_name": "\u4ec1\u8208\u8857",
          "short_name": "\u4ec1\u8208\u8857",
          "types": [
            "route"
          ]
        },
        {
          "long_name": "\u5927\u57d4",
          "short_name": "\u5927\u57d4",
          "types": [
            "neighborhood",
            "political"
          ]
        },
        {
          "long_name": "\u65b0\u754c",
          "short_name": "\u65b0\u754c",
          "types": [
            "administrative_area_level_1",
            "political"
          ]
        },
        {
          "long_name": "\u9999\u6e2f",
          "short_name": "HK",
          "types": [
            "country",
            "political"
          ]
        }
      ],
      "formatted_address": "\u9999\u6e2f\u5927\u57d4\u4ec1\u8208\u885755\u865f",
      "geometry": {
        "location": {
          "lat": 22.4492821,
          "lng": 114.1640096
        },
        "location_type": "ROOFTOP",
        "viewport": {
          "northeast": {
            "lat": 22.4506310802915,
            "lng": 114.1653585802915
          },
          "southwest": {
            "lat": 22.4479331197085,
            "lng": 114.1626606197085
          }
        }
      },
      "partial_match": true,
      "place_id": "ChIJCbGtaD8IBDQR8JjrmKqfzSs",
      "plus_code": {
        "compound_code": "C5X7+PJ \u9999\u6e2f",
        "global_code": "7PJPC5X7+PJ"
      },
      "types": [
        "establishment",
        "food",
        "point_of_interest",
        "restaurant"
      ]
    }
  ],
  "licno": "2295802824",
  "timestamp": 1564975666,
  "version": "1564966095"
}
