{
  "adr_en": "FOOK LING MOON SEAFOOD RESTAURANT, 1/F (PART OF), MAISON ROSE, 270 CHEUNG SHA WAN ROAD, CHEUNG SHA WAN, KOWLOON",
  "adr_tc": "\u4e5d\u9f8d\u9577\u6c99\u7063\u9577\u6c99\u7063\u9053270\u865f\u5fa1\u532f\u4e00\u5b57\u6a13(\u90e8\u4efd) \u798f\u9f8d\u9580\u6d77\u9bae\u9152\u5bb6",
  "geocode_en": [
    {
      "address_components": [
        {
          "long_name": "Maison Rose",
          "short_name": "Maison Rose",
          "types": [
            "premise"
          ]
        },
        {
          "long_name": "270",
          "short_name": "270",
          "types": [
            "street_number"
          ]
        },
        {
          "long_name": "Cheung Sha Wan Road",
          "short_name": "Cheung Sha Wan Rd",
          "types": [
            "route"
          ]
        },
        {
          "long_name": "Om Yau",
          "short_name": "Om Yau",
          "types": [
            "neighborhood",
            "political"
          ]
        },
        {
          "long_name": "Kowloon",
          "short_name": "Kowloon",
          "types": [
            "administrative_area_level_1",
            "political"
          ]
        },
        {
          "long_name": "Hong Kong",
          "short_name": "HK",
          "types": [
            "country",
            "political"
          ]
        }
      ],
      "formatted_address": "Maison Rose, 270 Cheung Sha Wan Rd, Om Yau, Hong Kong",
      "geometry": {
        "bounds": {
          "northeast": {
            "lat": 22.332293,
            "lng": 114.160942
          },
          "southwest": {
            "lat": 22.3320749,
            "lng": 114.1607151
          }
        },
        "location": {
          "lat": 22.3321899,
          "lng": 114.1608187
        },
        "location_type": "ROOFTOP",
        "viewport": {
          "northeast": {
            "lat": 22.3335329302915,
            "lng": 114.1621775302915
          },
          "southwest": {
            "lat": 22.3308349697085,
            "lng": 114.1594795697085
          }
        }
      },
      "partial_match": true,
      "place_id": "ChIJa9z-TrMABDQRfkEcoLOEKc4",
      "types": [
        "premise"
      ]
    },
    {
      "address_components": [
        {
          "long_name": "Maison Rose",
          "short_name": "Maison Rose",
          "types": [
            "premise"
          ]
        },
        {
          "long_name": "270",
          "short_name": "270",
          "types": [
            "street_number"
          ]
        },
        {
          "long_name": "Cheung Sha Wan Road",
          "short_name": "Cheung Sha Wan Rd",
          "types": [
            "route"
          ]
        },
        {
          "long_name": "Om Yau",
          "short_name": "Om Yau",
          "types": [
            "neighborhood",
            "political"
          ]
        },
        {
          "long_name": "Kowloon",
          "short_name": "Kowloon",
          "types": [
            "administrative_area_level_1",
            "political"
          ]
        },
        {
          "long_name": "Hong Kong",
          "short_name": "HK",
          "types": [
            "country",
            "political"
          ]
        }
      ],
      "formatted_address": "Maison Rose, 270 Cheung Sha Wan Rd, Om Yau, Hong Kong",
      "geometry": {
        "bounds": {
          "northeast": {
            "lat": 22.332293,
            "lng": 114.160942
          },
          "southwest": {
            "lat": 22.3320749,
            "lng": 114.1607151
          }
        },
        "location": {
          "lat": 22.3321899,
          "lng": 114.1608187
        },
        "location_type": "ROOFTOP",
        "viewport": {
          "northeast": {
            "lat": 22.3335329302915,
            "lng": 114.1621775302915
          },
          "southwest": {
            "lat": 22.3308349697085,
            "lng": 114.1594795697085
          }
        }
      },
      "partial_match": true,
      "place_id": "ChIJa9z-TrMABDQRfkEcoLOEKc4",
      "types": [
        "premise"
      ]
    }
  ],
  "geocode_tc": [
    {
      "address_components": [
        {
          "long_name": "270",
          "short_name": "270",
          "types": [
            "street_number"
          ]
        },
        {
          "long_name": "\u9577\u6c99\u7063\u9053",
          "short_name": "\u9577\u6c99\u7063\u9053",
          "types": [
            "route"
          ]
        },
        {
          "long_name": "\u6df1\u6c34\u57d7",
          "short_name": "\u6df1\u6c34\u57d7",
          "types": [
            "neighborhood",
            "political"
          ]
        },
        {
          "long_name": "\u4e5d\u9f8d",
          "short_name": "\u4e5d\u9f8d",
          "types": [
            "administrative_area_level_1",
            "political"
          ]
        },
        {
          "long_name": "\u9999\u6e2f",
          "short_name": "HK",
          "types": [
            "country",
            "political"
          ]
        }
      ],
      "formatted_address": "\u9999\u6e2f\u6df1\u6c34\u57d7\u9577\u6c99\u7063\u9053270\u865f",
      "geometry": {
        "location": {
          "lat": 22.332194,
          "lng": 114.160834
        },
        "location_type": "ROOFTOP",
        "viewport": {
          "northeast": {
            "lat": 22.3335429802915,
            "lng": 114.1621829802915
          },
          "southwest": {
            "lat": 22.3308450197085,
            "lng": 114.1594850197085
          }
        }
      },
      "place_id": "ChIJIen4TrMABDQR0g9fEQKnmcg",
      "plus_code": {
        "compound_code": "85J6+V8 \u9999\u6e2f",
        "global_code": "7PJP85J6+V8"
      },
      "types": [
        "establishment",
        "food",
        "point_of_interest",
        "restaurant"
      ]
    }
  ],
  "licno": "2263805404",
  "timestamp": 1564968756,
  "version": "1564966095"
}
