{
  "adr_en": "THE HAIR OF THE DOG INFINITY, 3/F., COSMOS BUILDING, NOS. 8-11 LAN KWAI FONG, CENTRAL, HONG KONG",
  "adr_tc": "\u9999\u6e2f\u4e2d\u74b0\u862d\u6842\u574a8-11\u865f\u660c\u9686\u5546\u696d\u5927\u5ec83\u6a13 \u72d7\u6bdb",
  "geocode_en": [
    {
      "address_components": [
        {
          "long_name": "Cosmos Building",
          "short_name": "Cosmos Building",
          "types": [
            "premise"
          ]
        },
        {
          "long_name": "8-11",
          "short_name": "8-11",
          "types": [
            "street_number"
          ]
        },
        {
          "long_name": "Lan Kwai Fong",
          "short_name": "Lan Kwai Fong",
          "types": [
            "route"
          ]
        },
        {
          "long_name": "Central",
          "short_name": "Central",
          "types": [
            "neighborhood",
            "political"
          ]
        },
        {
          "long_name": "Hong Kong Island",
          "short_name": "Hong Kong Island",
          "types": [
            "administrative_area_level_1",
            "political"
          ]
        },
        {
          "long_name": "Hong Kong",
          "short_name": "HK",
          "types": [
            "country",
            "political"
          ]
        }
      ],
      "formatted_address": "Cosmos Building, 8-11 Lan Kwai Fong, Central, Hong Kong",
      "geometry": {
        "bounds": {
          "northeast": {
            "lat": 22.280761,
            "lng": 114.155807
          },
          "southwest": {
            "lat": 22.280564,
            "lng": 114.1555889
          }
        },
        "location": {
          "lat": 22.280673,
          "lng": 114.1557097
        },
        "location_type": "ROOFTOP",
        "viewport": {
          "northeast": {
            "lat": 22.2820114802915,
            "lng": 114.1570469302915
          },
          "southwest": {
            "lat": 22.2793135197085,
            "lng": 114.1543489697085
          }
        }
      },
      "partial_match": true,
      "place_id": "ChIJVQcdK3sABDQRCCoS9KoaVxA",
      "types": [
        "premise"
      ]
    }
  ],
  "geocode_tc": [
    {
      "address_components": [
        {
          "long_name": "\u9999\u6e2f",
          "short_name": "HK",
          "types": [
            "country",
            "political"
          ]
        }
      ],
      "formatted_address": "\u9999\u6e2f\u4e2d\u74b0\u862d\u6842\u574a8-11\u865f\u660c\u9686\u5546\u696d\u5927\u5ec82\u6a13",
      "geometry": {
        "location": {
          "lat": 22.280673,
          "lng": 114.1557097
        },
        "location_type": "GEOMETRIC_CENTER",
        "viewport": {
          "northeast": {
            "lat": 22.2820219802915,
            "lng": 114.1570586802915
          },
          "southwest": {
            "lat": 22.2793240197085,
            "lng": 114.1543607197085
          }
        }
      },
      "place_id": "ChIJmYYeK3sABDQRMZ-II7290BY",
      "plus_code": {
        "compound_code": "75J4+77 \u9999\u6e2f",
        "global_code": "7PJP75J4+77"
      },
      "types": [
        "bar",
        "establishment",
        "point_of_interest"
      ]
    }
  ],
  "licno": "2218808935",
  "timestamp": 1564968756,
  "version": "1564966095"
}
