{
  "adr_en": "CHINA SECRET, 3/F, LEE CHAU COMMERCIAL BUILDING, 11 HART AVENUE, TSIM SHA TSUI, KOWLOON",
  "adr_tc": "\u4e5d\u9f8d\u5c16\u6c99\u5480\u8d6b\u5fb7\u905311\u865f\u5229\u5c31\u5546\u696d\u5927\u5ec83\u6a13 CHINA SECRET",
  "geocode_en": [
    {
      "address_components": [
        {
          "long_name": "Lee Chau Commercial Building",
          "short_name": "Lee Chau Commercial Building",
          "types": [
            "premise"
          ]
        },
        {
          "long_name": "11",
          "short_name": "11",
          "types": [
            "street_number"
          ]
        },
        {
          "long_name": "Hart Avenue",
          "short_name": "Hart Ave",
          "types": [
            "route"
          ]
        },
        {
          "long_name": "Tsim Sha Tsui",
          "short_name": "Tsim Sha Tsui",
          "types": [
            "neighborhood",
            "political"
          ]
        },
        {
          "long_name": "Kowloon",
          "short_name": "Kowloon",
          "types": [
            "administrative_area_level_1",
            "political"
          ]
        },
        {
          "long_name": "Hong Kong",
          "short_name": "HK",
          "types": [
            "country",
            "political"
          ]
        }
      ],
      "formatted_address": "Lee Chau Commercial Building, 11 Hart Ave, Tsim Sha Tsui, Hong Kong",
      "geometry": {
        "bounds": {
          "northeast": {
            "lat": 22.2978379,
            "lng": 114.1744479
          },
          "southwest": {
            "lat": 22.2977109,
            "lng": 114.174332
          }
        },
        "location": {
          "lat": 22.2977761,
          "lng": 114.1743923
        },
        "location_type": "ROOFTOP",
        "viewport": {
          "northeast": {
            "lat": 22.2991233802915,
            "lng": 114.1757389302915
          },
          "southwest": {
            "lat": 22.2964254197085,
            "lng": 114.1730409697085
          }
        }
      },
      "partial_match": true,
      "place_id": "ChIJ_QT_D-4ABDQRZv4cKwf6k-E",
      "types": [
        "premise"
      ]
    }
  ],
  "geocode_tc": [
    {
      "address_components": [
        {
          "long_name": "\u5229\u5c31\u5546\u696d\u5927\u5ec8",
          "short_name": "\u5229\u5c31\u5546\u696d\u5927\u5ec8",
          "types": [
            "premise"
          ]
        },
        {
          "long_name": "11",
          "short_name": "11",
          "types": [
            "street_number"
          ]
        },
        {
          "long_name": "\u8d6b\u5fb7\u9053",
          "short_name": "\u8d6b\u5fb7\u9053",
          "types": [
            "route"
          ]
        },
        {
          "long_name": "\u5c16\u6c99\u5480",
          "short_name": "\u5c16\u6c99\u5480",
          "types": [
            "neighborhood",
            "political"
          ]
        },
        {
          "long_name": "\u4e5d\u9f8d",
          "short_name": "\u4e5d\u9f8d",
          "types": [
            "administrative_area_level_1",
            "political"
          ]
        },
        {
          "long_name": "\u9999\u6e2f",
          "short_name": "HK",
          "types": [
            "country",
            "political"
          ]
        }
      ],
      "formatted_address": "\u9999\u6e2f\u5c16\u6c99\u5480\u8d6b\u5fb7\u905311\u865f\u5229\u5c31\u5546\u696d\u5927\u5ec8",
      "geometry": {
        "bounds": {
          "northeast": {
            "lat": 22.2978379,
            "lng": 114.1744479
          },
          "southwest": {
            "lat": 22.2977109,
            "lng": 114.174332
          }
        },
        "location": {
          "lat": 22.2977761,
          "lng": 114.1743923
        },
        "location_type": "ROOFTOP",
        "viewport": {
          "northeast": {
            "lat": 22.2991233802915,
            "lng": 114.1757389302915
          },
          "southwest": {
            "lat": 22.2964254197085,
            "lng": 114.1730409697085
          }
        }
      },
      "partial_match": true,
      "place_id": "ChIJ_QT_D-4ABDQRZv4cKwf6k-E",
      "types": [
        "premise"
      ]
    }
  ],
  "licno": "3161805921",
  "timestamp": 1564975666,
  "version": "1564966095"
}
