{
  "adr_en": "Hill Bar & Restaurant, SHOP A (PORTION), G/F., NAM CHEONG BUILDING, 48-52 HILL ROAD, HONG KONG",
  "adr_tc": "\u9999\u6e2f\u5c71\u905348-52\u865f\u5357\u660c\u5927\u5ec8\u5730\u4e0bA\u92ea(\u90e8\u4efd) Hill Bar & Restaurant",
  "geocode_en": [
    {
      "address_components": [
        {
          "long_name": "Nam Cheong Building",
          "short_name": "Nam Cheong Building",
          "types": [
            "premise"
          ]
        },
        {
          "long_name": "48-52",
          "short_name": "48-52",
          "types": [
            "street_number"
          ]
        },
        {
          "long_name": "Hill Road",
          "short_name": "Hill Rd",
          "types": [
            "route"
          ]
        },
        {
          "long_name": "Sai Wan",
          "short_name": "Sai Wan",
          "types": [
            "neighborhood",
            "political"
          ]
        },
        {
          "long_name": "Hong Kong Island",
          "short_name": "Hong Kong Island",
          "types": [
            "administrative_area_level_1",
            "political"
          ]
        },
        {
          "long_name": "Hong Kong",
          "short_name": "HK",
          "types": [
            "country",
            "political"
          ]
        }
      ],
      "formatted_address": "Nam Cheong Building, 48-52 Hill Rd, Sai Wan, Hong Kong",
      "geometry": {
        "bounds": {
          "northeast": {
            "lat": 22.285219,
            "lng": 114.1354779
          },
          "southwest": {
            "lat": 22.285031,
            "lng": 114.13526
          }
        },
        "location": {
          "lat": 22.2850937,
          "lng": 114.1353657
        },
        "location_type": "ROOFTOP",
        "viewport": {
          "northeast": {
            "lat": 22.2864739802915,
            "lng": 114.1367179302915
          },
          "southwest": {
            "lat": 22.2837760197085,
            "lng": 114.1340199697085
          }
        }
      },
      "partial_match": true,
      "place_id": "ChIJQzKyYIT_AzQRQLOkLK1pAPI",
      "types": [
        "premise"
      ]
    }
  ],
  "geocode_tc": [
    {
      "address_components": [
        {
          "long_name": "52\u865f",
          "short_name": "52\u865f",
          "types": [
            "street_number"
          ]
        },
        {
          "long_name": "San Hong Street",
          "short_name": "San Hong St",
          "types": [
            "route"
          ]
        },
        {
          "long_name": "\u4e0a\u6c34",
          "short_name": "\u4e0a\u6c34",
          "types": [
            "neighborhood",
            "political"
          ]
        },
        {
          "long_name": "\u65b0\u754c",
          "short_name": "\u65b0\u754c",
          "types": [
            "administrative_area_level_1",
            "political"
          ]
        },
        {
          "long_name": "\u9999\u6e2f",
          "short_name": "HK",
          "types": [
            "country",
            "political"
          ]
        }
      ],
      "formatted_address": "\u9999\u6e2f\u4e0a\u6c34 San Hong St, 52\u865fA G/F",
      "geometry": {
        "location": {
          "lat": 22.2850966,
          "lng": 114.1354474
        },
        "location_type": "ROOFTOP",
        "viewport": {
          "northeast": {
            "lat": 22.2864455802915,
            "lng": 114.1367963802915
          },
          "southwest": {
            "lat": 22.2837476197085,
            "lng": 114.1340984197085
          }
        }
      },
      "partial_match": true,
      "place_id": "ChIJtx9bZ4T_AzQRwbyQG823B_8",
      "plus_code": {
        "compound_code": "74PP+25 \u9999\u6e2f",
        "global_code": "7PJP74PP+25"
      },
      "types": [
        "bar",
        "establishment",
        "point_of_interest"
      ]
    },
    {
      "address_components": [
        {
          "long_name": "\u5357\u660c\u5927\u5ec8",
          "short_name": "\u5357\u660c\u5927\u5ec8",
          "types": [
            "premise"
          ]
        },
        {
          "long_name": "48-52",
          "short_name": "48-52",
          "types": [
            "street_number"
          ]
        },
        {
          "long_name": "\u5c71\u9053",
          "short_name": "\u5c71\u9053",
          "types": [
            "route"
          ]
        },
        {
          "long_name": "\u897f\u74b0",
          "short_name": "\u897f\u74b0",
          "types": [
            "neighborhood",
            "political"
          ]
        },
        {
          "long_name": "\u9999\u6e2f\u5cf6",
          "short_name": "\u9999\u6e2f\u5cf6",
          "types": [
            "administrative_area_level_1",
            "political"
          ]
        },
        {
          "long_name": "\u9999\u6e2f",
          "short_name": "HK",
          "types": [
            "country",
            "political"
          ]
        }
      ],
      "formatted_address": "\u9999\u6e2f\u897f\u74b0\u5c71\u905348-52\u865f\u5357\u660c\u5927\u5ec8",
      "geometry": {
        "bounds": {
          "northeast": {
            "lat": 22.285219,
            "lng": 114.1354779
          },
          "southwest": {
            "lat": 22.285031,
            "lng": 114.13526
          }
        },
        "location": {
          "lat": 22.2850937,
          "lng": 114.1353657
        },
        "location_type": "ROOFTOP",
        "viewport": {
          "northeast": {
            "lat": 22.2864739802915,
            "lng": 114.1367179302915
          },
          "southwest": {
            "lat": 22.2837760197085,
            "lng": 114.1340199697085
          }
        }
      },
      "partial_match": true,
      "place_id": "ChIJQzKyYIT_AzQRQLOkLK1pAPI",
      "types": [
        "premise"
      ]
    }
  ],
  "licno": "3118806849",
  "timestamp": 1564975666,
  "version": "1564966095"
}
