{
  "adr_en": "Sing Tei Yue Lok Karaoke Night Club, 2/F, CHUN YEE BUILDING, 733 NATHAN ROAD, KOWLOON",
  "adr_tc": "\u4e5d\u9f8d\u5f4c\u6566\u9053733\u865f\u632f\u5b9c\u5927\u5ec82\u5b57\u6a13 \u8056\u5730\u5a1b\u6a02\u5361\u62c9OK\u591c\u7e3d\u6703",
  "geocode_en": [
    {
      "address_components": [
        {
          "long_name": "Hong Kong",
          "short_name": "HK",
          "types": [
            "country",
            "political"
          ]
        }
      ],
      "formatted_address": "2/F, Chun Yee Building, 733 Nathan Road, Kowloon, Hong Kong",
      "geometry": {
        "location": {
          "lat": 22.321459,
          "lng": 114.168671
        },
        "location_type": "GEOMETRIC_CENTER",
        "viewport": {
          "northeast": {
            "lat": 22.3228079802915,
            "lng": 114.1700199802915
          },
          "southwest": {
            "lat": 22.32011001970849,
            "lng": 114.1673220197085
          }
        }
      },
      "place_id": "ChIJn4jkFsgABDQRR4Yj1wWJhRY",
      "plus_code": {
        "compound_code": "85C9+HF Hong Kong",
        "global_code": "7PJP85C9+HF"
      },
      "types": [
        "bar",
        "establishment",
        "night_club",
        "point_of_interest"
      ]
    }
  ],
  "geocode_tc": [
    {
      "address_components": [
        {
          "long_name": "\u9999\u6e2f",
          "short_name": "HK",
          "types": [
            "country",
            "political"
          ]
        }
      ],
      "formatted_address": "2/F, Chun Yee Building, 733 Nathan Road, Kowloon, \u9999\u6e2f",
      "geometry": {
        "location": {
          "lat": 22.321459,
          "lng": 114.168671
        },
        "location_type": "GEOMETRIC_CENTER",
        "viewport": {
          "northeast": {
            "lat": 22.3228079802915,
            "lng": 114.1700199802915
          },
          "southwest": {
            "lat": 22.32011001970849,
            "lng": 114.1673220197085
          }
        }
      },
      "partial_match": true,
      "place_id": "ChIJn4jkFsgABDQRR4Yj1wWJhRY",
      "plus_code": {
        "compound_code": "85C9+HF \u9999\u6e2f",
        "global_code": "7PJP85C9+HF"
      },
      "types": [
        "bar",
        "establishment",
        "night_club",
        "point_of_interest"
      ]
    },
    {
      "address_components": [
        {
          "long_name": "\u632f\u5b9c\u5927\u5ec8",
          "short_name": "\u632f\u5b9c\u5927\u5ec8",
          "types": [
            "premise"
          ]
        },
        {
          "long_name": "731-733",
          "short_name": "731-733",
          "types": [
            "street_number"
          ]
        },
        {
          "long_name": "\u5f4c\u6566\u9053",
          "short_name": "\u5f4c\u6566\u9053",
          "types": [
            "route"
          ]
        },
        {
          "long_name": "\u65fa\u89d2",
          "short_name": "\u65fa\u89d2",
          "types": [
            "neighborhood",
            "political"
          ]
        },
        {
          "long_name": "\u4e5d\u9f8d",
          "short_name": "\u4e5d\u9f8d",
          "types": [
            "administrative_area_level_1",
            "political"
          ]
        },
        {
          "long_name": "\u9999\u6e2f",
          "short_name": "HK",
          "types": [
            "country",
            "political"
          ]
        }
      ],
      "formatted_address": "\u9999\u6e2f\u65fa\u89d2\u5f4c\u6566\u9053731-733\u865f\u632f\u5b9c\u5927\u5ec8",
      "geometry": {
        "bounds": {
          "northeast": {
            "lat": 22.321574,
            "lng": 114.168788
          },
          "southwest": {
            "lat": 22.321343,
            "lng": 114.1685531
          }
        },
        "location": {
          "lat": 22.3214657,
          "lng": 114.1686912
        },
        "location_type": "ROOFTOP",
        "viewport": {
          "northeast": {
            "lat": 22.3228074802915,
            "lng": 114.1700195302915
          },
          "southwest": {
            "lat": 22.3201095197085,
            "lng": 114.1673215697085
          }
        }
      },
      "partial_match": true,
      "place_id": "ChIJuYfkFsgABDQRgm9mkxWJ8fs",
      "types": [
        "premise"
      ]
    }
  ],
  "licno": "3162169978",
  "timestamp": 1564975666,
  "version": "1564966095"
}
