{
  "adr_en": "Loi Fat Restaurant, G/F, 40-42 TAI NAN STREET, SHAM SHUI PO, KOWLOON",
  "adr_tc": "\u4e5d\u9f8d\u6df1\u6c34\u57d7\u5927\u5357\u885740-42\u865f\u5730\u4e0b \u4f86\u767c\u9928",
  "geocode_en": [
    {
      "address_components": [
        {
          "long_name": "83",
          "short_name": "83",
          "types": [
            "street_number"
          ]
        },
        {
          "long_name": "Sycamore Street",
          "short_name": "Sycamore St",
          "types": [
            "route"
          ]
        },
        {
          "long_name": "Tai Kok Tsui",
          "short_name": "Tai Kok Tsui",
          "types": [
            "neighborhood",
            "political"
          ]
        },
        {
          "long_name": "Kowloon",
          "short_name": "Kowloon",
          "types": [
            "administrative_area_level_1",
            "political"
          ]
        },
        {
          "long_name": "Hong Kong",
          "short_name": "HK",
          "types": [
            "country",
            "political"
          ]
        }
      ],
      "formatted_address": "83 Sycamore St, Tai Kok Tsui, Hong Kong",
      "geometry": {
        "location": {
          "lat": 22.325335,
          "lng": 114.1620414
        },
        "location_type": "ROOFTOP",
        "viewport": {
          "northeast": {
            "lat": 22.3266839802915,
            "lng": 114.1633903802915
          },
          "southwest": {
            "lat": 22.3239860197085,
            "lng": 114.1606924197085
          }
        }
      },
      "partial_match": true,
      "place_id": "ChIJI8VDyLYABDQR_m306fhByi4",
      "plus_code": {
        "compound_code": "85G6+4R Hong Kong",
        "global_code": "7PJP85G6+4R"
      },
      "types": [
        "cafe",
        "establishment",
        "food",
        "point_of_interest",
        "restaurant"
      ]
    },
    {
      "address_components": [
        {
          "long_name": "G",
          "short_name": "G",
          "types": [
            "subpremise"
          ]
        },
        {
          "long_name": "Mei Lun House",
          "short_name": "Mei Lun House",
          "types": [
            "premise"
          ]
        },
        {
          "long_name": "40-42",
          "short_name": "40-42",
          "types": [
            "street_number"
          ]
        },
        {
          "long_name": "Tai Nan Street",
          "short_name": "Tai Nan St",
          "types": [
            "route"
          ]
        },
        {
          "long_name": "Prince Edward",
          "short_name": "Prince Edward",
          "types": [
            "neighborhood",
            "political"
          ]
        },
        {
          "long_name": "Kowloon",
          "short_name": "Kowloon",
          "types": [
            "administrative_area_level_1",
            "political"
          ]
        },
        {
          "long_name": "Hong Kong",
          "short_name": "HK",
          "types": [
            "country",
            "political"
          ]
        }
      ],
      "formatted_address": "G, Mei Lun House, 40-42 Tai Nan St, Prince Edward, Hong Kong",
      "geometry": {
        "bounds": {
          "northeast": {
            "lat": 22.3246949,
            "lng": 114.1669859
          },
          "southwest": {
            "lat": 22.324515,
            "lng": 114.166774
          }
        },
        "location": {
          "lat": 22.3246107,
          "lng": 114.1668567
        },
        "location_type": "ROOFTOP",
        "viewport": {
          "northeast": {
            "lat": 22.3259539302915,
            "lng": 114.1682289302915
          },
          "southwest": {
            "lat": 22.32325596970849,
            "lng": 114.1655309697085
          }
        }
      },
      "partial_match": true,
      "place_id": "EjxHLCBNZWkgTHVuIEhvdXNlLCA0MC00MiBUYWkgTmFuIFN0LCBQcmluY2UgRWR3YXJkLCBIb25nIEtvbmciHRobChYKFAoSCYP9IT22AAQ0EbYfPkPfrNsmEgFH",
      "types": [
        "subpremise"
      ]
    },
    {
      "address_components": [
        {
          "long_name": "F",
          "short_name": "F",
          "types": [
            "subpremise"
          ]
        },
        {
          "long_name": "Mei Lun House",
          "short_name": "Mei Lun House",
          "types": [
            "premise"
          ]
        },
        {
          "long_name": "40-42",
          "short_name": "40-42",
          "types": [
            "street_number"
          ]
        },
        {
          "long_name": "Tai Nan Street",
          "short_name": "Tai Nan St",
          "types": [
            "route"
          ]
        },
        {
          "long_name": "Prince Edward",
          "short_name": "Prince Edward",
          "types": [
            "neighborhood",
            "political"
          ]
        },
        {
          "long_name": "Kowloon",
          "short_name": "Kowloon",
          "types": [
            "administrative_area_level_1",
            "political"
          ]
        },
        {
          "long_name": "Hong Kong",
          "short_name": "HK",
          "types": [
            "country",
            "political"
          ]
        }
      ],
      "formatted_address": "F, Mei Lun House, 40-42 Tai Nan St, Prince Edward, Hong Kong",
      "geometry": {
        "bounds": {
          "northeast": {
            "lat": 22.3246949,
            "lng": 114.1669859
          },
          "southwest": {
            "lat": 22.324515,
            "lng": 114.166774
          }
        },
        "location": {
          "lat": 22.3246107,
          "lng": 114.1668567
        },
        "location_type": "ROOFTOP",
        "viewport": {
          "northeast": {
            "lat": 22.3259539302915,
            "lng": 114.1682289302915
          },
          "southwest": {
            "lat": 22.32325596970849,
            "lng": 114.1655309697085
          }
        }
      },
      "partial_match": true,
      "place_id": "EjxGLCBNZWkgTHVuIEhvdXNlLCA0MC00MiBUYWkgTmFuIFN0LCBQcmluY2UgRWR3YXJkLCBIb25nIEtvbmciHRobChYKFAoSCYP9IT22AAQ0EbYfPkPfrNsmEgFG",
      "types": [
        "subpremise"
      ]
    }
  ],
  "geocode_tc": [
    {
      "address_components": [
        {
          "long_name": "83",
          "short_name": "83",
          "types": [
            "street_number"
          ]
        },
        {
          "long_name": "\u8a69\u6b4c\u821e\u8857",
          "short_name": "\u8a69\u6b4c\u821e\u8857",
          "types": [
            "route"
          ]
        },
        {
          "long_name": "\u5927\u89d2\u5480",
          "short_name": "\u5927\u89d2\u5480",
          "types": [
            "neighborhood",
            "political"
          ]
        },
        {
          "long_name": "\u4e5d\u9f8d",
          "short_name": "\u4e5d\u9f8d",
          "types": [
            "administrative_area_level_1",
            "political"
          ]
        },
        {
          "long_name": "\u9999\u6e2f",
          "short_name": "HK",
          "types": [
            "country",
            "political"
          ]
        }
      ],
      "formatted_address": "\u9999\u6e2f\u5927\u89d2\u5480\u8a69\u6b4c\u821e\u885783\u865f",
      "geometry": {
        "location": {
          "lat": 22.325335,
          "lng": 114.1620414
        },
        "location_type": "ROOFTOP",
        "viewport": {
          "northeast": {
            "lat": 22.3266839802915,
            "lng": 114.1633903802915
          },
          "southwest": {
            "lat": 22.3239860197085,
            "lng": 114.1606924197085
          }
        }
      },
      "place_id": "ChIJI8VDyLYABDQR_m306fhByi4",
      "plus_code": {
        "compound_code": "85G6+4R \u9999\u6e2f",
        "global_code": "7PJP85G6+4R"
      },
      "types": [
        "cafe",
        "establishment",
        "food",
        "point_of_interest",
        "restaurant"
      ]
    },
    {
      "address_components": [
        {
          "long_name": "40",
          "short_name": "40",
          "types": [
            "street_number"
          ]
        },
        {
          "long_name": "Tai Nan Street",
          "short_name": "Tai Nan St",
          "types": [
            "route"
          ]
        },
        {
          "long_name": "Mong Kok",
          "short_name": "Mong Kok",
          "types": [
            "neighborhood",
            "political"
          ]
        },
        {
          "long_name": "\u9999\u6e2f",
          "short_name": "HK",
          "types": [
            "country",
            "political"
          ]
        }
      ],
      "formatted_address": "\u865f, 40 Tai Nan St, Mong Kok, \u9999\u6e2f",
      "geometry": {
        "location": {
          "lat": 22.324603,
          "lng": 114.166881
        },
        "location_type": "ROOFTOP",
        "viewport": {
          "northeast": {
            "lat": 22.3259519802915,
            "lng": 114.1682299802915
          },
          "southwest": {
            "lat": 22.3232540197085,
            "lng": 114.1655320197085
          }
        }
      },
      "place_id": "ChIJ6eMhPbYABDQRpwXL96fbwb4",
      "plus_code": {
        "compound_code": "85F8+RQ \u9999\u6e2f",
        "global_code": "7PJP85F8+RQ"
      },
      "types": [
        "establishment",
        "food",
        "point_of_interest",
        "restaurant"
      ]
    }
  ],
  "licno": "2262810087",
  "timestamp": 1564968756,
  "version": "1564966095"
}
