{
  "adr_en": "\u8354\u679d\u5c71\u6f01\u6751, G/F, 3C AND OUTSIDE SEATING ACCOMMODATION AT SHOP FRONT, LAI CHI SHAN VILLAGE, DD 22, LOT 1108, TAI PO, NEW TERRITORIES",
  "adr_tc": "\u65b0\u754c\u5927\u57d41108\u5730\u6bb522\u7d04 \u8354\u679d\u5c71\u67513C\u865f\u5730\u4e0b\u53ca\u5e97\u524d\u7684\u9732\u5929\u5ea7\u4f4d \u8354\u679d\u5c71\u6f01\u6751",
  "geocode_en": [
    {
      "address_components": [
        {
          "long_name": "Lai Chi Shan",
          "short_name": "Lai Chi Shan",
          "types": [
            "establishment",
            "point_of_interest",
            "transit_station"
          ]
        },
        {
          "long_name": "Tai Po",
          "short_name": "Tai Po",
          "types": [
            "neighborhood",
            "political"
          ]
        },
        {
          "long_name": "New Territories",
          "short_name": "New Territories",
          "types": [
            "administrative_area_level_1",
            "political"
          ]
        },
        {
          "long_name": "Hong Kong",
          "short_name": "HK",
          "types": [
            "country",
            "political"
          ]
        }
      ],
      "formatted_address": "Lai Chi Shan, Tai Po, Hong Kong",
      "geometry": {
        "location": {
          "lat": 22.438383,
          "lng": 114.164849
        },
        "location_type": "GEOMETRIC_CENTER",
        "viewport": {
          "northeast": {
            "lat": 22.4397319802915,
            "lng": 114.1661979802915
          },
          "southwest": {
            "lat": 22.4370340197085,
            "lng": 114.1635000197085
          }
        }
      },
      "partial_match": true,
      "place_id": "ChIJv_7GgBQIBDQRXGM9vjS5Wrw",
      "plus_code": {
        "compound_code": "C5Q7+9W Hong Kong",
        "global_code": "7PJPC5Q7+9W"
      },
      "types": [
        "establishment",
        "point_of_interest",
        "transit_station"
      ]
    }
  ],
  "geocode_tc": [
    {
      "address_components": [
        {
          "long_name": "\u5927\u57d4",
          "short_name": "\u5927\u57d4",
          "types": [
            "neighborhood",
            "political"
          ]
        },
        {
          "long_name": "\u65b0\u754c",
          "short_name": "\u65b0\u754c",
          "types": [
            "administrative_area_level_1",
            "political"
          ]
        },
        {
          "long_name": "\u9999\u6e2f",
          "short_name": "HK",
          "types": [
            "country",
            "political"
          ]
        }
      ],
      "formatted_address": "\u9999\u6e2f\u5927\u57d4",
      "geometry": {
        "bounds": {
          "northeast": {
            "lat": 22.4673939,
            "lng": 114.1812944
          },
          "southwest": {
            "lat": 22.424426,
            "lng": 114.146229
          }
        },
        "location": {
          "lat": 22.4423218,
          "lng": 114.1655064
        },
        "location_type": "APPROXIMATE",
        "viewport": {
          "northeast": {
            "lat": 22.4673939,
            "lng": 114.1812944
          },
          "southwest": {
            "lat": 22.424426,
            "lng": 114.146229
          }
        }
      },
      "partial_match": true,
      "place_id": "ChIJveMMmTwIBDQRAuZCal0gg_4",
      "types": [
        "neighborhood",
        "political"
      ]
    }
  ],
  "licno": "2295000862",
  "timestamp": 1564975666,
  "version": "1564966095"
}
