{
  "adr_en": "\u516b\u65b9\u96f2\u96c6\u934b\u8cbc\u6c34\u9903\u5c08\u9580\u5e97, SHOP NO. 4, G/F, CHEONG FAT BUILDING, 48A, 48C-48H AND 48J-48K TAI TONG ROAD, YUEN LONG, NEW TERRITORIES",
  "adr_tc": "\u65b0\u754c\u5143\u6717\u5927\u68e0\u8def48A,48C-48H\u53ca48J-48K\u660c\u767c\u5927 \u5ec8\u5730\u4e0b4\u865f\u92ea \u516b\u65b9\u96f2\u96c6\u934b\u8cbc\u6c34\u9903\u5c08\u9580\u5e97",
  "geocode_en": [
    {
      "address_components": [
        {
          "long_name": "Cheong Fat Building",
          "short_name": "Cheong Fat Building",
          "types": [
            "premise"
          ]
        },
        {
          "long_name": "48A-48K",
          "short_name": "48A-48K",
          "types": [
            "street_number"
          ]
        },
        {
          "long_name": "Tai Tong Road",
          "short_name": "Tai Tong Rd",
          "types": [
            "route"
          ]
        },
        {
          "long_name": "Yuen Long",
          "short_name": "Yuen Long",
          "types": [
            "neighborhood",
            "political"
          ]
        },
        {
          "long_name": "New Territories",
          "short_name": "New Territories",
          "types": [
            "administrative_area_level_1",
            "political"
          ]
        },
        {
          "long_name": "Hong Kong",
          "short_name": "HK",
          "types": [
            "country",
            "political"
          ]
        }
      ],
      "formatted_address": "Cheong Fat Building, 48A-48K Tai Tong Rd, Yuen Long, Hong Kong",
      "geometry": {
        "bounds": {
          "northeast": {
            "lat": 22.442343,
            "lng": 114.0287829
          },
          "southwest": {
            "lat": 22.442025,
            "lng": 114.0285259
          }
        },
        "location": {
          "lat": 22.4421735,
          "lng": 114.0286843
        },
        "location_type": "ROOFTOP",
        "viewport": {
          "northeast": {
            "lat": 22.4435329802915,
            "lng": 114.0300033802915
          },
          "southwest": {
            "lat": 22.44083501970849,
            "lng": 114.0273054197085
          }
        }
      },
      "partial_match": true,
      "place_id": "ChIJdb-5egr6AzQR_sL4M94d5Fo",
      "types": [
        "premise"
      ]
    },
    {
      "address_components": [
        {
          "long_name": "48J",
          "short_name": "48J",
          "types": [
            "subpremise"
          ]
        },
        {
          "long_name": "48K",
          "short_name": "48K",
          "types": [
            "street_number"
          ]
        },
        {
          "long_name": "Tai Tong Road",
          "short_name": "Tai Tong Rd",
          "types": [
            "route"
          ]
        },
        {
          "long_name": "Yuen Long",
          "short_name": "Yuen Long",
          "types": [
            "neighborhood",
            "political"
          ]
        },
        {
          "long_name": "New Territories",
          "short_name": "New Territories",
          "types": [
            "administrative_area_level_1",
            "political"
          ]
        },
        {
          "long_name": "Hong Kong",
          "short_name": "HK",
          "types": [
            "country",
            "political"
          ]
        }
      ],
      "formatted_address": "48J, 48K Tai Tong Rd, Yuen Long, Hong Kong",
      "geometry": {
        "location": {
          "lat": 22.4421942,
          "lng": 114.0288309
        },
        "location_type": "ROOFTOP",
        "viewport": {
          "northeast": {
            "lat": 22.4435431802915,
            "lng": 114.0301798802915
          },
          "southwest": {
            "lat": 22.4408452197085,
            "lng": 114.0274819197085
          }
        }
      },
      "partial_match": true,
      "place_id": "Eio0OEosIDQ4SyBUYWkgVG9uZyBSZCwgWXVlbiBMb25nLCBIb25nIEtvbmciHxodChYKFAoSCWkkunoK-gM0ETHQIiGz3e94EgM0OEo",
      "types": [
        "subpremise"
      ]
    }
  ],
  "geocode_tc": [
    {
      "address_components": [
        {
          "long_name": "\u767c\u5927 \u5ec8\u5730\u4e0b",
          "short_name": "\u767c\u5927 \u5ec8\u5730\u4e0b",
          "types": [
            "subpremise"
          ]
        },
        {
          "long_name": "\u660c\u767c\u6a13",
          "short_name": "\u660c\u767c\u6a13",
          "types": [
            "premise"
          ]
        },
        {
          "long_name": "48A-48K",
          "short_name": "48A-48K",
          "types": [
            "street_number"
          ]
        },
        {
          "long_name": "\u5927\u68e0\u8def",
          "short_name": "\u5927\u68e0\u8def",
          "types": [
            "route"
          ]
        },
        {
          "long_name": "\u5143\u6717",
          "short_name": "\u5143\u6717",
          "types": [
            "neighborhood",
            "political"
          ]
        },
        {
          "long_name": "\u65b0\u754c",
          "short_name": "\u65b0\u754c",
          "types": [
            "administrative_area_level_1",
            "political"
          ]
        },
        {
          "long_name": "\u9999\u6e2f",
          "short_name": "HK",
          "types": [
            "country",
            "political"
          ]
        }
      ],
      "formatted_address": "\u9999\u6e2f\u5143\u6717\u5927\u68e0\u8def48A-48K\u865f\u660c\u767c\u6a13\u767c\u5927 \u5ec8\u5730\u4e0b",
      "geometry": {
        "bounds": {
          "northeast": {
            "lat": 22.442343,
            "lng": 114.0287829
          },
          "southwest": {
            "lat": 22.442025,
            "lng": 114.0285259
          }
        },
        "location": {
          "lat": 22.4421735,
          "lng": 114.0286843
        },
        "location_type": "ROOFTOP",
        "viewport": {
          "northeast": {
            "lat": 22.4435329802915,
            "lng": 114.0300033802915
          },
          "southwest": {
            "lat": 22.44083501970849,
            "lng": 114.0273054197085
          }
        }
      },
      "partial_match": true,
      "place_id": "ElDnmbzlpKcg5buI5Zyw5LiLLCBDaGVvbmcgRmF0IEJ1aWxkaW5nLCA0OEEtNDhLIFRhaSBUb25nIFJkLCBZdWVuIExvbmcsIEhvbmcgS29uZyIsGioKFgoUChIJdb-5egr6AzQR_sL4M94d5FoSEOeZvOWkpyDlu4jlnLDkuIs",
      "types": [
        "subpremise"
      ]
    }
  ],
  "licno": "3194801266",
  "timestamp": 1564975666,
  "version": "1564966095"
}
