{
  "adr_en": "\u5927\u5149\u660e\u71d2\u81d8\u98ef\u5e97, SHOP NO. 7, G/F, MAN SHING BUILDING, KWONG FAI LANE, KWAI CHUNG, NEW TERRITORIES",
  "adr_tc": "\u65b0\u754c\u8475\u6d8c\u5149\u8f1d\u91cc \u842c\u6210\u6a13\u5730\u4e0b7\u865f\u92ea \u5927\u5149\u660e\u71d2\u81d8\u98ef\u5e97",
  "geocode_en": [
    {
      "address_components": [
        {
          "long_name": "Hong Kong",
          "short_name": "HK",
          "types": [
            "country",
            "political"
          ]
        }
      ],
      "formatted_address": "Hong Kong, \u8475\u6d8c\u5149\u8f1d\u570d\u5fb7\u660c\u5927\u5ec8\u5730\u4e0b(\u5411\u5149\u8f1d\u570d\u516c\u5712\u4e4b\u5927\u5ec8\u89d2\u4f4d\u5730\u8216)",
      "geometry": {
        "location": {
          "lat": 22.3674894,
          "lng": 114.1330999
        },
        "location_type": "GEOMETRIC_CENTER",
        "viewport": {
          "northeast": {
            "lat": 22.3688383802915,
            "lng": 114.1344488802915
          },
          "southwest": {
            "lat": 22.3661404197085,
            "lng": 114.1317509197085
          }
        }
      },
      "partial_match": true,
      "place_id": "ChIJ3VT2Y5r4AzQRmXAt806OYkk",
      "plus_code": {
        "compound_code": "948M+X6 Hong Kong",
        "global_code": "7PJP948M+X6"
      },
      "types": [
        "establishment",
        "food",
        "point_of_interest",
        "restaurant"
      ]
    },
    {
      "address_components": [
        {
          "long_name": "Man Shing Building",
          "short_name": "Man Shing Building",
          "types": [
            "premise"
          ]
        },
        {
          "long_name": "1-11",
          "short_name": "1-11",
          "types": [
            "street_number"
          ]
        },
        {
          "long_name": "Kwong Fai Circuit",
          "short_name": "Kwong Fai Circuit",
          "types": [
            "route"
          ]
        },
        {
          "long_name": "Kwai Chung",
          "short_name": "Kwai Chung",
          "types": [
            "neighborhood",
            "political"
          ]
        },
        {
          "long_name": "New Territories",
          "short_name": "New Territories",
          "types": [
            "administrative_area_level_1",
            "political"
          ]
        },
        {
          "long_name": "Hong Kong",
          "short_name": "HK",
          "types": [
            "country",
            "political"
          ]
        }
      ],
      "formatted_address": "Man Shing Building, 1-11 Kwong Fai Circuit, Kwai Chung, Hong Kong",
      "geometry": {
        "bounds": {
          "northeast": {
            "lat": 22.3687439,
            "lng": 114.133385
          },
          "southwest": {
            "lat": 22.3683401,
            "lng": 114.1331199
          }
        },
        "location": {
          "lat": 22.3686433,
          "lng": 114.1332987
        },
        "location_type": "ROOFTOP",
        "viewport": {
          "northeast": {
            "lat": 22.3698909802915,
            "lng": 114.1346014302915
          },
          "southwest": {
            "lat": 22.3671930197085,
            "lng": 114.1319034697085
          }
        }
      },
      "partial_match": true,
      "place_id": "ChIJaVVHkpr4AzQRyPm82nijDkY",
      "types": [
        "premise"
      ]
    }
  ],
  "geocode_tc": [
    {
      "address_components": [
        {
          "long_name": "\u9999\u6e2f",
          "short_name": "HK",
          "types": [
            "country",
            "political"
          ]
        }
      ],
      "formatted_address": "\u9999\u6e2f\u8475\u6d8c\u5149\u8f1d\u570d\u5fb7\u660c\u5927\u5ec8\u5730\u4e0b(\u5411\u5149\u8f1d\u570d\u516c\u5712\u4e4b\u5927\u5ec8\u89d2\u4f4d\u5730\u8216)",
      "geometry": {
        "location": {
          "lat": 22.3674894,
          "lng": 114.1330999
        },
        "location_type": "GEOMETRIC_CENTER",
        "viewport": {
          "northeast": {
            "lat": 22.3688383802915,
            "lng": 114.1344488802915
          },
          "southwest": {
            "lat": 22.3661404197085,
            "lng": 114.1317509197085
          }
        }
      },
      "place_id": "ChIJ3VT2Y5r4AzQRmXAt806OYkk",
      "plus_code": {
        "compound_code": "948M+X6 \u9999\u6e2f",
        "global_code": "7PJP948M+X6"
      },
      "types": [
        "establishment",
        "food",
        "point_of_interest",
        "restaurant"
      ]
    }
  ],
  "licno": "2291000563",
  "timestamp": 1564968756,
  "version": "1564966095"
}
