{
  "adr_en": "Squirrel Burger, SHOP NO. 22, G/F, YEE FUNG GARDEN, 38 MA TIN ROAD, YUEN LONG, NEW TERRITORIES",
  "adr_tc": "\u65b0\u754c\u5143\u6717\u99ac\u7530\u8def38\u865f\u6021\u8c50\u82b1\u5712\u5730\u4e0b22\u865f\u92ea \u5c0f\u677e\u9f20",
  "geocode_en": [
    {
      "address_components": [
        {
          "long_name": "38",
          "short_name": "38",
          "types": [
            "street_number"
          ]
        },
        {
          "long_name": "Ma Tin Road",
          "short_name": "Ma Tin Rd",
          "types": [
            "route"
          ]
        },
        {
          "long_name": "Yuen Long",
          "short_name": "Yuen Long",
          "types": [
            "neighborhood",
            "political"
          ]
        },
        {
          "long_name": "Hong Kong",
          "short_name": "HK",
          "types": [
            "country",
            "political"
          ]
        }
      ],
      "formatted_address": "\u865f \u6021 \u8c50 \u82b1\u5712 \u5730\u4e0b 22 \u865f \u92ea, 38 Ma Tin Rd, Yuen Long, Hong Kong",
      "geometry": {
        "location": {
          "lat": 22.4416991,
          "lng": 114.0253976
        },
        "location_type": "ROOFTOP",
        "viewport": {
          "northeast": {
            "lat": 22.4430480802915,
            "lng": 114.0267465802915
          },
          "southwest": {
            "lat": 22.4403501197085,
            "lng": 114.0240486197085
          }
        }
      },
      "partial_match": true,
      "place_id": "ChIJuyRDzQr6AzQRMYDx9u_JLzI",
      "plus_code": {
        "compound_code": "C2RG+M5 Hong Kong",
        "global_code": "7PJPC2RG+M5"
      },
      "types": [
        "establishment",
        "food",
        "point_of_interest",
        "restaurant"
      ]
    },
    {
      "address_components": [
        {
          "long_name": "38",
          "short_name": "38",
          "types": [
            "street_number"
          ]
        },
        {
          "long_name": "Ma Tin Road",
          "short_name": "Ma Tin Rd",
          "types": [
            "route"
          ]
        },
        {
          "long_name": "Yuen Long",
          "short_name": "Yuen Long",
          "types": [
            "neighborhood",
            "political"
          ]
        },
        {
          "long_name": "New Territories",
          "short_name": "New Territories",
          "types": [
            "administrative_area_level_1",
            "political"
          ]
        },
        {
          "long_name": "Hong Kong",
          "short_name": "HK",
          "types": [
            "country",
            "political"
          ]
        }
      ],
      "formatted_address": "38 Ma Tin Rd, Yuen Long, Hong Kong",
      "geometry": {
        "bounds": {
          "northeast": {
            "lat": 22.44178,
            "lng": 114.0253614
          },
          "southwest": {
            "lat": 22.4409321,
            "lng": 114.0247794
          }
        },
        "location": {
          "lat": 22.4413836,
          "lng": 114.0251069
        },
        "location_type": "GEOMETRIC_CENTER",
        "viewport": {
          "northeast": {
            "lat": 22.4427050302915,
            "lng": 114.0264193802915
          },
          "southwest": {
            "lat": 22.44000706970849,
            "lng": 114.0237214197085
          }
        }
      },
      "partial_match": true,
      "place_id": "ChIJ098nzQr6AzQRraOlTFJ97cE",
      "types": [
        "establishment",
        "premise"
      ]
    }
  ],
  "geocode_tc": [
    {
      "address_components": [
        {
          "long_name": "38",
          "short_name": "38",
          "types": [
            "street_number"
          ]
        },
        {
          "long_name": "Ma Tin Road",
          "short_name": "Ma Tin Rd",
          "types": [
            "route"
          ]
        },
        {
          "long_name": "Yuen Long",
          "short_name": "Yuen Long",
          "types": [
            "neighborhood",
            "political"
          ]
        },
        {
          "long_name": "\u9999\u6e2f",
          "short_name": "HK",
          "types": [
            "country",
            "political"
          ]
        }
      ],
      "formatted_address": "\u865f \u6021 \u8c50 \u82b1\u5712 \u5730\u4e0b 22 \u865f \u92ea, 38 Ma Tin Rd, Yuen Long, \u9999\u6e2f",
      "geometry": {
        "location": {
          "lat": 22.4416991,
          "lng": 114.0253976
        },
        "location_type": "ROOFTOP",
        "viewport": {
          "northeast": {
            "lat": 22.4430480802915,
            "lng": 114.0267465802915
          },
          "southwest": {
            "lat": 22.4403501197085,
            "lng": 114.0240486197085
          }
        }
      },
      "place_id": "ChIJuyRDzQr6AzQRMYDx9u_JLzI",
      "plus_code": {
        "compound_code": "C2RG+M5 \u9999\u6e2f",
        "global_code": "7PJPC2RG+M5"
      },
      "types": [
        "establishment",
        "food",
        "point_of_interest",
        "restaurant"
      ]
    }
  ],
  "licno": "3194801886",
  "timestamp": 1564975666,
  "version": "1564966095"
}
