{
  "adr_en": "\u6606\u8a18\u7ca5\u7c89\u9eb5\u98ef\u5e97, SHOP NO. 11, G/F., KWAI FUK BUILDING, 5 LAI FONG STREET, KWAI CHUNG, NEW TERRITORIES",
  "adr_tc": "\u65b0\u754c\u8475\u6d8c\u79ae\u82b3\u88575\u865f \u8475\u798f\u5927\u5ec8\u5730\u4e0b11\u865f\u92ea \u6606\u8a18\u7ca5\u7c89\u9eb5\u98ef\u5e97",
  "geocode_en": [
    {
      "address_components": [
        {
          "long_name": "Hong Kong",
          "short_name": "HK",
          "types": [
            "country",
            "political"
          ]
        }
      ],
      "formatted_address": "Hong Kong, \u8475\u6d8c\u79ae\u82b3\u88575\u865f\u8475\u798f\u5927\u5ec8\u5730\u4e0b",
      "geometry": {
        "location": {
          "lat": 22.359607,
          "lng": 114.1268
        },
        "location_type": "GEOMETRIC_CENTER",
        "viewport": {
          "northeast": {
            "lat": 22.3609559802915,
            "lng": 114.1281489802915
          },
          "southwest": {
            "lat": 22.3582580197085,
            "lng": 114.1254510197085
          }
        }
      },
      "partial_match": true,
      "place_id": "ChIJ1X8X5b34AzQR5wYrAoUixTY",
      "plus_code": {
        "compound_code": "945G+RP Hong Kong",
        "global_code": "7PJP945G+RP"
      },
      "types": [
        "establishment",
        "food",
        "point_of_interest",
        "restaurant"
      ]
    },
    {
      "address_components": [
        {
          "long_name": "5",
          "short_name": "5",
          "types": [
            "street_number"
          ]
        },
        {
          "long_name": "Lai Fong Street",
          "short_name": "Lai Fong St",
          "types": [
            "route"
          ]
        },
        {
          "long_name": "Kwai Chung",
          "short_name": "Kwai Chung",
          "types": [
            "neighborhood",
            "political"
          ]
        },
        {
          "long_name": "New Territories",
          "short_name": "New Territories",
          "types": [
            "administrative_area_level_1",
            "political"
          ]
        },
        {
          "long_name": "Hong Kong",
          "short_name": "HK",
          "types": [
            "country",
            "political"
          ]
        }
      ],
      "formatted_address": "5 Lai Fong St, Kwai Chung, Hong Kong",
      "geometry": {
        "location": {
          "lat": 22.359571,
          "lng": 114.12681
        },
        "location_type": "ROOFTOP",
        "viewport": {
          "northeast": {
            "lat": 22.3609199802915,
            "lng": 114.1281589802915
          },
          "southwest": {
            "lat": 22.3582220197085,
            "lng": 114.1254610197085
          }
        }
      },
      "partial_match": true,
      "place_id": "ChIJmYJm5b34AzQRcHf_OnX-OsE",
      "plus_code": {
        "compound_code": "945G+RP Hong Kong",
        "global_code": "7PJP945G+RP"
      },
      "types": [
        "street_address"
      ]
    }
  ],
  "geocode_tc": [
    {
      "address_components": [
        {
          "long_name": "\u9999\u6e2f",
          "short_name": "HK",
          "types": [
            "country",
            "political"
          ]
        }
      ],
      "formatted_address": "\u9999\u6e2f\u8475\u6d8c\u79ae\u82b3\u88575\u865f\u8475\u798f\u5927\u5ec8\u5730\u4e0b",
      "geometry": {
        "location": {
          "lat": 22.359607,
          "lng": 114.1268
        },
        "location_type": "GEOMETRIC_CENTER",
        "viewport": {
          "northeast": {
            "lat": 22.3609559802915,
            "lng": 114.1281489802915
          },
          "southwest": {
            "lat": 22.3582580197085,
            "lng": 114.1254510197085
          }
        }
      },
      "place_id": "ChIJ1X8X5b34AzQR5wYrAoUixTY",
      "plus_code": {
        "compound_code": "945G+RP \u9999\u6e2f",
        "global_code": "7PJP945G+RP"
      },
      "types": [
        "establishment",
        "food",
        "point_of_interest",
        "restaurant"
      ]
    }
  ],
  "licno": "2291000059",
  "timestamp": 1564968756,
  "version": "1564966095"
}
