{
  "adr_en": "Library MFC Shop, SHOP NO. 7, 1/F, MANULIFE FINANCIAL CENTRE, 223 WAI YIP STREET, KWUN TONG, KOWLOON",
  "adr_tc": "\u4e5d\u9f8d\u89c0\u5858\u5049\u696d\u8857223\u865f\u5b8f\u5229\u91d1\u878d\u4e2d\u5fc31\u6a137\u865f\u92ea Library MFC Shop",
  "geocode_en": [
    {
      "address_components": [
        {
          "long_name": "Manulife Financial Centre Tower A",
          "short_name": "Manulife Financial Centre Tower A",
          "types": [
            "premise"
          ]
        },
        {
          "long_name": "223",
          "short_name": "223",
          "types": [
            "street_number"
          ]
        },
        {
          "long_name": "Wai Yip Street",
          "short_name": "Wai Yip St",
          "types": [
            "route"
          ]
        },
        {
          "long_name": "Kwun Tong",
          "short_name": "Kwun Tong",
          "types": [
            "neighborhood",
            "political"
          ]
        },
        {
          "long_name": "Kowloon",
          "short_name": "Kowloon",
          "types": [
            "administrative_area_level_1",
            "political"
          ]
        },
        {
          "long_name": "Hong Kong",
          "short_name": "HK",
          "types": [
            "country",
            "political"
          ]
        }
      ],
      "formatted_address": "Manulife Financial Centre Tower A, 223 Wai Yip St, Kwun Tong, Hong Kong",
      "geometry": {
        "bounds": {
          "northeast": {
            "lat": 22.3082,
            "lng": 114.223905
          },
          "southwest": {
            "lat": 22.307554,
            "lng": 114.223275
          }
        },
        "location": {
          "lat": 22.3078829,
          "lng": 114.2235394
        },
        "location_type": "ROOFTOP",
        "viewport": {
          "northeast": {
            "lat": 22.3092259802915,
            "lng": 114.2249389802915
          },
          "southwest": {
            "lat": 22.3065280197085,
            "lng": 114.2222410197085
          }
        }
      },
      "partial_match": true,
      "place_id": "ChIJKU8NW0QBBDQR4gkLNBy5N5Y",
      "types": [
        "premise"
      ]
    }
  ],
  "geocode_tc": [
    {
      "address_components": [
        {
          "long_name": "223",
          "short_name": "223",
          "types": [
            "street_number"
          ]
        },
        {
          "long_name": "Wai Yip Street",
          "short_name": "Wai Yip St",
          "types": [
            "route"
          ]
        },
        {
          "long_name": "Kwun Tong",
          "short_name": "Kwun Tong",
          "types": [
            "neighborhood",
            "political"
          ]
        },
        {
          "long_name": "\u9999\u6e2f",
          "short_name": "HK",
          "types": [
            "country",
            "political"
          ]
        }
      ],
      "formatted_address": "\u865f \uff0d231 \u865f \u5b8f\u5229 \u91d1\u878d \u4e2d\u5fc3 1 \u6a13 7 \u865f \u92ea, 223 Wai Yip St, Kwun Tong, \u9999\u6e2f",
      "geometry": {
        "location": {
          "lat": 22.3078159,
          "lng": 114.2236289
        },
        "location_type": "ROOFTOP",
        "viewport": {
          "northeast": {
            "lat": 22.3091648802915,
            "lng": 114.2249778802915
          },
          "southwest": {
            "lat": 22.30646691970849,
            "lng": 114.2222799197085
          }
        }
      },
      "place_id": "ChIJl2R4W0QBBDQRU3hNId1F1Ik",
      "plus_code": {
        "compound_code": "865F+4F \u9999\u6e2f",
        "global_code": "7PJP865F+4F"
      },
      "types": [
        "establishment",
        "food",
        "point_of_interest",
        "restaurant"
      ]
    }
  ],
  "licno": "2251805407",
  "timestamp": 1564968756,
  "version": "1564966095"
}
