{
  "adr_en": "\u5f37\u8a18, G/F, 1 SAN CHING ROAD, SAN HUI, TUEN MUN, NEW TERRITORIES",
  "adr_tc": "\u65b0\u754c\u5c6f\u9580\u65b0\u9752\u8857\u4e00\u865f\u5730\u4e0b \u5f37\u8a18",
  "geocode_en": [
    {
      "address_components": [
        {
          "long_name": "San Hui",
          "short_name": "San Hui",
          "types": [
            "neighborhood",
            "political"
          ]
        },
        {
          "long_name": "New Territories",
          "short_name": "New Territories",
          "types": [
            "administrative_area_level_1",
            "political"
          ]
        },
        {
          "long_name": "Hong Kong",
          "short_name": "HK",
          "types": [
            "country",
            "political"
          ]
        }
      ],
      "formatted_address": "San Hui, Hong Kong",
      "geometry": {
        "bounds": {
          "northeast": {
            "lat": 22.406507,
            "lng": 113.9861951
          },
          "southwest": {
            "lat": 22.393967,
            "lng": 113.97259
          }
        },
        "location": {
          "lat": 22.3989729,
          "lng": 113.9789238
        },
        "location_type": "APPROXIMATE",
        "viewport": {
          "northeast": {
            "lat": 22.406507,
            "lng": 113.9861951
          },
          "southwest": {
            "lat": 22.393967,
            "lng": 113.97259
          }
        }
      },
      "partial_match": true,
      "place_id": "ChIJaWnHzBj7AzQRopyeNcEfWiQ",
      "types": [
        "neighborhood",
        "political"
      ]
    }
  ],
  "geocode_tc": [
    {
      "address_components": [
        {
          "long_name": "\u865f\u5730\u4e0b",
          "short_name": "\u865f\u5730\u4e0b",
          "types": [
            "subpremise"
          ]
        },
        {
          "long_name": "7",
          "short_name": "7",
          "types": [
            "street_number"
          ]
        },
        {
          "long_name": "\u65b0\u9752\u8857",
          "short_name": "\u65b0\u9752\u8857",
          "types": [
            "route"
          ]
        },
        {
          "long_name": "\u5c6f\u9580",
          "short_name": "\u5c6f\u9580",
          "types": [
            "neighborhood",
            "political"
          ]
        },
        {
          "long_name": "\u65b0\u754c",
          "short_name": "\u65b0\u754c",
          "types": [
            "administrative_area_level_1",
            "political"
          ]
        },
        {
          "long_name": "\u9999\u6e2f",
          "short_name": "HK",
          "types": [
            "country",
            "political"
          ]
        }
      ],
      "formatted_address": "\u9999\u6e2f\u5c6f\u9580\u65b0\u9752\u88577\u865f\u865f\u5730\u4e0b",
      "geometry": {
        "location": {
          "lat": 22.3985818,
          "lng": 113.9760894
        },
        "location_type": "ROOFTOP",
        "viewport": {
          "northeast": {
            "lat": 22.3999307802915,
            "lng": 113.9774383802915
          },
          "southwest": {
            "lat": 22.3972328197085,
            "lng": 113.9747404197085
          }
        }
      },
      "place_id": "ChIJyx_jZyL7AzQRTm4_OvQ4_uc",
      "plus_code": {
        "compound_code": "9XXG+CC \u9999\u6e2f",
        "global_code": "7PJM9XXG+CC"
      },
      "types": [
        "establishment",
        "food",
        "point_of_interest",
        "restaurant"
      ]
    }
  ],
  "licno": "3193000015",
  "timestamp": 1564975666,
  "version": "1564966095"
}
