{
  "adr_en": "Rainbow, B1, VALLEY CENTRE, 80-82 MORRISON HILL RD., WAN CHAI, HONG KONG",
  "adr_tc": "\u9999\u6e2f\u7063\u4ed4\u6469\u7406\u81e3\u5c71\u905380-82\u865fB1\u5730\u5eab Rainbow",
  "geocode_en": [
    {
      "address_components": [
        {
          "long_name": "Valley Centre",
          "short_name": "Valley Centre",
          "types": [
            "premise"
          ]
        },
        {
          "long_name": "80-82",
          "short_name": "80-82",
          "types": [
            "street_number"
          ]
        },
        {
          "long_name": "Morrison Hill Road",
          "short_name": "Morrison Hill Rd",
          "types": [
            "route"
          ]
        },
        {
          "long_name": "Wan Chai",
          "short_name": "Wan Chai",
          "types": [
            "neighborhood",
            "political"
          ]
        },
        {
          "long_name": "Hong Kong Island",
          "short_name": "Hong Kong Island",
          "types": [
            "administrative_area_level_1",
            "political"
          ]
        },
        {
          "long_name": "Hong Kong",
          "short_name": "HK",
          "types": [
            "country",
            "political"
          ]
        }
      ],
      "formatted_address": "Valley Centre, 80-82 Morrison Hill Rd, Wan Chai, Hong Kong",
      "geometry": {
        "bounds": {
          "northeast": {
            "lat": 22.2760129,
            "lng": 114.1801
          },
          "southwest": {
            "lat": 22.2758129,
            "lng": 114.17985
          }
        },
        "location": {
          "lat": 22.2758972,
          "lng": 114.179954
        },
        "location_type": "ROOFTOP",
        "viewport": {
          "northeast": {
            "lat": 22.2772618802915,
            "lng": 114.1813239802915
          },
          "southwest": {
            "lat": 22.2745639197085,
            "lng": 114.1786260197085
          }
        }
      },
      "partial_match": true,
      "place_id": "ChIJK1BNd1AABDQRzh9eurHF9FY",
      "types": [
        "premise"
      ]
    }
  ],
  "geocode_tc": [
    {
      "address_components": [
        {
          "long_name": "B1",
          "short_name": "B1",
          "types": [
            "subpremise"
          ]
        },
        {
          "long_name": "\u67cf\u9918\u4e2d\u5fc3",
          "short_name": "\u67cf\u9918\u4e2d\u5fc3",
          "types": [
            "premise"
          ]
        },
        {
          "long_name": "80-82",
          "short_name": "80-82",
          "types": [
            "street_number"
          ]
        },
        {
          "long_name": "\u6469\u7406\u81e3\u5c71\u9053",
          "short_name": "\u6469\u7406\u81e3\u5c71\u9053",
          "types": [
            "route"
          ]
        },
        {
          "long_name": "\u7063\u4ed4",
          "short_name": "\u7063\u4ed4",
          "types": [
            "neighborhood",
            "political"
          ]
        },
        {
          "long_name": "\u9999\u6e2f\u5cf6",
          "short_name": "\u9999\u6e2f\u5cf6",
          "types": [
            "administrative_area_level_1",
            "political"
          ]
        },
        {
          "long_name": "\u9999\u6e2f",
          "short_name": "HK",
          "types": [
            "country",
            "political"
          ]
        }
      ],
      "formatted_address": "\u9999\u6e2f\u7063\u4ed4\u6469\u7406\u81e3\u5c71\u905380-82\u865f\u67cf\u9918\u4e2d\u5fc3B1",
      "geometry": {
        "bounds": {
          "northeast": {
            "lat": 22.2760129,
            "lng": 114.1801
          },
          "southwest": {
            "lat": 22.2758129,
            "lng": 114.17985
          }
        },
        "location": {
          "lat": 22.2758972,
          "lng": 114.179954
        },
        "location_type": "ROOFTOP",
        "viewport": {
          "northeast": {
            "lat": 22.2772618802915,
            "lng": 114.1813239802915
          },
          "southwest": {
            "lat": 22.2745639197085,
            "lng": 114.1786260197085
          }
        }
      },
      "partial_match": true,
      "place_id": "Ej5CMSwgVmFsbGV5IENlbnRyZSwgODAtODIgTW9ycmlzb24gSGlsbCBSZCwgV2FuIENoYWksIEhvbmcgS29uZyIeGhwKFgoUChIJK1BNd1AABDQRzh9eurHF9FYSAkIx",
      "types": [
        "subpremise"
      ]
    }
  ],
  "licno": "3112177473",
  "timestamp": 1564975666,
  "version": "1564966095"
}
