{
  "adr_en": "Blooming Restaurant, SHOP B, G/F., TAI WONG BUILDING, 3-5 TAI WONG STREET EAST, WAN CHAI, HONG KONG",
  "adr_tc": "\u9999\u6e2f\u7063\u4ed4\u5927\u738b\u6771\u88573-5\u865f\u5927\u65fa\u6a13\u5730\u4e0bB\u8216 \u6f58\u660e\u8a18",
  "geocode_en": [
    {
      "address_components": [
        {
          "long_name": "Tai Wong Street East",
          "short_name": "Tai Wong St E",
          "types": [
            "route"
          ]
        },
        {
          "long_name": "Wan Chai",
          "short_name": "Wan Chai",
          "types": [
            "neighborhood",
            "political"
          ]
        },
        {
          "long_name": "Hong Kong Island",
          "short_name": "Hong Kong Island",
          "types": [
            "administrative_area_level_1",
            "political"
          ]
        },
        {
          "long_name": "Hong Kong",
          "short_name": "HK",
          "types": [
            "country",
            "political"
          ]
        }
      ],
      "formatted_address": "Tai Wong St E, Wan Chai, Hong Kong",
      "geometry": {
        "location": {
          "lat": 22.2756056,
          "lng": 114.1711594
        },
        "location_type": "GEOMETRIC_CENTER",
        "viewport": {
          "northeast": {
            "lat": 22.2769545802915,
            "lng": 114.1725083802915
          },
          "southwest": {
            "lat": 22.2742566197085,
            "lng": 114.1698104197085
          }
        }
      },
      "partial_match": true,
      "place_id": "ChIJQf4FvF0BBDQR_ycJZXbe5Sg",
      "plus_code": {
        "compound_code": "75GC+6F Hong Kong",
        "global_code": "7PJP75GC+6F"
      },
      "types": [
        "establishment",
        "food",
        "point_of_interest",
        "restaurant"
      ]
    },
    {
      "address_components": [
        {
          "long_name": "Tai Wong Building",
          "short_name": "Tai Wong Building",
          "types": [
            "premise"
          ]
        },
        {
          "long_name": "3-5",
          "short_name": "3-5",
          "types": [
            "street_number"
          ]
        },
        {
          "long_name": "Tai Wong Street East",
          "short_name": "Tai Wong St E",
          "types": [
            "route"
          ]
        },
        {
          "long_name": "Wan Chai",
          "short_name": "Wan Chai",
          "types": [
            "neighborhood",
            "political"
          ]
        },
        {
          "long_name": "Hong Kong Island",
          "short_name": "Hong Kong Island",
          "types": [
            "administrative_area_level_1",
            "political"
          ]
        },
        {
          "long_name": "Hong Kong",
          "short_name": "HK",
          "types": [
            "country",
            "political"
          ]
        }
      ],
      "formatted_address": "Tai Wong Building, 3-5 Tai Wong St E, Wan Chai, Hong Kong",
      "geometry": {
        "bounds": {
          "northeast": {
            "lat": 22.275755,
            "lng": 114.171166
          },
          "southwest": {
            "lat": 22.2756501,
            "lng": 114.171054
          }
        },
        "location": {
          "lat": 22.2757082,
          "lng": 114.171118
        },
        "location_type": "ROOFTOP",
        "viewport": {
          "northeast": {
            "lat": 22.2770515302915,
            "lng": 114.1724589802915
          },
          "southwest": {
            "lat": 22.2743535697085,
            "lng": 114.1697610197085
          }
        }
      },
      "partial_match": true,
      "place_id": "ChIJ1xA40VwABDQRzgX9c1h3pWs",
      "types": [
        "premise"
      ]
    }
  ],
  "geocode_tc": [
    {
      "address_components": [
        {
          "long_name": "\u5927\u738b\u6771\u8857",
          "short_name": "\u5927\u738b\u6771\u8857",
          "types": [
            "route"
          ]
        },
        {
          "long_name": "\u7063\u4ed4",
          "short_name": "\u7063\u4ed4",
          "types": [
            "neighborhood",
            "political"
          ]
        },
        {
          "long_name": "\u9999\u6e2f\u5cf6",
          "short_name": "\u9999\u6e2f\u5cf6",
          "types": [
            "administrative_area_level_1",
            "political"
          ]
        },
        {
          "long_name": "\u9999\u6e2f",
          "short_name": "HK",
          "types": [
            "country",
            "political"
          ]
        }
      ],
      "formatted_address": "\u9999\u6e2f\u7063\u4ed4\u5927\u738b\u6771\u8857",
      "geometry": {
        "location": {
          "lat": 22.2756056,
          "lng": 114.1711594
        },
        "location_type": "GEOMETRIC_CENTER",
        "viewport": {
          "northeast": {
            "lat": 22.2769545802915,
            "lng": 114.1725083802915
          },
          "southwest": {
            "lat": 22.2742566197085,
            "lng": 114.1698104197085
          }
        }
      },
      "place_id": "ChIJQf4FvF0BBDQR_ycJZXbe5Sg",
      "plus_code": {
        "compound_code": "75GC+6F \u9999\u6e2f",
        "global_code": "7PJP75GC+6F"
      },
      "types": [
        "establishment",
        "food",
        "point_of_interest",
        "restaurant"
      ]
    }
  ],
  "licno": "2212811298",
  "timestamp": 1564966180,
  "version": "1564966095"
}
