{
  "adr_en": "\u4e0a\u6d77\u5a46\u5a46, SHOP NOS. 503, 505 & 512AND OPEN SEATING AREA D,LEVEL 5, LANDMARK NORTH, 39 LUNG SUM AVENUE, SHEK WU HUI, SHEUNG SHUI, NEW TERRITORIES",
  "adr_tc": "\u65b0\u754c\u4e0a\u6c34\u77f3\u6e56\u589f\u9f8d\u741b\u8def39\u865f\u4e0a\u6c34\u5ee3\u58345\u6a13503,505 \u53ca512\u865f\u92ea\u53ca\u92ea\u524d\u5ea7\u4f4dD \u4e0a\u6d77\u5a46\u5a46",
  "geocode_en": [
    {
      "address_components": [
        {
          "long_name": "Shanghai",
          "short_name": "Shanghai",
          "types": [
            "locality",
            "political"
          ]
        },
        {
          "long_name": "Shanghai",
          "short_name": "Shanghai",
          "types": [
            "administrative_area_level_1",
            "political"
          ]
        },
        {
          "long_name": "China",
          "short_name": "CN",
          "types": [
            "country",
            "political"
          ]
        }
      ],
      "formatted_address": "Shanghai, China",
      "geometry": {
        "bounds": {
          "northeast": {
            "lat": 31.8727163,
            "lng": 122.2471487
          },
          "southwest": {
            "lat": 30.6755933,
            "lng": 120.8568044
          }
        },
        "location": {
          "lat": 31.230416,
          "lng": 121.473701
        },
        "location_type": "APPROXIMATE",
        "viewport": {
          "northeast": {
            "lat": 31.6688967,
            "lng": 122.1137989
          },
          "southwest": {
            "lat": 30.7798012,
            "lng": 120.8397067
          }
        }
      },
      "partial_match": true,
      "place_id": "ChIJMzz1sUBwsjURoWTDI5QSlQI",
      "types": [
        "locality",
        "political"
      ]
    },
    {
      "address_components": [
        {
          "long_name": "39",
          "short_name": "39",
          "types": [
            "street_number"
          ]
        },
        {
          "long_name": "Lung Sum Avenue",
          "short_name": "Lung Sum Ave",
          "types": [
            "route"
          ]
        },
        {
          "long_name": "Sheung Shui",
          "short_name": "Sheung Shui",
          "types": [
            "neighborhood",
            "political"
          ]
        },
        {
          "long_name": "New Territories",
          "short_name": "New Territories",
          "types": [
            "administrative_area_level_1",
            "political"
          ]
        },
        {
          "long_name": "Hong Kong",
          "short_name": "HK",
          "types": [
            "country",
            "political"
          ]
        }
      ],
      "formatted_address": "39 Lung Sum Ave, Sheung Shui, Hong Kong",
      "geometry": {
        "location": {
          "lat": 22.502596,
          "lng": 114.127894
        },
        "location_type": "ROOFTOP",
        "viewport": {
          "northeast": {
            "lat": 22.5039449802915,
            "lng": 114.1292429802915
          },
          "southwest": {
            "lat": 22.5012470197085,
            "lng": 114.1265450197085
          }
        }
      },
      "partial_match": true,
      "place_id": "ChIJ86wdpxH2AzQRK8fP_0xoU30",
      "plus_code": {
        "compound_code": "G43H+25 Sheung Shui, Hong Kong",
        "global_code": "7PJPG43H+25"
      },
      "types": [
        "establishment",
        "point_of_interest",
        "shopping_mall"
      ]
    }
  ],
  "geocode_tc": [
    {
      "address_components": [
        {
          "long_name": "39",
          "short_name": "39",
          "types": [
            "street_number"
          ]
        },
        {
          "long_name": "\u9f8d\u741b\u8def",
          "short_name": "\u9f8d\u741b\u8def",
          "types": [
            "route"
          ]
        },
        {
          "long_name": "\u4e0a\u6c34",
          "short_name": "\u4e0a\u6c34",
          "types": [
            "neighborhood",
            "political"
          ]
        },
        {
          "long_name": "\u65b0\u754c",
          "short_name": "\u65b0\u754c",
          "types": [
            "administrative_area_level_1",
            "political"
          ]
        },
        {
          "long_name": "\u9999\u6e2f",
          "short_name": "HK",
          "types": [
            "country",
            "political"
          ]
        }
      ],
      "formatted_address": "\u9999\u6e2f\u4e0a\u6c34\u9f8d\u741b\u8def39\u865f",
      "geometry": {
        "location": {
          "lat": 22.502596,
          "lng": 114.127894
        },
        "location_type": "ROOFTOP",
        "viewport": {
          "northeast": {
            "lat": 22.5039449802915,
            "lng": 114.1292429802915
          },
          "southwest": {
            "lat": 22.5012470197085,
            "lng": 114.1265450197085
          }
        }
      },
      "partial_match": true,
      "place_id": "ChIJ86wdpxH2AzQRK8fP_0xoU30",
      "plus_code": {
        "compound_code": "G43H+25 \u9999\u6e2f\u4e0a\u6c34",
        "global_code": "7PJPG43H+25"
      },
      "types": [
        "establishment",
        "point_of_interest",
        "shopping_mall"
      ]
    }
  ],
  "licno": "2296800977",
  "timestamp": 1564975666,
  "version": "1564966095"
}
