{
  "adr_en": "\u5e78\u798f\u57ce\u8336\u9910\u5ef3, SHOP NO. 5, G/F, PHASE 2, KAI TAK COURT, 121 CHOI HUNG ROAD, WONG TAI SIN, KOWLOON",
  "adr_tc": "\u4e5d\u9f8d\u9ec3\u5927\u4ed9\u5f69\u8679\u9053121\u865f \u555f\u5fb7\u82b1\u5712\u7b2c2\u671f\u5730\u4e0b5\u865f\u8216 \u5e78\u798f\u57ce\u8336\u9910\u5ef3",
  "geocode_en": [
    {
      "address_components": [
        {
          "long_name": "Hong Kong",
          "short_name": "HK",
          "types": [
            "country",
            "political"
          ]
        }
      ],
      "formatted_address": "Hong Kong, \u9ec3\u5927\u4ed9\u5f69\u8679\u9053121\u865f\u555f\u5fb7\u82b1\u57122\u671f\u5730\u4e0b5\u865f\u8216",
      "geometry": {
        "location": {
          "lat": 22.3382876,
          "lng": 114.1942628
        },
        "location_type": "GEOMETRIC_CENTER",
        "viewport": {
          "northeast": {
            "lat": 22.3396365802915,
            "lng": 114.1956117802915
          },
          "southwest": {
            "lat": 22.3369386197085,
            "lng": 114.1929138197085
          }
        }
      },
      "partial_match": true,
      "place_id": "ChIJGRPIg9cGBDQRisIh5tvvG9A",
      "plus_code": {
        "compound_code": "85QV+8P Hong Kong",
        "global_code": "7PJP85QV+8P"
      },
      "types": [
        "establishment",
        "food",
        "point_of_interest",
        "restaurant"
      ]
    },
    {
      "address_components": [
        {
          "long_name": "5, G/F, PHASE",
          "short_name": "5, G/F, PHASE",
          "types": [
            "subpremise"
          ]
        },
        {
          "long_name": "121",
          "short_name": "121",
          "types": [
            "street_number"
          ]
        },
        {
          "long_name": "Choi Hung Road",
          "short_name": "Choi Hung Rd",
          "types": [
            "route"
          ]
        },
        {
          "long_name": "Chuk Un",
          "short_name": "Chuk Un",
          "types": [
            "neighborhood",
            "political"
          ]
        },
        {
          "long_name": "Kowloon",
          "short_name": "Kowloon",
          "types": [
            "administrative_area_level_1",
            "political"
          ]
        },
        {
          "long_name": "Hong Kong",
          "short_name": "HK",
          "types": [
            "country",
            "political"
          ]
        }
      ],
      "formatted_address": "5, G/F, PHASE, 121 Choi Hung Rd, Chuk Un, Hong Kong",
      "geometry": {
        "location": {
          "lat": 22.338217,
          "lng": 114.194494
        },
        "location_type": "ROOFTOP",
        "viewport": {
          "northeast": {
            "lat": 22.3395659802915,
            "lng": 114.1958429802915
          },
          "southwest": {
            "lat": 22.3368680197085,
            "lng": 114.1931450197085
          }
        }
      },
      "partial_match": true,
      "place_id": "EjM1LCBHL0YsIFBIQVNFLCAxMjEgQ2hvaSBIdW5nIFJkLCBDaHVrIFVuLCBIb25nIEtvbmciKRonChYKFAoSCbk5UX_XBgQ0EeaUW0RFgqdfEg01LCBHL0YsIFBIQVNF",
      "types": [
        "subpremise"
      ]
    }
  ],
  "geocode_tc": [
    {
      "address_components": [
        {
          "long_name": "\u9999\u6e2f",
          "short_name": "HK",
          "types": [
            "country",
            "political"
          ]
        }
      ],
      "formatted_address": "\u9999\u6e2f\u9ec3\u5927\u4ed9\u5f69\u8679\u9053121\u865f\u555f\u5fb7\u82b1\u57122\u671f\u5730\u4e0b5\u865f\u8216",
      "geometry": {
        "location": {
          "lat": 22.3382876,
          "lng": 114.1942628
        },
        "location_type": "GEOMETRIC_CENTER",
        "viewport": {
          "northeast": {
            "lat": 22.3396365802915,
            "lng": 114.1956117802915
          },
          "southwest": {
            "lat": 22.3369386197085,
            "lng": 114.1929138197085
          }
        }
      },
      "place_id": "ChIJGRPIg9cGBDQRisIh5tvvG9A",
      "plus_code": {
        "compound_code": "85QV+8P \u9999\u6e2f",
        "global_code": "7PJP85QV+8P"
      },
      "types": [
        "establishment",
        "food",
        "point_of_interest",
        "restaurant"
      ]
    }
  ],
  "licno": "2253280400",
  "timestamp": 1564968756,
  "version": "1564966095"
}
