{
  "adr_en": "Pizza Hut, SHOP NOS. 2071-2072, LEVEL 2, AND PORTION OF CORRIDOR SPACE AT SHOP FRONT, METRO CITY, PHASE II, TSEUNG KWAN O, SAI KUNG, NEW TERRITORIES",
  "adr_tc": "\u65b0\u754c\u897f\u8ca2 \u5c07\u8ecd\u6fb3\u65b0\u90fd\u57ce\u7b2cII\u671f \u7b2c\u4e8c\u5c642071-2072\u865f\u92ea \u53ca\u92ea\u524d\u90e8\u4efd\u884c\u4eba\u901a\u9053 \u5fc5\u52dd\u5ba2",
  "geocode_en": [
    {
      "address_components": [
        {
          "long_name": "8",
          "short_name": "8",
          "types": [
            "street_number"
          ]
        },
        {
          "long_name": "Yan King Road",
          "short_name": "Yan King Rd",
          "types": [
            "route"
          ]
        },
        {
          "long_name": "Yau Yue Wan",
          "short_name": "Yau Yue Wan",
          "types": [
            "neighborhood",
            "political"
          ]
        },
        {
          "long_name": "New Territories",
          "short_name": "New Territories",
          "types": [
            "administrative_area_level_1",
            "political"
          ]
        },
        {
          "long_name": "Hong Kong",
          "short_name": "HK",
          "types": [
            "country",
            "political"
          ]
        }
      ],
      "formatted_address": "8 Yan King Rd, Yau Yue Wan, Hong Kong",
      "geometry": {
        "location": {
          "lat": 22.3231863,
          "lng": 114.2577924
        },
        "location_type": "ROOFTOP",
        "viewport": {
          "northeast": {
            "lat": 22.3245352802915,
            "lng": 114.2591413802915
          },
          "southwest": {
            "lat": 22.3218373197085,
            "lng": 114.2564434197085
          }
        }
      },
      "partial_match": true,
      "place_id": "ChIJTyMjCQwEBDQRUVXfKhXaR28",
      "plus_code": {
        "compound_code": "87F5+74 Hong Kong",
        "global_code": "7PJP87F5+74"
      },
      "types": [
        "establishment",
        "point_of_interest"
      ]
    },
    {
      "address_components": [
        {
          "long_name": "Tseung Kwan O",
          "short_name": "Tseung Kwan O",
          "types": [
            "neighborhood",
            "political"
          ]
        },
        {
          "long_name": "New Territories",
          "short_name": "New Territories",
          "types": [
            "administrative_area_level_1",
            "political"
          ]
        },
        {
          "long_name": "Hong Kong",
          "short_name": "HK",
          "types": [
            "country",
            "political"
          ]
        }
      ],
      "formatted_address": "Tseung Kwan O, Hong Kong",
      "geometry": {
        "bounds": {
          "northeast": {
            "lat": 22.3147112,
            "lng": 114.2654406
          },
          "southwest": {
            "lat": 22.3005346,
            "lng": 114.255294
          }
        },
        "location": {
          "lat": 22.3119357,
          "lng": 114.2568776
        },
        "location_type": "APPROXIMATE",
        "viewport": {
          "northeast": {
            "lat": 22.3147112,
            "lng": 114.2654406
          },
          "southwest": {
            "lat": 22.3005346,
            "lng": 114.255294
          }
        }
      },
      "partial_match": true,
      "place_id": "ChIJQclRg-kDBDQRcCbTSL7_7M0",
      "types": [
        "neighborhood",
        "political"
      ]
    }
  ],
  "geocode_tc": [
    {
      "address_components": [
        {
          "long_name": "8",
          "short_name": "8",
          "types": [
            "street_number"
          ]
        },
        {
          "long_name": "\u6b23\u666f\u8def",
          "short_name": "\u6b23\u666f\u8def",
          "types": [
            "route"
          ]
        },
        {
          "long_name": "\u5c07\u8ecd\u6fb3",
          "short_name": "\u5c07\u8ecd\u6fb3",
          "types": [
            "neighborhood",
            "political"
          ]
        },
        {
          "long_name": "\u65b0\u754c",
          "short_name": "\u65b0\u754c",
          "types": [
            "administrative_area_level_1",
            "political"
          ]
        },
        {
          "long_name": "\u9999\u6e2f",
          "short_name": "HK",
          "types": [
            "country",
            "political"
          ]
        }
      ],
      "formatted_address": "\u9999\u6e2f\u5c07\u8ecd\u6fb3\u6b23\u666f\u8def8\u865f",
      "geometry": {
        "location": {
          "lat": 22.3228322,
          "lng": 114.258409
        },
        "location_type": "ROOFTOP",
        "viewport": {
          "northeast": {
            "lat": 22.3241811802915,
            "lng": 114.2597579802915
          },
          "southwest": {
            "lat": 22.3214832197085,
            "lng": 114.2570600197085
          }
        }
      },
      "partial_match": true,
      "place_id": "ChIJh4TOhgsEBDQR6nVF5uHaalE",
      "plus_code": {
        "compound_code": "87F5+49 \u9999\u6e2f\u5c07\u8ecd\u6fb3",
        "global_code": "7PJP87F5+49"
      },
      "types": [
        "establishment",
        "point_of_interest",
        "shopping_mall"
      ]
    }
  ],
  "licno": "2298002300",
  "timestamp": 1564975666,
  "version": "1564966095"
}
