{
  "adr_en": "\u7dad\u4e9e\u8ed2, G/F, SHOP 1 AND SHOP 2 AND YARD, YEE HING COURT, 13 TAK HING STREET, KOWLOON",
  "adr_tc": "\u4e5d\u9f8d\u5fb7\u8208\u885713\u865f\u6021\u8208\u95a3\u5730\u4e0b1\u865f\u8216 \u53ca2\u865f\u8216\u53ca\u5929\u4e95 \u7dad\u4e9e\u8ed2",
  "geocode_en": [
    {
      "address_components": [
        {
          "long_name": "Hong Kong",
          "short_name": "HK",
          "types": [
            "country",
            "political"
          ]
        }
      ],
      "formatted_address": "Hong Kong, \u4f50\u6566\u5fb7\u8208\u885713\u865f\u6021\u8208\u95a31\u81f32\u865f\u8216",
      "geometry": {
        "location": {
          "lat": 22.3050079,
          "lng": 114.1723017
        },
        "location_type": "GEOMETRIC_CENTER",
        "viewport": {
          "northeast": {
            "lat": 22.3063568802915,
            "lng": 114.1736506802915
          },
          "southwest": {
            "lat": 22.3036589197085,
            "lng": 114.1709527197085
          }
        }
      },
      "partial_match": true,
      "place_id": "ChIJ2edGuOsABDQR4fjS2sWi-4g",
      "plus_code": {
        "compound_code": "854C+2W Hong Kong",
        "global_code": "7PJP854C+2W"
      },
      "types": [
        "establishment",
        "food",
        "point_of_interest",
        "restaurant"
      ]
    },
    {
      "address_components": [
        {
          "long_name": "Yee Hing Court",
          "short_name": "Yee Hing Court",
          "types": [
            "premise"
          ]
        },
        {
          "long_name": "13",
          "short_name": "13",
          "types": [
            "street_number"
          ]
        },
        {
          "long_name": "Tak Hing Street",
          "short_name": "Tak Hing St",
          "types": [
            "route"
          ]
        },
        {
          "long_name": "Yau Ma Tei",
          "short_name": "Yau Ma Tei",
          "types": [
            "neighborhood",
            "political"
          ]
        },
        {
          "long_name": "Kowloon",
          "short_name": "Kowloon",
          "types": [
            "administrative_area_level_1",
            "political"
          ]
        },
        {
          "long_name": "Hong Kong",
          "short_name": "HK",
          "types": [
            "country",
            "political"
          ]
        }
      ],
      "formatted_address": "Yee Hing Court, 13 Tak Hing St, Yau Ma Tei, Hong Kong",
      "geometry": {
        "bounds": {
          "northeast": {
            "lat": 22.305093,
            "lng": 114.172492
          },
          "southwest": {
            "lat": 22.304995,
            "lng": 114.172289
          }
        },
        "location": {
          "lat": 22.3050356,
          "lng": 114.1723836
        },
        "location_type": "ROOFTOP",
        "viewport": {
          "northeast": {
            "lat": 22.30639298029151,
            "lng": 114.1737394802915
          },
          "southwest": {
            "lat": 22.3036950197085,
            "lng": 114.1710415197085
          }
        }
      },
      "partial_match": true,
      "place_id": "ChIJcwwpxusABDQRfH-LrXysEt8",
      "types": [
        "premise"
      ]
    }
  ],
  "geocode_tc": [
    {
      "address_components": [
        {
          "long_name": "\u9999\u6e2f",
          "short_name": "HK",
          "types": [
            "country",
            "political"
          ]
        }
      ],
      "formatted_address": "\u9999\u6e2f\u4f50\u6566\u5fb7\u8208\u885713\u865f\u6021\u8208\u95a31\u81f32\u865f\u8216",
      "geometry": {
        "location": {
          "lat": 22.3050079,
          "lng": 114.1723017
        },
        "location_type": "GEOMETRIC_CENTER",
        "viewport": {
          "northeast": {
            "lat": 22.3063568802915,
            "lng": 114.1736506802915
          },
          "southwest": {
            "lat": 22.3036589197085,
            "lng": 114.1709527197085
          }
        }
      },
      "place_id": "ChIJ2edGuOsABDQR4fjS2sWi-4g",
      "plus_code": {
        "compound_code": "854C+2W \u9999\u6e2f",
        "global_code": "7PJP854C+2W"
      },
      "types": [
        "establishment",
        "food",
        "point_of_interest",
        "restaurant"
      ]
    }
  ],
  "licno": "2261800405",
  "timestamp": 1564968756,
  "version": "1564966095"
}
