{
  "adr_en": "\u624b\u6495\u96de\u7ca5, SHOP NO. 11, G/F., LUCKIFAST BUILDING, NO. 1 STONE NULLAH LANE, WAN CHAI, HONG KONG",
  "adr_tc": "\u9999\u6e2f\u7063\u4ed4\u77f3\u6c34\u6e20\u88571\u865f\u5176\u767c\u5927\u5ec8\u5730\u4e0b11\u865f\u8216 \u624b\u6495\u96de\u7ca5",
  "geocode_en": [
    {
      "address_components": [
        {
          "long_name": "Luckifast Building",
          "short_name": "Luckifast Building",
          "types": [
            "premise"
          ]
        },
        {
          "long_name": "1",
          "short_name": "1",
          "types": [
            "street_number"
          ]
        },
        {
          "long_name": "Stone Nullah Lane",
          "short_name": "Stone Nullah Ln",
          "types": [
            "route"
          ]
        },
        {
          "long_name": "Wan Chai",
          "short_name": "Wan Chai",
          "types": [
            "neighborhood",
            "political"
          ]
        },
        {
          "long_name": "Hong Kong Island",
          "short_name": "Hong Kong Island",
          "types": [
            "administrative_area_level_1",
            "political"
          ]
        },
        {
          "long_name": "Hong Kong",
          "short_name": "HK",
          "types": [
            "country",
            "political"
          ]
        }
      ],
      "formatted_address": "Luckifast Building, 1 Stone Nullah Ln, Wan Chai, Hong Kong",
      "geometry": {
        "bounds": {
          "northeast": {
            "lat": 22.2763359,
            "lng": 114.173574
          },
          "southwest": {
            "lat": 22.276044,
            "lng": 114.173434
          }
        },
        "location": {
          "lat": 22.2761727,
          "lng": 114.1734983
        },
        "location_type": "ROOFTOP",
        "viewport": {
          "northeast": {
            "lat": 22.2775389302915,
            "lng": 114.1748529802915
          },
          "southwest": {
            "lat": 22.2748409697085,
            "lng": 114.1721550197085
          }
        }
      },
      "partial_match": true,
      "place_id": "ChIJ1-lJoFwABDQRwHiAefSbpt4",
      "types": [
        "premise"
      ]
    }
  ],
  "geocode_tc": [
    {
      "address_components": [
        {
          "long_name": "\u5176\u767c\u5927\u5ec8",
          "short_name": "\u5176\u767c\u5927\u5ec8",
          "types": [
            "premise"
          ]
        },
        {
          "long_name": "1",
          "short_name": "1",
          "types": [
            "street_number"
          ]
        },
        {
          "long_name": "\u77f3\u6c34\u6e20\u8857",
          "short_name": "\u77f3\u6c34\u6e20\u8857",
          "types": [
            "route"
          ]
        },
        {
          "long_name": "\u7063\u4ed4",
          "short_name": "\u7063\u4ed4",
          "types": [
            "neighborhood",
            "political"
          ]
        },
        {
          "long_name": "\u9999\u6e2f\u5cf6",
          "short_name": "\u9999\u6e2f\u5cf6",
          "types": [
            "administrative_area_level_1",
            "political"
          ]
        },
        {
          "long_name": "\u9999\u6e2f",
          "short_name": "HK",
          "types": [
            "country",
            "political"
          ]
        }
      ],
      "formatted_address": "\u9999\u6e2f\u7063\u4ed4\u77f3\u6c34\u6e20\u88571\u865f\u5176\u767c\u5927\u5ec8",
      "geometry": {
        "bounds": {
          "northeast": {
            "lat": 22.2763359,
            "lng": 114.173574
          },
          "southwest": {
            "lat": 22.276044,
            "lng": 114.173434
          }
        },
        "location": {
          "lat": 22.2761727,
          "lng": 114.1734983
        },
        "location_type": "ROOFTOP",
        "viewport": {
          "northeast": {
            "lat": 22.2775389302915,
            "lng": 114.1748529802915
          },
          "southwest": {
            "lat": 22.2748409697085,
            "lng": 114.1721550197085
          }
        }
      },
      "partial_match": true,
      "place_id": "ChIJ1-lJoFwABDQRwHiAefSbpt4",
      "types": [
        "premise"
      ]
    },
    {
      "address_components": [
        {
          "long_name": "19",
          "short_name": "19",
          "types": [
            "street_number"
          ]
        },
        {
          "long_name": "\u77f3\u6c34\u6e20\u8857",
          "short_name": "\u77f3\u6c34\u6e20\u8857",
          "types": [
            "route"
          ]
        },
        {
          "long_name": "\u7063\u4ed4",
          "short_name": "\u7063\u4ed4",
          "types": [
            "neighborhood",
            "political"
          ]
        },
        {
          "long_name": "\u9999\u6e2f\u5cf6",
          "short_name": "\u9999\u6e2f\u5cf6",
          "types": [
            "administrative_area_level_1",
            "political"
          ]
        },
        {
          "long_name": "\u9999\u6e2f",
          "short_name": "HK",
          "types": [
            "country",
            "political"
          ]
        }
      ],
      "formatted_address": "\u9999\u6e2f\u7063\u4ed4\u77f3\u6c34\u6e20\u885719\u865f",
      "geometry": {
        "location": {
          "lat": 22.2758656,
          "lng": 114.1735854
        },
        "location_type": "ROOFTOP",
        "viewport": {
          "northeast": {
            "lat": 22.2772145802915,
            "lng": 114.1749343802915
          },
          "southwest": {
            "lat": 22.2745166197085,
            "lng": 114.1722364197085
          }
        }
      },
      "partial_match": true,
      "place_id": "ChIJn2BGp1wABDQRIZdhx7zgsQY",
      "plus_code": {
        "compound_code": "75GF+8C \u9999\u6e2f",
        "global_code": "7PJP75GF+8C"
      },
      "types": [
        "establishment",
        "food",
        "point_of_interest",
        "restaurant"
      ]
    }
  ],
  "licno": "3112806865",
  "timestamp": 1564975666,
  "version": "1564966095"
}
