{
  "adr_en": "Oyster To Go, SHOP A, G/F, 6 HILLWOOD ROAD, TSIM SHA TSUI, KOWLOON",
  "adr_tc": "\u4e5d\u9f8d\u5c16\u6c99\u5480\u5c71\u6797\u90536\u865f\u5730\u4e0bA\u8216 \u6c92\u6709\u8a18\u9304",
  "geocode_en": [
    {
      "address_components": [
        {
          "long_name": "\u865f\u5730\u92ea",
          "short_name": "\u865f\u5730\u92ea",
          "types": [
            "subpremise"
          ]
        },
        {
          "long_name": "6",
          "short_name": "6",
          "types": [
            "street_number"
          ]
        },
        {
          "long_name": "Hillwood Road",
          "short_name": "Hillwood Rd",
          "types": [
            "route"
          ]
        },
        {
          "long_name": "Tsim Sha Tsui",
          "short_name": "Tsim Sha Tsui",
          "types": [
            "neighborhood",
            "political"
          ]
        },
        {
          "long_name": "Kowloon",
          "short_name": "Kowloon",
          "types": [
            "administrative_area_level_1",
            "political"
          ]
        },
        {
          "long_name": "Hong Kong",
          "short_name": "HK",
          "types": [
            "country",
            "political"
          ]
        }
      ],
      "formatted_address": "\u865f\u5730\u92ea, 6 Hillwood Rd, Tsim Sha Tsui, Hong Kong",
      "geometry": {
        "location": {
          "lat": 22.3026213,
          "lng": 114.1725046
        },
        "location_type": "ROOFTOP",
        "viewport": {
          "northeast": {
            "lat": 22.3039702802915,
            "lng": 114.1738535802915
          },
          "southwest": {
            "lat": 22.3012723197085,
            "lng": 114.1711556197085
          }
        }
      },
      "partial_match": true,
      "place_id": "ChIJO6-_VWoBBDQRfzjMVAhanBk",
      "plus_code": {
        "compound_code": "853F+22 Hong Kong",
        "global_code": "7PJP853F+22"
      },
      "types": [
        "establishment",
        "food",
        "point_of_interest",
        "restaurant"
      ]
    },
    {
      "address_components": [
        {
          "long_name": "G",
          "short_name": "G",
          "types": [
            "subpremise"
          ]
        },
        {
          "long_name": "Fu Lam Building",
          "short_name": "Fu Lam Building",
          "types": [
            "premise"
          ]
        },
        {
          "long_name": "6",
          "short_name": "6",
          "types": [
            "street_number"
          ]
        },
        {
          "long_name": "Hillwood Road",
          "short_name": "Hillwood Rd",
          "types": [
            "route"
          ]
        },
        {
          "long_name": "Tsim Sha Tsui",
          "short_name": "Tsim Sha Tsui",
          "types": [
            "neighborhood",
            "political"
          ]
        },
        {
          "long_name": "Kowloon",
          "short_name": "Kowloon",
          "types": [
            "administrative_area_level_1",
            "political"
          ]
        },
        {
          "long_name": "Hong Kong",
          "short_name": "HK",
          "types": [
            "country",
            "political"
          ]
        }
      ],
      "formatted_address": "G, Fu Lam Building, 6 Hillwood Rd, Tsim Sha Tsui, Hong Kong",
      "geometry": {
        "bounds": {
          "northeast": {
            "lat": 22.302628,
            "lng": 114.172351
          },
          "southwest": {
            "lat": 22.3024189,
            "lng": 114.172277
          }
        },
        "location": {
          "lat": 22.302527,
          "lng": 114.1723256
        },
        "location_type": "ROOFTOP",
        "viewport": {
          "northeast": {
            "lat": 22.3038724302915,
            "lng": 114.1736629802915
          },
          "southwest": {
            "lat": 22.3011744697085,
            "lng": 114.1709650197085
          }
        }
      },
      "partial_match": true,
      "place_id": "EjtHLCBGdSBMYW0gQnVpbGRpbmcsIDYgSGlsbHdvb2QgUmQsIFRzaW0gU2hhIFRzdWksIEhvbmcgS29uZyIdGhsKFgoUChIJV3XyDOwABDQRxmXB7SoSp0QSAUc",
      "types": [
        "subpremise"
      ]
    },
    {
      "address_components": [
        {
          "long_name": "F",
          "short_name": "F",
          "types": [
            "subpremise"
          ]
        },
        {
          "long_name": "Fu Lam Building",
          "short_name": "Fu Lam Building",
          "types": [
            "premise"
          ]
        },
        {
          "long_name": "6",
          "short_name": "6",
          "types": [
            "street_number"
          ]
        },
        {
          "long_name": "Hillwood Road",
          "short_name": "Hillwood Rd",
          "types": [
            "route"
          ]
        },
        {
          "long_name": "Tsim Sha Tsui",
          "short_name": "Tsim Sha Tsui",
          "types": [
            "neighborhood",
            "political"
          ]
        },
        {
          "long_name": "Kowloon",
          "short_name": "Kowloon",
          "types": [
            "administrative_area_level_1",
            "political"
          ]
        },
        {
          "long_name": "Hong Kong",
          "short_name": "HK",
          "types": [
            "country",
            "political"
          ]
        }
      ],
      "formatted_address": "F, Fu Lam Building, 6 Hillwood Rd, Tsim Sha Tsui, Hong Kong",
      "geometry": {
        "bounds": {
          "northeast": {
            "lat": 22.302628,
            "lng": 114.172351
          },
          "southwest": {
            "lat": 22.3024189,
            "lng": 114.172277
          }
        },
        "location": {
          "lat": 22.302527,
          "lng": 114.1723256
        },
        "location_type": "ROOFTOP",
        "viewport": {
          "northeast": {
            "lat": 22.3038724302915,
            "lng": 114.1736629802915
          },
          "southwest": {
            "lat": 22.3011744697085,
            "lng": 114.1709650197085
          }
        }
      },
      "partial_match": true,
      "place_id": "EjtGLCBGdSBMYW0gQnVpbGRpbmcsIDYgSGlsbHdvb2QgUmQsIFRzaW0gU2hhIFRzdWksIEhvbmcgS29uZyIdGhsKFgoUChIJV3XyDOwABDQRxmXB7SoSp0QSAUY",
      "types": [
        "subpremise"
      ]
    }
  ],
  "geocode_tc": [
    {
      "address_components": [
        {
          "long_name": "\u5bcc\u6797\u5927\u5ec8",
          "short_name": "\u5bcc\u6797\u5927\u5ec8",
          "types": [
            "premise"
          ]
        },
        {
          "long_name": "6",
          "short_name": "6",
          "types": [
            "street_number"
          ]
        },
        {
          "long_name": "\u5c71\u6797\u9053",
          "short_name": "\u5c71\u6797\u9053",
          "types": [
            "route"
          ]
        },
        {
          "long_name": "\u5c16\u6c99\u5480",
          "short_name": "\u5c16\u6c99\u5480",
          "types": [
            "neighborhood",
            "political"
          ]
        },
        {
          "long_name": "\u4e5d\u9f8d",
          "short_name": "\u4e5d\u9f8d",
          "types": [
            "administrative_area_level_1",
            "political"
          ]
        },
        {
          "long_name": "\u9999\u6e2f",
          "short_name": "HK",
          "types": [
            "country",
            "political"
          ]
        }
      ],
      "formatted_address": "\u9999\u6e2f\u5c16\u6c99\u5480\u5c71\u6797\u90536\u865f\u5bcc\u6797\u5927\u5ec8",
      "geometry": {
        "bounds": {
          "northeast": {
            "lat": 22.302628,
            "lng": 114.172351
          },
          "southwest": {
            "lat": 22.3024189,
            "lng": 114.172277
          }
        },
        "location": {
          "lat": 22.302527,
          "lng": 114.1723256
        },
        "location_type": "ROOFTOP",
        "viewport": {
          "northeast": {
            "lat": 22.3038724302915,
            "lng": 114.1736629802915
          },
          "southwest": {
            "lat": 22.3011744697085,
            "lng": 114.1709650197085
          }
        }
      },
      "partial_match": true,
      "place_id": "ChIJV3XyDOwABDQRxmXB7SoSp0Q",
      "types": [
        "premise"
      ]
    }
  ],
  "licno": "3161800591",
  "timestamp": 1564975666,
  "version": "1564966095"
}
