{
  "adr_en": "V & B CUISINE, SHOP A & B, G/F, LONG WAH BUILDING, 21A LOCK ROAD, TSIM SHA TSUI, KOWLOON",
  "adr_tc": "\u4e5d\u9f8d\u5c16\u6c99\u5480\u6a02\u905321A\u865f\u9f8d\u83ef\u5927\u5ec8\u5730\u4e0bA\u53caB\u92ea \u54c1\u5473",
  "geocode_en": [
    {
      "address_components": [
        {
          "long_name": "21",
          "short_name": "21",
          "types": [
            "street_number"
          ]
        },
        {
          "long_name": "Lock Road",
          "short_name": "Lock Rd",
          "types": [
            "route"
          ]
        },
        {
          "long_name": "Tsim Sha Tsui",
          "short_name": "Tsim Sha Tsui",
          "types": [
            "neighborhood",
            "political"
          ]
        },
        {
          "long_name": "Kowloon",
          "short_name": "Kowloon",
          "types": [
            "administrative_area_level_1",
            "political"
          ]
        },
        {
          "long_name": "Hong Kong",
          "short_name": "HK",
          "types": [
            "country",
            "political"
          ]
        }
      ],
      "formatted_address": "21 Lock Rd, Tsim Sha Tsui, Hong Kong",
      "geometry": {
        "location": {
          "lat": 22.2973739,
          "lng": 114.1714812
        },
        "location_type": "ROOFTOP",
        "viewport": {
          "northeast": {
            "lat": 22.2987228802915,
            "lng": 114.1728301802915
          },
          "southwest": {
            "lat": 22.2960249197085,
            "lng": 114.1701322197085
          }
        }
      },
      "partial_match": true,
      "place_id": "ChIJDVibd_IABDQRo47PXA7kmQI",
      "plus_code": {
        "compound_code": "75WC+WH Hong Kong",
        "global_code": "7PJP75WC+WH"
      },
      "types": [
        "establishment",
        "food",
        "point_of_interest",
        "restaurant"
      ]
    },
    {
      "address_components": [
        {
          "long_name": "Long Wah Building",
          "short_name": "Long Wah Building",
          "types": [
            "premise"
          ]
        },
        {
          "long_name": "21-21A",
          "short_name": "21-21A",
          "types": [
            "street_number"
          ]
        },
        {
          "long_name": "Lock Road",
          "short_name": "Lock Rd",
          "types": [
            "route"
          ]
        },
        {
          "long_name": "Tsim Sha Tsui",
          "short_name": "Tsim Sha Tsui",
          "types": [
            "neighborhood",
            "political"
          ]
        },
        {
          "long_name": "Kowloon",
          "short_name": "Kowloon",
          "types": [
            "administrative_area_level_1",
            "political"
          ]
        },
        {
          "long_name": "Hong Kong",
          "short_name": "HK",
          "types": [
            "country",
            "political"
          ]
        }
      ],
      "formatted_address": "Long Wah Building, 21-21A Lock Rd, Tsim Sha Tsui, Hong Kong",
      "geometry": {
        "bounds": {
          "northeast": {
            "lat": 22.297605,
            "lng": 114.1714729
          },
          "southwest": {
            "lat": 22.297371,
            "lng": 114.171359
          }
        },
        "location": {
          "lat": 22.2974725,
          "lng": 114.1714083
        },
        "location_type": "ROOFTOP",
        "viewport": {
          "northeast": {
            "lat": 22.2988369802915,
            "lng": 114.1727649302915
          },
          "southwest": {
            "lat": 22.29613901970849,
            "lng": 114.1700669697085
          }
        }
      },
      "partial_match": true,
      "place_id": "ChIJQ8IcePIABDQR4BSYSKHaBOI",
      "types": [
        "premise"
      ]
    }
  ],
  "geocode_tc": [
    {
      "address_components": [
        {
          "long_name": "\u9f8d\u83ef\u5927\u5ec8",
          "short_name": "\u9f8d\u83ef\u5927\u5ec8",
          "types": [
            "premise"
          ]
        },
        {
          "long_name": "21-21A",
          "short_name": "21-21A",
          "types": [
            "street_number"
          ]
        },
        {
          "long_name": "\u6a02\u9053",
          "short_name": "\u6a02\u9053",
          "types": [
            "route"
          ]
        },
        {
          "long_name": "\u5c16\u6c99\u5480",
          "short_name": "\u5c16\u6c99\u5480",
          "types": [
            "neighborhood",
            "political"
          ]
        },
        {
          "long_name": "\u4e5d\u9f8d",
          "short_name": "\u4e5d\u9f8d",
          "types": [
            "administrative_area_level_1",
            "political"
          ]
        },
        {
          "long_name": "\u9999\u6e2f",
          "short_name": "HK",
          "types": [
            "country",
            "political"
          ]
        }
      ],
      "formatted_address": "\u9999\u6e2f\u5c16\u6c99\u5480\u6a02\u905321-21A\u865f\u9f8d\u83ef\u5927\u5ec8",
      "geometry": {
        "bounds": {
          "northeast": {
            "lat": 22.297605,
            "lng": 114.1714729
          },
          "southwest": {
            "lat": 22.297371,
            "lng": 114.171359
          }
        },
        "location": {
          "lat": 22.2974725,
          "lng": 114.1714083
        },
        "location_type": "ROOFTOP",
        "viewport": {
          "northeast": {
            "lat": 22.2988369802915,
            "lng": 114.1727649302915
          },
          "southwest": {
            "lat": 22.29613901970849,
            "lng": 114.1700669697085
          }
        }
      },
      "partial_match": true,
      "place_id": "ChIJQ8IcePIABDQR4BSYSKHaBOI",
      "types": [
        "premise"
      ]
    }
  ],
  "licno": "2261816343",
  "timestamp": 1564968756,
  "version": "1564966095"
}
