{
  "adr_en": "\u8eca\u5398\u9910\u5ef3, SHOP NO.3, G/F, ROCKSON MANSION, 25-35 WATER STREET, WESTERN, HONG KONG",
  "adr_tc": "\u9999\u6e2f\u6c34\u885725-35\u865f\u6a02\u65b0\u5927\u5ec8\u5730\u4e0b3\u865f\u8216 \u8eca\u5398\u9910\u5ef3",
  "geocode_en": [
    {
      "address_components": [
        {
          "long_name": "Hong Kong",
          "short_name": "HK",
          "types": [
            "country",
            "political"
          ]
        }
      ],
      "formatted_address": "Shop 2, G/F, Rockson Mansion, No.25-35 Water Street, Western District, Hong Kong",
      "geometry": {
        "location": {
          "lat": 22.2854605,
          "lng": 114.1390235
        },
        "location_type": "GEOMETRIC_CENTER",
        "viewport": {
          "northeast": {
            "lat": 22.2868094802915,
            "lng": 114.1403724802915
          },
          "southwest": {
            "lat": 22.2841115197085,
            "lng": 114.1376745197085
          }
        }
      },
      "place_id": "ChIJjfnDs4b_AzQRv5VixxX2XGE",
      "plus_code": {
        "compound_code": "74PQ+5J Hong Kong",
        "global_code": "7PJP74PQ+5J"
      },
      "types": [
        "establishment",
        "food",
        "point_of_interest",
        "restaurant"
      ]
    }
  ],
  "geocode_tc": [
    {
      "address_components": [
        {
          "long_name": "25-35",
          "short_name": "25-35",
          "types": [
            "street_number"
          ]
        },
        {
          "long_name": "\u6c34\u8857",
          "short_name": "\u6c34\u8857",
          "types": [
            "route"
          ]
        },
        {
          "long_name": "\u897f\u71df\u76e4",
          "short_name": "\u897f\u71df\u76e4",
          "types": [
            "neighborhood",
            "political"
          ]
        },
        {
          "long_name": "\u9999\u6e2f",
          "short_name": "HK",
          "types": [
            "country",
            "political"
          ]
        }
      ],
      "formatted_address": "\u9999\u6e2f\u897f\u71df\u76e4\u6c34\u885725-35\u865f3 \u865f \u8216",
      "geometry": {
        "location": {
          "lat": 22.2854849,
          "lng": 114.1390193
        },
        "location_type": "ROOFTOP",
        "viewport": {
          "northeast": {
            "lat": 22.2868338802915,
            "lng": 114.1403682802915
          },
          "southwest": {
            "lat": 22.2841359197085,
            "lng": 114.1376703197085
          }
        }
      },
      "place_id": "ChIJUftvsYb_AzQRYHi2a2TYikQ",
      "plus_code": {
        "compound_code": "74PQ+5J \u9999\u6e2f\u897f\u71df\u76e4",
        "global_code": "7PJP74PQ+5J"
      },
      "types": [
        "establishment",
        "food",
        "point_of_interest",
        "restaurant",
        "store"
      ]
    }
  ],
  "licno": "2214174106",
  "timestamp": 1564968756,
  "version": "1564966095"
}
