{
  "adr_en": "Tai Hing, SHOP 16 & 17A, LEVEL 1, SOUTH WING, TREND PLAZA SHOPPING ARCADE, 2 TUEN LUNG STREET, TUEN MUN, NEW TERRITORIES",
  "adr_tc": "\u65b0\u754c\u5c6f\u9580\u5c6f\u9686\u88572\u865f\u6642\u4ee3\u5ee3\u5834\u5357\u7ffc\u7b2c\u4e00\u5c6416\u53ca17\u865fA\u92ea \u592a\u8208",
  "geocode_en": [
    {
      "address_components": [
        {
          "long_name": "Trend Plaza South Wing",
          "short_name": "Trend Plaza South Wing",
          "types": [
            "premise"
          ]
        },
        {
          "long_name": "2",
          "short_name": "2",
          "types": [
            "street_number"
          ]
        },
        {
          "long_name": "Tuen Hop Street",
          "short_name": "Tuen Hop St",
          "types": [
            "route"
          ]
        },
        {
          "long_name": "Tuen Mun",
          "short_name": "Tuen Mun",
          "types": [
            "neighborhood",
            "political"
          ]
        },
        {
          "long_name": "New Territories",
          "short_name": "New Territories",
          "types": [
            "administrative_area_level_1",
            "political"
          ]
        },
        {
          "long_name": "Hong Kong",
          "short_name": "HK",
          "types": [
            "country",
            "political"
          ]
        }
      ],
      "formatted_address": "Trend Plaza South Wing, 2 Tuen Hop St, Tuen Mun, Hong Kong",
      "geometry": {
        "bounds": {
          "northeast": {
            "lat": 22.392623,
            "lng": 113.9763128
          },
          "southwest": {
            "lat": 22.3919372,
            "lng": 113.9754185
          }
        },
        "location": {
          "lat": 22.3922083,
          "lng": 113.9758571
        },
        "location_type": "ROOFTOP",
        "viewport": {
          "northeast": {
            "lat": 22.3936290802915,
            "lng": 113.9772146302915
          },
          "southwest": {
            "lat": 22.3909311197085,
            "lng": 113.9745166697085
          }
        }
      },
      "partial_match": true,
      "place_id": "ChIJdVLIoT37AzQRYTRVvlGYSbs",
      "types": [
        "premise"
      ]
    },
    {
      "address_components": [
        {
          "long_name": "Trend Plaza North Wing",
          "short_name": "Trend Plaza North Wing",
          "types": [
            "premise"
          ]
        },
        {
          "long_name": "2",
          "short_name": "2",
          "types": [
            "street_number"
          ]
        },
        {
          "long_name": "Tuen Lung Street",
          "short_name": "Tuen Lung St",
          "types": [
            "route"
          ]
        },
        {
          "long_name": "Tuen Mun",
          "short_name": "Tuen Mun",
          "types": [
            "neighborhood",
            "political"
          ]
        },
        {
          "long_name": "New Territories",
          "short_name": "New Territories",
          "types": [
            "administrative_area_level_1",
            "political"
          ]
        },
        {
          "long_name": "Hong Kong",
          "short_name": "HK",
          "types": [
            "country",
            "political"
          ]
        }
      ],
      "formatted_address": "Trend Plaza North Wing, 2 Tuen Lung St, Tuen Mun, Hong Kong",
      "geometry": {
        "bounds": {
          "northeast": {
            "lat": 22.3935054,
            "lng": 113.9761155
          },
          "southwest": {
            "lat": 22.3927674,
            "lng": 113.9753033
          }
        },
        "location": {
          "lat": 22.3931103,
          "lng": 113.9756713
        },
        "location_type": "ROOFTOP",
        "viewport": {
          "northeast": {
            "lat": 22.3944853802915,
            "lng": 113.9770583802915
          },
          "southwest": {
            "lat": 22.3917874197085,
            "lng": 113.9743604197085
          }
        }
      },
      "partial_match": true,
      "place_id": "ChIJ-1ITDD37AzQR7Pwf538XCAo",
      "types": [
        "premise"
      ]
    }
  ],
  "geocode_tc": [
    {
      "address_components": [
        {
          "long_name": "16,17A",
          "short_name": "16,17A",
          "types": [
            "subpremise"
          ]
        },
        {
          "long_name": "2",
          "short_name": "2",
          "types": [
            "street_number"
          ]
        },
        {
          "long_name": "\u5c6f\u5408\u8857",
          "short_name": "\u5c6f\u5408\u8857",
          "types": [
            "route"
          ]
        },
        {
          "long_name": "\u5c6f\u9580",
          "short_name": "\u5c6f\u9580",
          "types": [
            "neighborhood",
            "political"
          ]
        },
        {
          "long_name": "\u65b0\u754c",
          "short_name": "\u65b0\u754c",
          "types": [
            "administrative_area_level_1",
            "political"
          ]
        },
        {
          "long_name": "\u9999\u6e2f",
          "short_name": "HK",
          "types": [
            "country",
            "political"
          ]
        }
      ],
      "formatted_address": "\u9999\u6e2f\u5c6f\u9580\u5c6f\u5408\u88572\u865f16,17A",
      "geometry": {
        "location": {
          "lat": 22.3921943,
          "lng": 113.9761731
        },
        "location_type": "ROOFTOP",
        "viewport": {
          "northeast": {
            "lat": 22.3935432802915,
            "lng": 113.9775220802915
          },
          "southwest": {
            "lat": 22.3908453197085,
            "lng": 113.9748241197085
          }
        }
      },
      "place_id": "ChIJO8S-DT37AzQRLGuNC0-GQHc",
      "plus_code": {
        "compound_code": "9XRG+VF \u9999\u6e2f",
        "global_code": "7PJM9XRG+VF"
      },
      "types": [
        "establishment",
        "food",
        "point_of_interest",
        "restaurant"
      ]
    }
  ],
  "licno": "2293801809",
  "timestamp": 1564968756,
  "version": "1564966095"
}
