{
  "adr_en": "Oedo, SHOP B10, BASEMENT, ISLAND PLACE, 500 KING'S ROAD, NORTH POINT, HONG KONG",
  "adr_tc": "\u9999\u6e2f\u5317\u89d2 \u82f1\u7687\u9053500\u865f \u6e2f\u904b\u57ce\u5730\u5eabB10\u865f\u92ea \u5927\u6c5f\u6236\u65e5\u672c\u6599\u7406",
  "geocode_en": [
    {
      "address_components": [
        {
          "long_name": "Hong Kong",
          "short_name": "HK",
          "types": [
            "country",
            "political"
          ]
        }
      ],
      "formatted_address": "Shop B10, B/F, Island Place, 500 King's Road, North Point, Hong Kong",
      "geometry": {
        "location": {
          "lat": 22.290918,
          "lng": 114.202352
        },
        "location_type": "GEOMETRIC_CENTER",
        "viewport": {
          "northeast": {
            "lat": 22.2922669802915,
            "lng": 114.2037009802915
          },
          "southwest": {
            "lat": 22.28956901970849,
            "lng": 114.2010030197085
          }
        }
      },
      "place_id": "ChIJpe20bgUBBDQRIcxyXHNszz4",
      "plus_code": {
        "compound_code": "76R2+9W Hong Kong",
        "global_code": "7PJP76R2+9W"
      },
      "types": [
        "establishment",
        "food",
        "point_of_interest",
        "restaurant"
      ]
    }
  ],
  "geocode_tc": [
    {
      "address_components": [
        {
          "long_name": "51-61\u865f",
          "short_name": "51-61\u865f",
          "types": [
            "street_number"
          ]
        },
        {
          "long_name": "\u4e39\u62ff\u9053",
          "short_name": "\u4e39\u62ff\u9053",
          "types": [
            "route"
          ]
        },
        {
          "long_name": "\u5317\u89d2",
          "short_name": "\u5317\u89d2",
          "types": [
            "neighborhood",
            "political"
          ]
        },
        {
          "long_name": "\u9999\u6e2f",
          "short_name": "HK",
          "types": [
            "country",
            "political"
          ]
        }
      ],
      "formatted_address": "\u9999\u6e2f\u5317\u89d2\u4e39\u62ff\u905351-61\u865f\u6e2f\u904b\u57ce\u5730\u5eabB10\u865f\u8216",
      "geometry": {
        "location": {
          "lat": 22.2912301,
          "lng": 114.2026569
        },
        "location_type": "ROOFTOP",
        "viewport": {
          "northeast": {
            "lat": 22.2925790802915,
            "lng": 114.2040058802915
          },
          "southwest": {
            "lat": 22.2898811197085,
            "lng": 114.2013079197085
          }
        }
      },
      "place_id": "ChIJpe20bgUBBDQR_LvmXWaWf_A",
      "plus_code": {
        "compound_code": "76R3+F3 \u9999\u6e2f\u5317\u89d2",
        "global_code": "7PJP76R3+F3"
      },
      "types": [
        "establishment",
        "food",
        "point_of_interest",
        "restaurant"
      ]
    }
  ],
  "licno": "2211144263",
  "timestamp": 1564966180,
  "version": "1564966095"
}
