{
  "adr_en": "Wing Hing Restaurant, G/F., SHOP G26-28 (MAJOR PORTION), METRO CITY, PHASE II, TSEUNG KWAN O, SAI KUNG, NEW TERRITORIES",
  "adr_tc": "\u65b0\u754c\u897f\u8ca2 \u5c07\u8ecd\u6fb3\u65b0\u90fd\u57ce\u4e8c\u671f\u5546\u5834 \u5730\u4e0bG26-28\u865f\u92ea(\u4e3b\u8981\u90e8\u4efd) \u6c38\u8208\u8336\u9910\u5ef3",
  "geocode_en": [
    {
      "address_components": [
        {
          "long_name": "8",
          "short_name": "8",
          "types": [
            "street_number"
          ]
        },
        {
          "long_name": "Yan King Road",
          "short_name": "Yan King Rd",
          "types": [
            "route"
          ]
        },
        {
          "long_name": "Yau Yue Wan",
          "short_name": "Yau Yue Wan",
          "types": [
            "neighborhood",
            "political"
          ]
        },
        {
          "long_name": "New Territories",
          "short_name": "New Territories",
          "types": [
            "administrative_area_level_1",
            "political"
          ]
        },
        {
          "long_name": "Hong Kong",
          "short_name": "HK",
          "types": [
            "country",
            "political"
          ]
        }
      ],
      "formatted_address": "8 Yan King Rd, Yau Yue Wan, Hong Kong",
      "geometry": {
        "location": {
          "lat": 22.3231863,
          "lng": 114.2577924
        },
        "location_type": "ROOFTOP",
        "viewport": {
          "northeast": {
            "lat": 22.3245352802915,
            "lng": 114.2591413802915
          },
          "southwest": {
            "lat": 22.3218373197085,
            "lng": 114.2564434197085
          }
        }
      },
      "partial_match": true,
      "place_id": "ChIJTyMjCQwEBDQRUVXfKhXaR28",
      "plus_code": {
        "compound_code": "87F5+74 Hong Kong",
        "global_code": "7PJP87F5+74"
      },
      "types": [
        "establishment",
        "point_of_interest"
      ]
    },
    {
      "address_components": [
        {
          "long_name": "Tseung Kwan O",
          "short_name": "Tseung Kwan O",
          "types": [
            "neighborhood",
            "political"
          ]
        },
        {
          "long_name": "New Territories",
          "short_name": "New Territories",
          "types": [
            "administrative_area_level_1",
            "political"
          ]
        },
        {
          "long_name": "Hong Kong",
          "short_name": "HK",
          "types": [
            "country",
            "political"
          ]
        }
      ],
      "formatted_address": "Tseung Kwan O, Hong Kong",
      "geometry": {
        "bounds": {
          "northeast": {
            "lat": 22.3147112,
            "lng": 114.2654406
          },
          "southwest": {
            "lat": 22.3005346,
            "lng": 114.255294
          }
        },
        "location": {
          "lat": 22.3119357,
          "lng": 114.2568776
        },
        "location_type": "APPROXIMATE",
        "viewport": {
          "northeast": {
            "lat": 22.3147112,
            "lng": 114.2654406
          },
          "southwest": {
            "lat": 22.3005346,
            "lng": 114.255294
          }
        }
      },
      "partial_match": true,
      "place_id": "ChIJQclRg-kDBDQRcCbTSL7_7M0",
      "types": [
        "neighborhood",
        "political"
      ]
    }
  ],
  "geocode_tc": [
    {
      "address_components": [
        {
          "long_name": "\u9999\u6e2f",
          "short_name": "HK",
          "types": [
            "country",
            "political"
          ]
        }
      ],
      "formatted_address": "\u9999\u6e2f\u5c07\u8ecd\u6fb3\u8cbf\u696d\u8def8\u865f\u65b0\u90fd\u57ce\u4e2d\u5fc3\u4e8c\u671f\u5730\u4e0bG26-G28\u865f\u8216",
      "geometry": {
        "location": {
          "lat": 22.3231396,
          "lng": 114.2586723
        },
        "location_type": "GEOMETRIC_CENTER",
        "viewport": {
          "northeast": {
            "lat": 22.3244885802915,
            "lng": 114.2600212802915
          },
          "southwest": {
            "lat": 22.3217906197085,
            "lng": 114.2573233197085
          }
        }
      },
      "place_id": "ChIJT2SmCQwEBDQR5aN0aypU4FY",
      "plus_code": {
        "compound_code": "87F5+7F \u9999\u6e2f",
        "global_code": "7PJP87F5+7F"
      },
      "types": [
        "establishment",
        "food",
        "point_of_interest",
        "restaurant"
      ]
    }
  ],
  "licno": "2298001662",
  "timestamp": 1564975666,
  "version": "1564966095"
}
