{
  "adr_en": "\u9999\u8fa3\u98a8, SHOP M, G/F, WING FAT BUILDING, 12-42 MA MIU ROAD, YUEN LONG, NEW TERRITORIES",
  "adr_tc": "\u65b0\u754c\u5143\u6717\u5abd\u5edf\u8def12-42\u865f\u6c38\u767c\u5927\u5ec8\u5730\u4e0bM\u92ea \u9999\u8fa3\u98a8",
  "geocode_en": [
    {
      "address_components": [
        {
          "long_name": "Hong Kong",
          "short_name": "HK",
          "types": [
            "country",
            "political"
          ]
        }
      ],
      "formatted_address": "Hong Kong, \u5143\u6717\u5abd\u5edf\u8def12-42\u865f\u6c38\u767c\u5927\u5ec8\u5730\u4e0bM\u8216",
      "geometry": {
        "location": {
          "lat": 22.4461845,
          "lng": 114.021644
        },
        "location_type": "GEOMETRIC_CENTER",
        "viewport": {
          "northeast": {
            "lat": 22.4475334802915,
            "lng": 114.0229929802915
          },
          "southwest": {
            "lat": 22.4448355197085,
            "lng": 114.0202950197085
          }
        }
      },
      "partial_match": true,
      "place_id": "ChIJp_sfUp7wAzQRvvvXA9__fZY",
      "plus_code": {
        "compound_code": "C2WC+FM Hong Kong",
        "global_code": "7PJPC2WC+FM"
      },
      "types": [
        "establishment",
        "food",
        "point_of_interest",
        "restaurant"
      ]
    },
    {
      "address_components": [
        {
          "long_name": "Wing Fat House",
          "short_name": "Wing Fat House",
          "types": [
            "premise"
          ]
        },
        {
          "long_name": "12-42",
          "short_name": "12-42",
          "types": [
            "street_number"
          ]
        },
        {
          "long_name": "Ma Miu Road",
          "short_name": "Ma Miu Rd",
          "types": [
            "route"
          ]
        },
        {
          "long_name": "Yuen Long",
          "short_name": "Yuen Long",
          "types": [
            "neighborhood",
            "political"
          ]
        },
        {
          "long_name": "New Territories",
          "short_name": "New Territories",
          "types": [
            "administrative_area_level_1",
            "political"
          ]
        },
        {
          "long_name": "Hong Kong",
          "short_name": "HK",
          "types": [
            "country",
            "political"
          ]
        }
      ],
      "formatted_address": "Wing Fat House, 12-42 Ma Miu Rd, Yuen Long, Hong Kong",
      "geometry": {
        "bounds": {
          "northeast": {
            "lat": 22.446617,
            "lng": 114.0218009
          },
          "southwest": {
            "lat": 22.446076,
            "lng": 114.021388
          }
        },
        "location": {
          "lat": 22.4464405,
          "lng": 114.0215295
        },
        "location_type": "ROOFTOP",
        "viewport": {
          "northeast": {
            "lat": 22.4476954802915,
            "lng": 114.0229434302915
          },
          "southwest": {
            "lat": 22.4449975197085,
            "lng": 114.0202454697085
          }
        }
      },
      "partial_match": true,
      "place_id": "ChIJZ7xIUZ7wAzQRzjKi12H6U0U",
      "types": [
        "premise"
      ]
    }
  ],
  "geocode_tc": [
    {
      "address_components": [
        {
          "long_name": "\u9999\u6e2f",
          "short_name": "HK",
          "types": [
            "country",
            "political"
          ]
        }
      ],
      "formatted_address": "\u9999\u6e2f\u5143\u6717\u5abd\u5edf\u8def12-42\u865f\u6c38\u767c\u5927\u5ec8\u5730\u4e0bM\u8216",
      "geometry": {
        "location": {
          "lat": 22.4461845,
          "lng": 114.021644
        },
        "location_type": "GEOMETRIC_CENTER",
        "viewport": {
          "northeast": {
            "lat": 22.4475334802915,
            "lng": 114.0229929802915
          },
          "southwest": {
            "lat": 22.4448355197085,
            "lng": 114.0202950197085
          }
        }
      },
      "place_id": "ChIJp_sfUp7wAzQRvvvXA9__fZY",
      "plus_code": {
        "compound_code": "C2WC+FM \u9999\u6e2f",
        "global_code": "7PJPC2WC+FM"
      },
      "types": [
        "establishment",
        "food",
        "point_of_interest",
        "restaurant"
      ]
    }
  ],
  "licno": "2294801541",
  "timestamp": 1564975666,
  "version": "1564966095"
}
