{
  "adr_en": "\u6c39\u4ed4, G/F, DD 104, LOT 2237&2238, HA SUN WAI VILLAGE, FAIRVIEW PARK ROAD SOUTH, YUEN LONG, NEW TERRITORIES",
  "adr_tc": "\u65b0\u754c\u5143\u6717\u4e08\u91cf\u7d04\u4efd\u7b2c104\u7d04\u5730\u6bb5\u7b2c2237\u53ca2238\u865f \u9326\u7d89\u5927\u9053\u5357\u4e0b\u65b0\u570d\u6751\u5730\u4e0b \u6c39\u4ed4",
  "geocode_en": [
    {
      "address_components": [
        {
          "long_name": "Taipa",
          "short_name": "Taipa",
          "types": [
            "establishment",
            "natural_feature",
            "political"
          ]
        },
        {
          "long_name": "Macao",
          "short_name": "MO",
          "types": [
            "country",
            "political"
          ]
        }
      ],
      "formatted_address": "Taipa, Macao",
      "geometry": {
        "bounds": {
          "northeast": {
            "lat": 22.1709929,
            "lng": 113.5981886
          },
          "southwest": {
            "lat": 22.1340353,
            "lng": 113.5389027
          }
        },
        "location": {
          "lat": 22.1596848,
          "lng": 113.563922
        },
        "location_type": "APPROXIMATE",
        "viewport": {
          "northeast": {
            "lat": 22.1709929,
            "lng": 113.5981886
          },
          "southwest": {
            "lat": 22.1340353,
            "lng": 113.5389027
          }
        }
      },
      "partial_match": true,
      "place_id": "ChIJx_YGI7fXbTQRqpa55JQHMEM",
      "types": [
        "establishment",
        "natural_feature",
        "political"
      ]
    },
    {
      "address_components": [
        {
          "long_name": "Hong Kong",
          "short_name": "HK",
          "types": [
            "country",
            "political"
          ]
        }
      ],
      "formatted_address": "3/F, Block C, Hong Kong Buddhist Hospital, 10 Heng Lam Street, Lok Fu, Hong Kong, Hong Kong",
      "geometry": {
        "location": {
          "lat": 22.335561,
          "lng": 114.188716
        },
        "location_type": "GEOMETRIC_CENTER",
        "viewport": {
          "northeast": {
            "lat": 22.3369099802915,
            "lng": 114.1900649802915
          },
          "southwest": {
            "lat": 22.3342120197085,
            "lng": 114.1873670197085
          }
        }
      },
      "partial_match": true,
      "place_id": "ChIJD6QnoSkHBDQRQhddfdGyjw4",
      "plus_code": {
        "compound_code": "85PQ+6F Hong Kong",
        "global_code": "7PJP85PQ+6F"
      },
      "types": [
        "establishment",
        "point_of_interest"
      ]
    },
    {
      "address_components": [
        {
          "long_name": "Fairview Park Road South",
          "short_name": "Fairview Park Rd S",
          "types": [
            "route"
          ]
        },
        {
          "long_name": "Fairview Park",
          "short_name": "Fairview Park",
          "types": [
            "neighborhood",
            "political"
          ]
        },
        {
          "long_name": "New Territories",
          "short_name": "New Territories",
          "types": [
            "administrative_area_level_1",
            "political"
          ]
        },
        {
          "long_name": "Hong Kong",
          "short_name": "HK",
          "types": [
            "country",
            "political"
          ]
        }
      ],
      "formatted_address": "Fairview Park Rd S, Fairview Park, Hong Kong",
      "geometry": {
        "bounds": {
          "northeast": {
            "lat": 22.4767801,
            "lng": 114.0499157
          },
          "southwest": {
            "lat": 22.4733411,
            "lng": 114.0435975
          }
        },
        "location": {
          "lat": 22.47489,
          "lng": 114.047202
        },
        "location_type": "GEOMETRIC_CENTER",
        "viewport": {
          "northeast": {
            "lat": 22.4767801,
            "lng": 114.0499157
          },
          "southwest": {
            "lat": 22.4733411,
            "lng": 114.0435975
          }
        }
      },
      "partial_match": true,
      "place_id": "ChIJxQoN69LwAzQRtyN13GU6dJE",
      "types": [
        "route"
      ]
    }
  ],
  "geocode_tc": [
    {
      "address_components": [
        {
          "long_name": "\u9326\u7d89\u82b1\u5712\u5927\u9053",
          "short_name": "\u9326\u7d89\u82b1\u5712\u5927\u9053",
          "types": [
            "route"
          ]
        },
        {
          "long_name": "\u65b0\u754c",
          "short_name": "\u65b0\u754c",
          "types": [
            "administrative_area_level_1",
            "political"
          ]
        },
        {
          "long_name": "\u9999\u6e2f",
          "short_name": "HK",
          "types": [
            "country",
            "political"
          ]
        }
      ],
      "formatted_address": "\u9999\u6e2f\u9326\u7d89\u82b1\u5712\u5927\u9053",
      "geometry": {
        "bounds": {
          "northeast": {
            "lat": 22.4737487,
            "lng": 114.0547937
          },
          "southwest": {
            "lat": 22.4708344,
            "lng": 114.049544
          }
        },
        "location": {
          "lat": 22.4722097,
          "lng": 114.0524123
        },
        "location_type": "GEOMETRIC_CENTER",
        "viewport": {
          "northeast": {
            "lat": 22.4737487,
            "lng": 114.0547937
          },
          "southwest": {
            "lat": 22.4708344,
            "lng": 114.049544
          }
        }
      },
      "partial_match": true,
      "place_id": "ChIJCZercDL3AzQR48Deag-RXq0",
      "types": [
        "route"
      ]
    },
    {
      "address_components": [
        {
          "long_name": "\u6c39\u4ed4",
          "short_name": "\u6c39\u4ed4",
          "types": [
            "establishment",
            "natural_feature",
            "political"
          ]
        },
        {
          "long_name": "\u6fb3\u9580",
          "short_name": "MO",
          "types": [
            "country",
            "political"
          ]
        }
      ],
      "formatted_address": "\u6fb3\u9580\u6c39\u4ed4",
      "geometry": {
        "bounds": {
          "northeast": {
            "lat": 22.1709929,
            "lng": 113.5981886
          },
          "southwest": {
            "lat": 22.1340353,
            "lng": 113.5389027
          }
        },
        "location": {
          "lat": 22.1596848,
          "lng": 113.563922
        },
        "location_type": "APPROXIMATE",
        "viewport": {
          "northeast": {
            "lat": 22.1709929,
            "lng": 113.5981886
          },
          "southwest": {
            "lat": 22.1340353,
            "lng": 113.5389027
          }
        }
      },
      "partial_match": true,
      "place_id": "ChIJx_YGI7fXbTQRqpa55JQHMEM",
      "types": [
        "establishment",
        "natural_feature",
        "political"
      ]
    }
  ],
  "licno": "2294808205",
  "timestamp": 1564975666,
  "version": "1564966095"
}
