{
  "adr_en": "W. WELCOME RESTAURANT, MAJOR PORTION OF SHOP NOS. 1 & 2, G/F., CATHAY MANSION, 3-17A TUNG LO WAN ROAD, CAUSEWAY BAY, HONG KONG",
  "adr_tc": "\u9999\u6e2f\u9285\u947c\u7063\u9285\u947c\u7063\u90533\u81f317A\u865f\u570b\u6cf0\u5927\u5ec8\u5730\u4e0b 1\u53ca2\u865f\u92ea\u4e3b\u8981\u90e8\u5206 \u79ae\u8cd3\u95a3\u9910\u5ef3",
  "geocode_en": [
    {
      "address_components": [
        {
          "long_name": "17",
          "short_name": "17",
          "types": [
            "street_number"
          ]
        },
        {
          "long_name": "Tung Lo Wan Road",
          "short_name": "Tung Lo Wan Rd",
          "types": [
            "route"
          ]
        },
        {
          "long_name": "Causeway Bay",
          "short_name": "Causeway Bay",
          "types": [
            "neighborhood",
            "political"
          ]
        },
        {
          "long_name": "Hong Kong",
          "short_name": "HK",
          "types": [
            "country",
            "political"
          ]
        }
      ],
      "formatted_address": "Hong Kong, Causeway Bay, Tung Lo Wan Rd, 17\u865f11",
      "geometry": {
        "location": {
          "lat": 22.2789179,
          "lng": 114.1881911
        },
        "location_type": "ROOFTOP",
        "viewport": {
          "northeast": {
            "lat": 22.2802668802915,
            "lng": 114.1895400802915
          },
          "southwest": {
            "lat": 22.2775689197085,
            "lng": 114.1868421197085
          }
        }
      },
      "partial_match": true,
      "place_id": "ChIJy5lcY1QABDQRhma1WhH3sOs",
      "plus_code": {
        "compound_code": "75HQ+H7 Hong Kong",
        "global_code": "7PJP75HQ+H7"
      },
      "types": [
        "establishment",
        "food",
        "point_of_interest",
        "restaurant"
      ]
    },
    {
      "address_components": [
        {
          "long_name": "Cathay Mansion",
          "short_name": "Cathay Mansion",
          "types": [
            "premise"
          ]
        },
        {
          "long_name": "3-17",
          "short_name": "3-17",
          "types": [
            "street_number"
          ]
        },
        {
          "long_name": "Tung Lo Wan Road",
          "short_name": "Tung Lo Wan Rd",
          "types": [
            "route"
          ]
        },
        {
          "long_name": "Causeway Bay",
          "short_name": "Causeway Bay",
          "types": [
            "neighborhood",
            "political"
          ]
        },
        {
          "long_name": "Hong Kong Island",
          "short_name": "Hong Kong Island",
          "types": [
            "administrative_area_level_1",
            "political"
          ]
        },
        {
          "long_name": "Hong Kong",
          "short_name": "HK",
          "types": [
            "country",
            "political"
          ]
        }
      ],
      "formatted_address": "Cathay Mansion, 3-17 Tung Lo Wan Rd, Causeway Bay, Hong Kong",
      "geometry": {
        "bounds": {
          "northeast": {
            "lat": 22.2792691,
            "lng": 114.1882199
          },
          "southwest": {
            "lat": 22.279022,
            "lng": 114.187922
          }
        },
        "location": {
          "lat": 22.2791688,
          "lng": 114.1881048
        },
        "location_type": "ROOFTOP",
        "viewport": {
          "northeast": {
            "lat": 22.2804945302915,
            "lng": 114.1894199302915
          },
          "southwest": {
            "lat": 22.2777965697085,
            "lng": 114.1867219697085
          }
        }
      },
      "partial_match": true,
      "place_id": "ChIJdUwUZFQABDQRlJjNCYs6t2I",
      "types": [
        "premise"
      ]
    }
  ],
  "geocode_tc": [
    {
      "address_components": [
        {
          "long_name": "\u865f\u92ea",
          "short_name": "\u865f\u92ea",
          "types": [
            "subpremise"
          ]
        },
        {
          "long_name": "\u570b\u6cf0\u5927\u5ec8",
          "short_name": "\u570b\u6cf0\u5927\u5ec8",
          "types": [
            "premise"
          ]
        },
        {
          "long_name": "3-17",
          "short_name": "3-17",
          "types": [
            "street_number"
          ]
        },
        {
          "long_name": "\u9285\u947c\u7063\u9053",
          "short_name": "\u9285\u947c\u7063\u9053",
          "types": [
            "route"
          ]
        },
        {
          "long_name": "\u9285\u947c\u7063",
          "short_name": "\u9285\u947c\u7063",
          "types": [
            "neighborhood",
            "political"
          ]
        },
        {
          "long_name": "\u9999\u6e2f\u5cf6",
          "short_name": "\u9999\u6e2f\u5cf6",
          "types": [
            "administrative_area_level_1",
            "political"
          ]
        },
        {
          "long_name": "\u9999\u6e2f",
          "short_name": "HK",
          "types": [
            "country",
            "political"
          ]
        }
      ],
      "formatted_address": "\u9999\u6e2f\u9285\u947c\u7063\u9285\u947c\u7063\u90533-17\u865f\u570b\u6cf0\u5927\u5ec8\u865f\u92ea",
      "geometry": {
        "bounds": {
          "northeast": {
            "lat": 22.2792691,
            "lng": 114.1882199
          },
          "southwest": {
            "lat": 22.279022,
            "lng": 114.187922
          }
        },
        "location": {
          "lat": 22.2791688,
          "lng": 114.1881048
        },
        "location_type": "ROOFTOP",
        "viewport": {
          "northeast": {
            "lat": 22.2804945302915,
            "lng": 114.1894199302915
          },
          "southwest": {
            "lat": 22.2777965697085,
            "lng": 114.1867219697085
          }
        }
      },
      "partial_match": true,
      "place_id": "EkTomZ_pi6osIENhdGhheSBNYW5zaW9uLCAzLTE3IFR1bmcgTG8gV2FuIFJkLCBDYXVzZXdheSBCYXksIEhvbmcgS29uZyIiGiAKFgoUChIJdUwUZFQABDQRlJjNCYs6t2ISBuiZn-mLqg",
      "types": [
        "subpremise"
      ]
    },
    {
      "address_components": [
        {
          "long_name": "17",
          "short_name": "17",
          "types": [
            "street_number"
          ]
        },
        {
          "long_name": "\u9285\u947c\u7063\u9053",
          "short_name": "\u9285\u947c\u7063\u9053",
          "types": [
            "route"
          ]
        },
        {
          "long_name": "\u9285\u947c\u7063",
          "short_name": "\u9285\u947c\u7063",
          "types": [
            "neighborhood",
            "political"
          ]
        },
        {
          "long_name": "\u9999\u6e2f",
          "short_name": "HK",
          "types": [
            "country",
            "political"
          ]
        }
      ],
      "formatted_address": "\u9999\u6e2f\u9285\u947c\u7063\u9285\u947c\u7063\u905317\u865f11",
      "geometry": {
        "location": {
          "lat": 22.2789179,
          "lng": 114.1881911
        },
        "location_type": "ROOFTOP",
        "viewport": {
          "northeast": {
            "lat": 22.2802668802915,
            "lng": 114.1895400802915
          },
          "southwest": {
            "lat": 22.2775689197085,
            "lng": 114.1868421197085
          }
        }
      },
      "partial_match": true,
      "place_id": "ChIJy5lcY1QABDQRhma1WhH3sOs",
      "plus_code": {
        "compound_code": "75HQ+H7 \u9999\u6e2f",
        "global_code": "7PJP75HQ+H7"
      },
      "types": [
        "establishment",
        "food",
        "point_of_interest",
        "restaurant"
      ]
    }
  ],
  "licno": "2212816026",
  "timestamp": 1564968756,
  "version": "1564966095"
}
