{
  "adr_en": "THAI THAI DESSERT, G/F, DD 28, LOTS 703 S.B & 712 S.B, TAI MEI TUK CHUEN, TAI PO, NEW TERRITORIES",
  "adr_tc": "\u65b0\u754c\u5927\u57d4\u5927\u5c3e\u7763\u6751\u7b2c28\u7d04 \u7b2c703\u865f\u5730\u6bb5B\u6bb5\u53ca\u7b2c712\u865f\u5730\u6bb5B\u6bb5\u5730\u4e0b \u6cf0\u592a\u5eda\u623f",
  "geocode_en": [
    {
      "address_components": [
        {
          "long_name": "Tai Mei Tuk Tsuen",
          "short_name": "Tai Mei Tuk Tsuen",
          "types": [
            "neighborhood",
            "political"
          ]
        },
        {
          "long_name": "New Territories",
          "short_name": "New Territories",
          "types": [
            "administrative_area_level_1",
            "political"
          ]
        },
        {
          "long_name": "Hong Kong",
          "short_name": "HK",
          "types": [
            "country",
            "political"
          ]
        }
      ],
      "formatted_address": "Tai Mei Tuk Tsuen, Hong Kong",
      "geometry": {
        "bounds": {
          "northeast": {
            "lat": 22.4792788,
            "lng": 114.2404658
          },
          "southwest": {
            "lat": 22.467597,
            "lng": 114.2308793
          }
        },
        "location": {
          "lat": 22.4728367,
          "lng": 114.232961
        },
        "location_type": "APPROXIMATE",
        "viewport": {
          "northeast": {
            "lat": 22.4792788,
            "lng": 114.2404658
          },
          "southwest": {
            "lat": 22.467597,
            "lng": 114.2308793
          }
        }
      },
      "partial_match": true,
      "place_id": "ChIJe9sINjQJBDQRwr6oKiZ6scQ",
      "types": [
        "neighborhood",
        "political"
      ]
    }
  ],
  "geocode_tc": [
    {
      "address_components": [
        {
          "long_name": "\u5927\u57d4",
          "short_name": "\u5927\u57d4",
          "types": [
            "neighborhood",
            "political"
          ]
        },
        {
          "long_name": "\u65b0\u754c",
          "short_name": "\u65b0\u754c",
          "types": [
            "administrative_area_level_1",
            "political"
          ]
        },
        {
          "long_name": "\u9999\u6e2f",
          "short_name": "HK",
          "types": [
            "country",
            "political"
          ]
        }
      ],
      "formatted_address": "\u9999\u6e2f\u5927\u57d4\u5927\u7f8e\u7763\u675147E\u865f\u5730\u4e0b",
      "geometry": {
        "location": {
          "lat": 22.473288,
          "lng": 114.233716
        },
        "location_type": "GEOMETRIC_CENTER",
        "viewport": {
          "northeast": {
            "lat": 22.4746369802915,
            "lng": 114.2350649802915
          },
          "southwest": {
            "lat": 22.4719390197085,
            "lng": 114.2323670197085
          }
        }
      },
      "partial_match": true,
      "place_id": "ChIJXdkINjQJBDQRGOKZ67pK_BE",
      "plus_code": {
        "compound_code": "F6FM+8F \u9999\u6e2f\u5927\u57d4",
        "global_code": "7PJPF6FM+8F"
      },
      "types": [
        "establishment",
        "food",
        "point_of_interest",
        "restaurant"
      ]
    }
  ],
  "licno": "3195800206",
  "timestamp": 1564975666,
  "version": "1564966095"
}
