{
  "adr_en": "Venus, SHOP 1 & 2, G/F, 89 LOCKHART ROAD, WAN CHAI, HONG KONG",
  "adr_tc": "\u9999\u6e2f\u99f1\u514b\u905389\u865f\u5730\u4e0b1\u865f\u53ca2\u865f\u8216 Venus",
  "geocode_en": [
    {
      "address_components": [
        {
          "long_name": "Shop 1&2",
          "short_name": "Shop 1&2",
          "types": [
            "subpremise"
          ]
        },
        {
          "long_name": "202",
          "short_name": "202",
          "types": [
            "street_number"
          ]
        },
        {
          "long_name": "Queen's Road East",
          "short_name": "Queen's Rd E",
          "types": [
            "route"
          ]
        },
        {
          "long_name": "Wan Chai",
          "short_name": "Wan Chai",
          "types": [
            "neighborhood",
            "political"
          ]
        },
        {
          "long_name": "Hong Kong Island",
          "short_name": "Hong Kong Island",
          "types": [
            "administrative_area_level_1",
            "political"
          ]
        },
        {
          "long_name": "Hong Kong",
          "short_name": "HK",
          "types": [
            "country",
            "political"
          ]
        }
      ],
      "formatted_address": "Shop 1&2, 202 Queen's Rd E, Wan Chai, Hong Kong",
      "geometry": {
        "bounds": {
          "northeast": {
            "lat": 22.2747536,
            "lng": 114.1727939
          },
          "southwest": {
            "lat": 22.274667,
            "lng": 114.1727159
          }
        },
        "location": {
          "lat": 22.2747039,
          "lng": 114.1727552
        },
        "location_type": "ROOFTOP",
        "viewport": {
          "northeast": {
            "lat": 22.2760592802915,
            "lng": 114.1741038802915
          },
          "southwest": {
            "lat": 22.2733613197085,
            "lng": 114.1714059197085
          }
        }
      },
      "partial_match": true,
      "place_id": "ChIJ-TXdTkMABDQRK44AbVjDcYM",
      "types": [
        "subpremise"
      ]
    },
    {
      "address_components": [
        {
          "long_name": "G",
          "short_name": "G",
          "types": [
            "subpremise"
          ]
        },
        {
          "long_name": "Wanchai Central Building",
          "short_name": "Wanchai Central Building",
          "types": [
            "premise"
          ]
        },
        {
          "long_name": "89",
          "short_name": "89",
          "types": [
            "street_number"
          ]
        },
        {
          "long_name": "Lockhart Road",
          "short_name": "Lockhart Rd",
          "types": [
            "route"
          ]
        },
        {
          "long_name": "Wan Chai",
          "short_name": "Wan Chai",
          "types": [
            "neighborhood",
            "political"
          ]
        },
        {
          "long_name": "Hong Kong Island",
          "short_name": "Hong Kong Island",
          "types": [
            "administrative_area_level_1",
            "political"
          ]
        },
        {
          "long_name": "Hong Kong",
          "short_name": "HK",
          "types": [
            "country",
            "political"
          ]
        }
      ],
      "formatted_address": "G, Wanchai Central Building, 89 Lockhart Rd, Wan Chai, Hong Kong",
      "geometry": {
        "bounds": {
          "northeast": {
            "lat": 22.2783359,
            "lng": 114.171971
          },
          "southwest": {
            "lat": 22.278207,
            "lng": 114.171793
          }
        },
        "location": {
          "lat": 22.2782597,
          "lng": 114.1718727
        },
        "location_type": "ROOFTOP",
        "viewport": {
          "northeast": {
            "lat": 22.2796204302915,
            "lng": 114.1732309802915
          },
          "southwest": {
            "lat": 22.2769224697085,
            "lng": 114.1705330197085
          }
        }
      },
      "partial_match": true,
      "place_id": "EkBHLCBXYW5jaGFpIENlbnRyYWwgQnVpbGRpbmcsIDg5IExvY2toYXJ0IFJkLCBXYW4gQ2hhaSwgSG9uZyBLb25nIh0aGwoWChQKEgnz-qBeXAAENBGm_sR1g8LIJBIBRw",
      "types": [
        "subpremise"
      ]
    },
    {
      "address_components": [
        {
          "long_name": "F",
          "short_name": "F",
          "types": [
            "subpremise"
          ]
        },
        {
          "long_name": "Wanchai Central Building",
          "short_name": "Wanchai Central Building",
          "types": [
            "premise"
          ]
        },
        {
          "long_name": "89",
          "short_name": "89",
          "types": [
            "street_number"
          ]
        },
        {
          "long_name": "Lockhart Road",
          "short_name": "Lockhart Rd",
          "types": [
            "route"
          ]
        },
        {
          "long_name": "Wan Chai",
          "short_name": "Wan Chai",
          "types": [
            "neighborhood",
            "political"
          ]
        },
        {
          "long_name": "Hong Kong Island",
          "short_name": "Hong Kong Island",
          "types": [
            "administrative_area_level_1",
            "political"
          ]
        },
        {
          "long_name": "Hong Kong",
          "short_name": "HK",
          "types": [
            "country",
            "political"
          ]
        }
      ],
      "formatted_address": "F, Wanchai Central Building, 89 Lockhart Rd, Wan Chai, Hong Kong",
      "geometry": {
        "bounds": {
          "northeast": {
            "lat": 22.2783359,
            "lng": 114.171971
          },
          "southwest": {
            "lat": 22.278207,
            "lng": 114.171793
          }
        },
        "location": {
          "lat": 22.2782597,
          "lng": 114.1718727
        },
        "location_type": "ROOFTOP",
        "viewport": {
          "northeast": {
            "lat": 22.2796204302915,
            "lng": 114.1732309802915
          },
          "southwest": {
            "lat": 22.2769224697085,
            "lng": 114.1705330197085
          }
        }
      },
      "partial_match": true,
      "place_id": "EkBGLCBXYW5jaGFpIENlbnRyYWwgQnVpbGRpbmcsIDg5IExvY2toYXJ0IFJkLCBXYW4gQ2hhaSwgSG9uZyBLb25nIh0aGwoWChQKEgnz-qBeXAAENBGm_sR1g8LIJBIBRg",
      "types": [
        "subpremise"
      ]
    }
  ],
  "geocode_tc": [
    {
      "address_components": [
        {
          "long_name": "\u5730\u4e0b1\u865f\u53ca",
          "short_name": "\u5730\u4e0b1\u865f\u53ca",
          "types": [
            "subpremise"
          ]
        },
        {
          "long_name": "\u7063\u4ed4\u4e2d\u532f\u5927\u5ec8",
          "short_name": "\u7063\u4ed4\u4e2d\u532f\u5927\u5ec8",
          "types": [
            "premise"
          ]
        },
        {
          "long_name": "89",
          "short_name": "89",
          "types": [
            "street_number"
          ]
        },
        {
          "long_name": "\u99f1\u514b\u9053",
          "short_name": "\u99f1\u514b\u9053",
          "types": [
            "route"
          ]
        },
        {
          "long_name": "\u7063\u4ed4",
          "short_name": "\u7063\u4ed4",
          "types": [
            "neighborhood",
            "political"
          ]
        },
        {
          "long_name": "\u9999\u6e2f\u5cf6",
          "short_name": "\u9999\u6e2f\u5cf6",
          "types": [
            "administrative_area_level_1",
            "political"
          ]
        },
        {
          "long_name": "\u9999\u6e2f",
          "short_name": "HK",
          "types": [
            "country",
            "political"
          ]
        }
      ],
      "formatted_address": "\u9999\u6e2f\u7063\u4ed4\u99f1\u514b\u905389\u865f\u7063\u4ed4\u4e2d\u532f\u5927\u5ec8\u5730\u4e0b1\u865f\u53ca",
      "geometry": {
        "bounds": {
          "northeast": {
            "lat": 22.2783359,
            "lng": 114.171971
          },
          "southwest": {
            "lat": 22.278207,
            "lng": 114.171793
          }
        },
        "location": {
          "lat": 22.2782597,
          "lng": 114.1718727
        },
        "location_type": "ROOFTOP",
        "viewport": {
          "northeast": {
            "lat": 22.2796204302915,
            "lng": 114.1732309802915
          },
          "southwest": {
            "lat": 22.2769224697085,
            "lng": 114.1705330197085
          }
        }
      },
      "partial_match": true,
      "place_id": "EkzlnLDkuIsx6Jmf5Y-KLCBXYW5jaGFpIENlbnRyYWwgQnVpbGRpbmcsIDg5IExvY2toYXJ0IFJkLCBXYW4gQ2hhaSwgSG9uZyBLb25nIikaJwoWChQKEgnz-qBeXAAENBGm_sR1g8LIJBIN5Zyw5LiLMeiZn-WPig",
      "types": [
        "subpremise"
      ]
    }
  ],
  "licno": "3112151792",
  "timestamp": 1564975666,
  "version": "1564966095"
}
