{
  "adr_en": "MATTEHEW CAFE, SHOP 3A, G/F, BILLION CENTRE, 1 WANG KWONG ROAD, KOWLOON BAY, KOWLOON",
  "adr_tc": "\u4e5d\u9f8d\u4e5d\u9f8d\u7063\u5b8f\u5149\u90531\u865f\u5104\u4eac\u4e2d\u5fc3\u5730\u4e0b3A\u92ea /",
  "geocode_en": [
    {
      "address_components": [
        {
          "long_name": "Hong Kong",
          "short_name": "HK",
          "types": [
            "country",
            "political"
          ]
        }
      ],
      "formatted_address": "Shop 3A, G/F, Billion Centre, 1 Wang Kwong Road, Kowloon Bay, Kowloon, Hong Kong",
      "geometry": {
        "location": {
          "lat": 22.3215,
          "lng": 114.206124
        },
        "location_type": "GEOMETRIC_CENTER",
        "viewport": {
          "northeast": {
            "lat": 22.3228489802915,
            "lng": 114.2074729802915
          },
          "southwest": {
            "lat": 22.3201510197085,
            "lng": 114.2047750197085
          }
        }
      },
      "place_id": "ChIJwSlOSjIBBDQRgmBSF0Htu5A",
      "types": [
        "establishment",
        "point_of_interest"
      ]
    }
  ],
  "geocode_tc": [
    {
      "address_components": [
        {
          "long_name": "\u4e00\u865f",
          "short_name": "\u4e00\u865f",
          "types": [
            "subpremise"
          ]
        },
        {
          "long_name": "\u5b8f\u5149\u9053",
          "short_name": "\u5b8f\u5149\u9053",
          "types": [
            "route"
          ]
        },
        {
          "long_name": "\u4e5d\u9f8d\u7063",
          "short_name": "\u4e5d\u9f8d\u7063",
          "types": [
            "neighborhood",
            "political"
          ]
        },
        {
          "long_name": "\u4e5d\u9f8d",
          "short_name": "\u4e5d\u9f8d",
          "types": [
            "administrative_area_level_1",
            "political"
          ]
        },
        {
          "long_name": "\u9999\u6e2f",
          "short_name": "HK",
          "types": [
            "country",
            "political"
          ]
        }
      ],
      "formatted_address": "\u9999\u6e2f\u4e5d\u9f8d\u7063\u5b8f\u5149\u9053\u4e00\u865f",
      "geometry": {
        "location": {
          "lat": 22.3215063,
          "lng": 114.2062177
        },
        "location_type": "ROOFTOP",
        "viewport": {
          "northeast": {
            "lat": 22.3228552802915,
            "lng": 114.2075666802915
          },
          "southwest": {
            "lat": 22.3201573197085,
            "lng": 114.2048687197085
          }
        }
      },
      "place_id": "ChIJj5Ko-0QBBDQRXtcs0_NYoaY",
      "plus_code": {
        "compound_code": "86C4+JF \u9999\u6e2f",
        "global_code": "7PJP86C4+JF"
      },
      "types": [
        "establishment",
        "point_of_interest"
      ]
    },
    {
      "address_components": [
        {
          "long_name": "\u9999\u6e2f",
          "short_name": "HK",
          "types": [
            "country",
            "political"
          ]
        }
      ],
      "formatted_address": "\u9999\u6e2f\u4e5d\u9f8d\u7063\u5b8f\u5149\u90531\u865f\u5104\u4eac\u4e2d\u5fc3\u5730\u4e0b3A\u8216",
      "geometry": {
        "location": {
          "lat": 22.321738,
          "lng": 114.206121
        },
        "location_type": "GEOMETRIC_CENTER",
        "viewport": {
          "northeast": {
            "lat": 22.3230869802915,
            "lng": 114.2074699802915
          },
          "southwest": {
            "lat": 22.3203890197085,
            "lng": 114.2047720197085
          }
        }
      },
      "place_id": "ChIJQ4hwTDIBBDQRVbx-VRdKBQs",
      "plus_code": {
        "compound_code": "86C4+MC \u9999\u6e2f",
        "global_code": "7PJP86C4+MC"
      },
      "types": [
        "establishment",
        "point_of_interest"
      ]
    }
  ],
  "licno": "3151801500",
  "timestamp": 1564975666,
  "version": "1564966095"
}
