{
  "adr_en": "\u91d1\u8a18, G/F & M/F, DD 122, LOT 1668, PING SHAN, YUEN LONG, NEW TERRITORIES",
  "adr_tc": "\u65b0\u754c\u5143\u6717\u4e08\u91cf\u7d04\u4efd\u7b2c122\u7d04\u5730\u6bb5\u7b2c1668\u865f \u5c4f\u5c71\u5730\u4e0b\u53ca\u95a3\u6a13 \u91d1\u8a18",
  "geocode_en": [
    {
      "address_components": [
        {
          "long_name": "Ping Shan",
          "short_name": "Ping Shan",
          "types": [
            "neighborhood",
            "political"
          ]
        },
        {
          "long_name": "New Territories",
          "short_name": "New Territories",
          "types": [
            "administrative_area_level_1",
            "political"
          ]
        },
        {
          "long_name": "Hong Kong",
          "short_name": "HK",
          "types": [
            "country",
            "political"
          ]
        }
      ],
      "formatted_address": "Ping Shan, Hong Kong",
      "geometry": {
        "bounds": {
          "northeast": {
            "lat": 22.4517509,
            "lng": 114.016789
          },
          "southwest": {
            "lat": 22.4283829,
            "lng": 113.998613
          }
        },
        "location": {
          "lat": 22.4406709,
          "lng": 114.0083831
        },
        "location_type": "APPROXIMATE",
        "viewport": {
          "northeast": {
            "lat": 22.4517509,
            "lng": 114.016789
          },
          "southwest": {
            "lat": 22.4283829,
            "lng": 113.998613
          }
        }
      },
      "partial_match": true,
      "place_id": "ChIJdZWl-3v6AzQRJi-G9w8pmog",
      "types": [
        "neighborhood",
        "political"
      ]
    }
  ],
  "geocode_tc": [
    {
      "address_components": [
        {
          "long_name": "\u5143\u6717",
          "short_name": "\u5143\u6717",
          "types": [
            "neighborhood",
            "political"
          ]
        },
        {
          "long_name": "\u65b0\u754c",
          "short_name": "\u65b0\u754c",
          "types": [
            "administrative_area_level_1",
            "political"
          ]
        },
        {
          "long_name": "\u9999\u6e2f",
          "short_name": "HK",
          "types": [
            "country",
            "political"
          ]
        }
      ],
      "formatted_address": "\u9999\u6e2f\u5143\u6717",
      "geometry": {
        "bounds": {
          "northeast": {
            "lat": 22.4785374,
            "lng": 114.0549088
          },
          "southwest": {
            "lat": 22.4130917,
            "lng": 114.008533
          }
        },
        "location": {
          "lat": 22.4445376,
          "lng": 114.0222076
        },
        "location_type": "APPROXIMATE",
        "viewport": {
          "northeast": {
            "lat": 22.4785374,
            "lng": 114.0549088
          },
          "southwest": {
            "lat": 22.4130917,
            "lng": 114.008533
          }
        }
      },
      "partial_match": true,
      "place_id": "ChIJuWZv9rvwAzQR5kO1teLKjTU",
      "types": [
        "neighborhood",
        "political"
      ]
    },
    {
      "address_components": [
        {
          "long_name": "\u5c4f\u5c71",
          "short_name": "\u5c4f\u5c71",
          "types": [
            "neighborhood",
            "political"
          ]
        },
        {
          "long_name": "\u65b0\u754c",
          "short_name": "\u65b0\u754c",
          "types": [
            "administrative_area_level_1",
            "political"
          ]
        },
        {
          "long_name": "\u9999\u6e2f",
          "short_name": "HK",
          "types": [
            "country",
            "political"
          ]
        }
      ],
      "formatted_address": "\u9999\u6e2f\u5c4f\u5c71",
      "geometry": {
        "bounds": {
          "northeast": {
            "lat": 22.4517509,
            "lng": 114.016789
          },
          "southwest": {
            "lat": 22.4283829,
            "lng": 113.998613
          }
        },
        "location": {
          "lat": 22.4406709,
          "lng": 114.0083831
        },
        "location_type": "APPROXIMATE",
        "viewport": {
          "northeast": {
            "lat": 22.4517509,
            "lng": 114.016789
          },
          "southwest": {
            "lat": 22.4283829,
            "lng": 113.998613
          }
        }
      },
      "partial_match": true,
      "place_id": "ChIJdZWl-3v6AzQRJi-G9w8pmog",
      "types": [
        "neighborhood",
        "political"
      ]
    }
  ],
  "licno": "2294003934",
  "timestamp": 1564975666,
  "version": "1564966095"
}
