{
  "adr_en": "\u5fb7\u8a18\u8336\u9910\u5ef3, SHOP NOS. 11, 12, 13, 14, 15 & 16, G/F, COMMERCIAL COMPLEX, WING FOK CENTRE, NO. 1 LUEN CHIT STREET, FANLING, NEW TERRITORIES",
  "adr_tc": "\u65b0\u754c\u7c89\u5dba \u806f\u6377\u88571\u865f \u69ae\u798f\u4e2d\u5fc3\u5730\u4e0b 11,12,13,14,15\u53ca16\u865f\u8216 \u5fb7\u8a18\u8336\u9910\u5ef3",
  "geocode_en": [
    {
      "address_components": [
        {
          "long_name": "Hong Kong",
          "short_name": "HK",
          "types": [
            "country",
            "political"
          ]
        }
      ],
      "formatted_address": "Hong Kong, \u7c89\u5dba\u806f\u548c\u589f\u806f\u6377\u8857\u69ae\u798f\u4e2d\u5fc3\u5546\u5834\u5730\u4e0b11\u865f",
      "geometry": {
        "location": {
          "lat": 22.5012066,
          "lng": 114.1414931
        },
        "location_type": "GEOMETRIC_CENTER",
        "viewport": {
          "northeast": {
            "lat": 22.5025555802915,
            "lng": 114.1428420802915
          },
          "southwest": {
            "lat": 22.4998576197085,
            "lng": 114.1401441197085
          }
        }
      },
      "partial_match": true,
      "place_id": "ChIJ64y3Gh32AzQRDCD89wFYdjs",
      "plus_code": {
        "compound_code": "G42R+FH Hong Kong",
        "global_code": "7PJPG42R+FH"
      },
      "types": [
        "establishment",
        "food",
        "point_of_interest",
        "restaurant"
      ]
    },
    {
      "address_components": [
        {
          "long_name": "Wing Fok Centre Commercial Complex",
          "short_name": "Wing Fok Centre Commercial Complex",
          "types": [
            "premise"
          ]
        },
        {
          "long_name": "1",
          "short_name": "1",
          "types": [
            "street_number"
          ]
        },
        {
          "long_name": "Luen Chit Street",
          "short_name": "Luen Chit St",
          "types": [
            "route"
          ]
        },
        {
          "long_name": "Fanling",
          "short_name": "Fanling",
          "types": [
            "neighborhood",
            "political"
          ]
        },
        {
          "long_name": "New Territories",
          "short_name": "New Territories",
          "types": [
            "administrative_area_level_1",
            "political"
          ]
        },
        {
          "long_name": "Hong Kong",
          "short_name": "HK",
          "types": [
            "country",
            "political"
          ]
        }
      ],
      "formatted_address": "Wing Fok Centre Commercial Complex, 1 Luen Chit St, Fanling, Hong Kong",
      "geometry": {
        "bounds": {
          "northeast": {
            "lat": 22.501275,
            "lng": 114.141817
          },
          "southwest": {
            "lat": 22.500961,
            "lng": 114.1413061
          }
        },
        "location": {
          "lat": 22.5011191,
          "lng": 114.1415665
        },
        "location_type": "ROOFTOP",
        "viewport": {
          "northeast": {
            "lat": 22.5024669802915,
            "lng": 114.1429105302915
          },
          "southwest": {
            "lat": 22.4997690197085,
            "lng": 114.1402125697085
          }
        }
      },
      "partial_match": true,
      "place_id": "ChIJVwzQGh32AzQRTmWekOgxLsQ",
      "types": [
        "premise"
      ]
    }
  ],
  "geocode_tc": [
    {
      "address_components": [
        {
          "long_name": "\u9999\u6e2f",
          "short_name": "HK",
          "types": [
            "country",
            "political"
          ]
        }
      ],
      "formatted_address": "\u9999\u6e2f\u7c89\u5dba\u806f\u548c\u589f\u806f\u6377\u8857\u69ae\u798f\u4e2d\u5fc3\u5546\u5834\u5730\u4e0b11\u865f",
      "geometry": {
        "location": {
          "lat": 22.5012066,
          "lng": 114.1414931
        },
        "location_type": "GEOMETRIC_CENTER",
        "viewport": {
          "northeast": {
            "lat": 22.5025555802915,
            "lng": 114.1428420802915
          },
          "southwest": {
            "lat": 22.4998576197085,
            "lng": 114.1401441197085
          }
        }
      },
      "place_id": "ChIJ64y3Gh32AzQRDCD89wFYdjs",
      "plus_code": {
        "compound_code": "G42R+FH \u9999\u6e2f",
        "global_code": "7PJPG42R+FH"
      },
      "types": [
        "establishment",
        "food",
        "point_of_interest",
        "restaurant"
      ]
    }
  ],
  "licno": "2296800117",
  "timestamp": 1564975666,
  "version": "1564966095"
}
