{
  "adr_en": "MACAU FRIEND, SHOP 18A, G/F, ON ON BUILDING, 14-18 SAM PEI SQUARE, TSUEN WAN, NEW TERRITORIES",
  "adr_tc": "\u65b0\u754c\u8343\u7063\u4e09\u9642\u574a14-18\u865f\u5b89\u5b89\u6a13\u5730\u4e0b18A\u8216 \u6fb3\u9580\u4ed4",
  "geocode_en": [
    {
      "address_components": [
        {
          "long_name": "On On Building",
          "short_name": "On On Building",
          "types": [
            "premise"
          ]
        },
        {
          "long_name": "14",
          "short_name": "14",
          "types": [
            "street_number"
          ]
        },
        {
          "long_name": "Sam Pei Square",
          "short_name": "Sam Pei Square",
          "types": [
            "route"
          ]
        },
        {
          "long_name": "Tsuen Wan",
          "short_name": "Tsuen Wan",
          "types": [
            "neighborhood",
            "political"
          ]
        },
        {
          "long_name": "New Territories",
          "short_name": "New Territories",
          "types": [
            "administrative_area_level_1",
            "political"
          ]
        },
        {
          "long_name": "Hong Kong",
          "short_name": "HK",
          "types": [
            "country",
            "political"
          ]
        }
      ],
      "formatted_address": "On On Building, 14 Sam Pei Square, Tsuen Wan, Hong Kong",
      "geometry": {
        "bounds": {
          "northeast": {
            "lat": 22.3689997,
            "lng": 114.1168539
          },
          "southwest": {
            "lat": 22.3686141,
            "lng": 114.1165004
          }
        },
        "location": {
          "lat": 22.3688353,
          "lng": 114.1166304
        },
        "location_type": "ROOFTOP",
        "viewport": {
          "northeast": {
            "lat": 22.3701558802915,
            "lng": 114.1180261302915
          },
          "southwest": {
            "lat": 22.3674579197085,
            "lng": 114.1153281697085
          }
        }
      },
      "partial_match": true,
      "place_id": "ChIJtTEOZ-z4AzQRhICGKyDMO0Y",
      "types": [
        "premise"
      ]
    }
  ],
  "geocode_tc": [
    {
      "address_components": [
        {
          "long_name": "On On Building",
          "short_name": "On On Building",
          "types": [
            "premise"
          ]
        },
        {
          "long_name": "14",
          "short_name": "14",
          "types": [
            "street_number"
          ]
        },
        {
          "long_name": "Sam Pei Square",
          "short_name": "Sam Pei Square",
          "types": [
            "route"
          ]
        },
        {
          "long_name": "Tsuen Wan",
          "short_name": "Tsuen Wan",
          "types": [
            "neighborhood",
            "political"
          ]
        },
        {
          "long_name": "\u9999\u6e2f",
          "short_name": "HK",
          "types": [
            "country",
            "political"
          ]
        }
      ],
      "formatted_address": "G/F, 18, On On Building, 14 Sam Pei Square, Tsuen Wan, \u9999\u6e2f",
      "geometry": {
        "location": {
          "lat": 22.3688069,
          "lng": 114.1166772
        },
        "location_type": "ROOFTOP",
        "viewport": {
          "northeast": {
            "lat": 22.3701558802915,
            "lng": 114.1180261802915
          },
          "southwest": {
            "lat": 22.3674579197085,
            "lng": 114.1153282197085
          }
        }
      },
      "place_id": "ChIJyRAbZ-z4AzQRmmbLWqjmdk0",
      "plus_code": {
        "compound_code": "9498+GM \u9999\u6e2f",
        "global_code": "7PJP9498+GM"
      },
      "types": [
        "establishment",
        "food",
        "point_of_interest",
        "restaurant"
      ]
    }
  ],
  "licno": "2292804476",
  "timestamp": 1564968756,
  "version": "1564966095"
}
