{
  "adr_en": "QUEEN'S CAFE, UNIT 118, LEVEL 1, FESTIVAL WALK, YAU YAT TSUEN, 80 TAT CHEE AVENUE, KOWLOON TONG, SHAM SHUI PO, KOWLOON",
  "adr_tc": "\u4e5d\u9f8d\u5858\u53c8\u4e00\u90a8\u9054\u4e4b\u8def80\u865f \u53c8\u4e00\u57ce\u5546\u5834\u7b2c1\u5c64118\u865f\u8216 \u7687\u540e\u98ef\u5e97",
  "geocode_en": [
    {
      "address_components": [
        {
          "long_name": "Hong Kong",
          "short_name": "HK",
          "types": [
            "country",
            "political"
          ]
        }
      ],
      "formatted_address": "Hong Kong, \u9054\u4e4b\u8def80\u865f\u53c8\u4e00\u57ceL1-18",
      "geometry": {
        "location": {
          "lat": 22.3376157,
          "lng": 114.1739627
        },
        "location_type": "GEOMETRIC_CENTER",
        "viewport": {
          "northeast": {
            "lat": 22.3389646802915,
            "lng": 114.1753116802915
          },
          "southwest": {
            "lat": 22.3362667197085,
            "lng": 114.1726137197085
          }
        }
      },
      "partial_match": true,
      "place_id": "ChIJc0rgRjEHBDQRdlx5gtbn74A",
      "plus_code": {
        "compound_code": "85QF+2H Hong Kong",
        "global_code": "7PJP85QF+2H"
      },
      "types": [
        "establishment",
        "food",
        "point_of_interest",
        "restaurant"
      ]
    },
    {
      "address_components": [
        {
          "long_name": "80",
          "short_name": "80",
          "types": [
            "street_number"
          ]
        },
        {
          "long_name": "Tat Chee Avenue",
          "short_name": "Tat Chee Ave",
          "types": [
            "route"
          ]
        },
        {
          "long_name": "Kowloon Tong",
          "short_name": "Kowloon Tong",
          "types": [
            "neighborhood",
            "political"
          ]
        },
        {
          "long_name": "Kowloon",
          "short_name": "Kowloon",
          "types": [
            "administrative_area_level_1",
            "political"
          ]
        },
        {
          "long_name": "Hong Kong",
          "short_name": "HK",
          "types": [
            "country",
            "political"
          ]
        }
      ],
      "formatted_address": "80 Tat Chee Ave, Kowloon Tong, Hong Kong",
      "geometry": {
        "location": {
          "lat": 22.3372788,
          "lng": 114.1745274
        },
        "location_type": "ROOFTOP",
        "viewport": {
          "northeast": {
            "lat": 22.3386277802915,
            "lng": 114.1758763802915
          },
          "southwest": {
            "lat": 22.3359298197085,
            "lng": 114.1731784197085
          }
        }
      },
      "partial_match": true,
      "place_id": "ChIJfx5PRjEHBDQRIDFANIp7T_0",
      "plus_code": {
        "compound_code": "85PF+WR Kowloon Tong, Hong Kong",
        "global_code": "7PJP85PF+WR"
      },
      "types": [
        "establishment",
        "point_of_interest",
        "shopping_mall"
      ]
    },
    {
      "address_components": [
        {
          "long_name": "80",
          "short_name": "80",
          "types": [
            "street_number"
          ]
        },
        {
          "long_name": "Tat Chee Avenue",
          "short_name": "Tat Chee Ave",
          "types": [
            "route"
          ]
        },
        {
          "long_name": "Kowloon Tong",
          "short_name": "Kowloon Tong",
          "types": [
            "neighborhood",
            "political"
          ]
        },
        {
          "long_name": "Kowloon",
          "short_name": "Kowloon",
          "types": [
            "administrative_area_level_1",
            "political"
          ]
        },
        {
          "long_name": "Hong Kong",
          "short_name": "HK",
          "types": [
            "country",
            "political"
          ]
        }
      ],
      "formatted_address": "80 Tat Chee Ave, Kowloon Tong, Hong Kong",
      "geometry": {
        "bounds": {
          "northeast": {
            "lat": 22.3383703,
            "lng": 114.1756083
          },
          "southwest": {
            "lat": 22.3362241,
            "lng": 114.1735851
          }
        },
        "location": {
          "lat": 22.337381,
          "lng": 114.1744322
        },
        "location_type": "ROOFTOP",
        "viewport": {
          "northeast": {
            "lat": 22.3386461802915,
            "lng": 114.1759456802915
          },
          "southwest": {
            "lat": 22.3359482197085,
            "lng": 114.1732477197085
          }
        }
      },
      "partial_match": true,
      "place_id": "ChIJJwLhRjEHBDQRVowl0DwTEUs",
      "types": [
        "premise"
      ]
    }
  ],
  "geocode_tc": [
    {
      "address_components": [
        {
          "long_name": "\u9999\u6e2f",
          "short_name": "HK",
          "types": [
            "country",
            "political"
          ]
        }
      ],
      "formatted_address": "\u9999\u6e2f\u9054\u4e4b\u8def80\u865f\u53c8\u4e00\u57ceL1-18",
      "geometry": {
        "location": {
          "lat": 22.3376157,
          "lng": 114.1739627
        },
        "location_type": "GEOMETRIC_CENTER",
        "viewport": {
          "northeast": {
            "lat": 22.3389646802915,
            "lng": 114.1753116802915
          },
          "southwest": {
            "lat": 22.3362667197085,
            "lng": 114.1726137197085
          }
        }
      },
      "partial_match": true,
      "place_id": "ChIJc0rgRjEHBDQRdlx5gtbn74A",
      "plus_code": {
        "compound_code": "85QF+2H \u9999\u6e2f",
        "global_code": "7PJP85QF+2H"
      },
      "types": [
        "establishment",
        "food",
        "point_of_interest",
        "restaurant"
      ]
    }
  ],
  "licno": "2263800126",
  "timestamp": 1564968756,
  "version": "1564966095"
}
