{
  "adr_en": "Hong Kong Cafe, NO 233, G/F, WELLCOME MANSION, 233-239 CHEUNG SHA WAN ROAD, KOWLOON",
  "adr_tc": "\u4e5d\u9f8d\u9577\u6c99\u7063\u9053233-239\u865f\u60e0\u5eb7\u5927\u5ec8\u5730\u4e0b233\u865f\u92ea \u9999\u6e2f\u9910\u5ba4",
  "geocode_en": [
    {
      "address_components": [
        {
          "long_name": "233",
          "short_name": "233",
          "types": [
            "street_number"
          ]
        },
        {
          "long_name": "Cheung Sha Wan Road",
          "short_name": "Cheung Sha Wan Rd",
          "types": [
            "route"
          ]
        },
        {
          "long_name": "Sham Shui Po",
          "short_name": "Sham Shui Po",
          "types": [
            "neighborhood",
            "political"
          ]
        },
        {
          "long_name": "Hong Kong",
          "short_name": "HK",
          "types": [
            "country",
            "political"
          ]
        }
      ],
      "formatted_address": "Hong Kong, Sham Shui Po, Cheung Sha Wan Rd, 233\u865f\u865f",
      "geometry": {
        "location": {
          "lat": 22.3308244,
          "lng": 114.161952
        },
        "location_type": "ROOFTOP",
        "viewport": {
          "northeast": {
            "lat": 22.3321733802915,
            "lng": 114.1633009802915
          },
          "southwest": {
            "lat": 22.32947541970849,
            "lng": 114.1606030197085
          }
        }
      },
      "partial_match": true,
      "place_id": "ChIJ5052nrQABDQR9hjaK-gQoHQ",
      "plus_code": {
        "compound_code": "85J6+8Q Hong Kong",
        "global_code": "7PJP85J6+8Q"
      },
      "types": [
        "establishment",
        "food",
        "point_of_interest",
        "restaurant"
      ]
    }
  ],
  "geocode_tc": [
    {
      "address_components": [
        {
          "long_name": "233",
          "short_name": "233",
          "types": [
            "street_number"
          ]
        },
        {
          "long_name": "\u9577\u6c99\u7063\u9053",
          "short_name": "\u9577\u6c99\u7063\u9053",
          "types": [
            "route"
          ]
        },
        {
          "long_name": "\u6df1\u6c34\u57d7",
          "short_name": "\u6df1\u6c34\u57d7",
          "types": [
            "neighborhood",
            "political"
          ]
        },
        {
          "long_name": "\u9999\u6e2f",
          "short_name": "HK",
          "types": [
            "country",
            "political"
          ]
        }
      ],
      "formatted_address": "\u9999\u6e2f\u6df1\u6c34\u57d7\u9577\u6c99\u7063\u9053233\u865f\u865f",
      "geometry": {
        "location": {
          "lat": 22.3308244,
          "lng": 114.161952
        },
        "location_type": "ROOFTOP",
        "viewport": {
          "northeast": {
            "lat": 22.3321733802915,
            "lng": 114.1633009802915
          },
          "southwest": {
            "lat": 22.32947541970849,
            "lng": 114.1606030197085
          }
        }
      },
      "partial_match": true,
      "place_id": "ChIJ5052nrQABDQR9hjaK-gQoHQ",
      "plus_code": {
        "compound_code": "85J6+8Q \u9999\u6e2f",
        "global_code": "7PJP85J6+8Q"
      },
      "types": [
        "establishment",
        "food",
        "point_of_interest",
        "restaurant"
      ]
    },
    {
      "address_components": [
        {
          "long_name": "\u60e0\u5eb7\u5927\u5ec8",
          "short_name": "\u60e0\u5eb7\u5927\u5ec8",
          "types": [
            "premise"
          ]
        },
        {
          "long_name": "233-239",
          "short_name": "233-239",
          "types": [
            "street_number"
          ]
        },
        {
          "long_name": "\u9577\u6c99\u7063\u9053",
          "short_name": "\u9577\u6c99\u7063\u9053",
          "types": [
            "route"
          ]
        },
        {
          "long_name": "\u6df1\u6c34\u57d7",
          "short_name": "\u6df1\u6c34\u57d7",
          "types": [
            "neighborhood",
            "political"
          ]
        },
        {
          "long_name": "\u4e5d\u9f8d",
          "short_name": "\u4e5d\u9f8d",
          "types": [
            "administrative_area_level_1",
            "political"
          ]
        },
        {
          "long_name": "\u9999\u6e2f",
          "short_name": "HK",
          "types": [
            "country",
            "political"
          ]
        }
      ],
      "formatted_address": "\u9999\u6e2f\u6df1\u6c34\u57d7\u9577\u6c99\u7063\u9053233-239\u865f\u60e0\u5eb7\u5927\u5ec8",
      "geometry": {
        "bounds": {
          "northeast": {
            "lat": 22.330903,
            "lng": 114.1620281
          },
          "southwest": {
            "lat": 22.330655,
            "lng": 114.1617479
          }
        },
        "location": {
          "lat": 22.3307571,
          "lng": 114.161887
        },
        "location_type": "ROOFTOP",
        "viewport": {
          "northeast": {
            "lat": 22.3321279802915,
            "lng": 114.1632369802915
          },
          "southwest": {
            "lat": 22.3294300197085,
            "lng": 114.1605390197085
          }
        }
      },
      "partial_match": true,
      "place_id": "ChIJwQF2nrQABDQRwEQqR3fHgdY",
      "types": [
        "premise"
      ]
    }
  ],
  "licno": "2263803569",
  "timestamp": 1564968756,
  "version": "1564966095"
}
