{
  "adr_en": "\u81f3\u5c0a\u7f8e\u98df, SHOP 23 & 24, G/F, ORCHID COURT, 6-30, 34-40 YAN OI TONG CIRCUIT, TUEN MUN, NEW TERRITORIES",
  "adr_tc": "\u65b0\u754c\u5c6f\u9580\u4ec1\u611b\u5802\u88576-30,34-40\u865f \u862d\u82d1\u5730\u4e0b23\u53ca24\u865f\u92ea \u81f3\u5c0a\u7f8e\u98df",
  "geocode_en": [
    {
      "address_components": [
        {
          "long_name": "30",
          "short_name": "30",
          "types": [
            "subpremise"
          ]
        },
        {
          "long_name": "Orchid Court",
          "short_name": "Orchid Court",
          "types": [
            "premise"
          ]
        },
        {
          "long_name": "6-40",
          "short_name": "6-40",
          "types": [
            "street_number"
          ]
        },
        {
          "long_name": "Yan Oi Tong Circuit",
          "short_name": "Yan Oi Tong Circuit",
          "types": [
            "route"
          ]
        },
        {
          "long_name": "San Hui",
          "short_name": "San Hui",
          "types": [
            "neighborhood",
            "political"
          ]
        },
        {
          "long_name": "New Territories",
          "short_name": "New Territories",
          "types": [
            "administrative_area_level_1",
            "political"
          ]
        },
        {
          "long_name": "Hong Kong",
          "short_name": "HK",
          "types": [
            "country",
            "political"
          ]
        }
      ],
      "formatted_address": "30, Orchid Court, 6-40 Yan Oi Tong Circuit, San Hui, Hong Kong",
      "geometry": {
        "bounds": {
          "northeast": {
            "lat": 22.396371,
            "lng": 113.9771019
          },
          "southwest": {
            "lat": 22.3958899,
            "lng": 113.976884
          }
        },
        "location": {
          "lat": 22.3960853,
          "lng": 113.9770187
        },
        "location_type": "ROOFTOP",
        "viewport": {
          "northeast": {
            "lat": 22.3974794302915,
            "lng": 113.9783419302915
          },
          "southwest": {
            "lat": 22.3947814697085,
            "lng": 113.9756439697085
          }
        }
      },
      "partial_match": true,
      "place_id": "Ej4zMCwgT3JjaGlkIENvdXJ0LCA2LTQwIFlhbiBPaSBUb25nIENpcmN1aXQsIFNhbiBIdWksIEhvbmcgS29uZyIeGhwKFgoUChIJOQUKpCL7AzQRuCFf6jBUOLUSAjMw",
      "types": [
        "subpremise"
      ]
    }
  ],
  "geocode_tc": [
    {
      "address_components": [
        {
          "long_name": "\u862d\u82d1",
          "short_name": "\u862d\u82d1",
          "types": [
            "premise"
          ]
        },
        {
          "long_name": "6-40",
          "short_name": "6-40",
          "types": [
            "street_number"
          ]
        },
        {
          "long_name": "\u4ec1\u611b\u5802\u8857",
          "short_name": "\u4ec1\u611b\u5802\u8857",
          "types": [
            "route"
          ]
        },
        {
          "long_name": "\u65b0\u589f",
          "short_name": "\u65b0\u589f",
          "types": [
            "neighborhood",
            "political"
          ]
        },
        {
          "long_name": "\u65b0\u754c",
          "short_name": "\u65b0\u754c",
          "types": [
            "administrative_area_level_1",
            "political"
          ]
        },
        {
          "long_name": "\u9999\u6e2f",
          "short_name": "HK",
          "types": [
            "country",
            "political"
          ]
        }
      ],
      "formatted_address": "\u9999\u6e2f\u65b0\u589f\u4ec1\u611b\u5802\u88576-40\u865f\u862d\u82d1",
      "geometry": {
        "bounds": {
          "northeast": {
            "lat": 22.396371,
            "lng": 113.9771019
          },
          "southwest": {
            "lat": 22.3958899,
            "lng": 113.976884
          }
        },
        "location": {
          "lat": 22.3960853,
          "lng": 113.9770187
        },
        "location_type": "ROOFTOP",
        "viewport": {
          "northeast": {
            "lat": 22.3974794302915,
            "lng": 113.9783419302915
          },
          "southwest": {
            "lat": 22.3947814697085,
            "lng": 113.9756439697085
          }
        }
      },
      "partial_match": true,
      "place_id": "ChIJOQUKpCL7AzQRuCFf6jBUOLU",
      "types": [
        "premise"
      ]
    }
  ],
  "licno": "2293803577",
  "timestamp": 1564968756,
  "version": "1564966095"
}
