{
  "adr_en": "\u661f\u6ed9\u6252\u5c4b, SHOP 6, G/F, FINERY PARK, 7 YUK NGA LANE, TSEUNG KWAN O, SAI KUNG, NEW TERRITORIES",
  "adr_tc": "\u65b0\u754c\u897f\u8ca2 \u5c07\u8ecd\u6fb3\u6bd3\u96c5\u91cc7\u865f \u5bcc\u9e97\u82b1\u5712\u5730\u4e0b6\u865f\u92ea \u661f\u6ed9\u6252\u5c4b",
  "geocode_en": [
    {
      "address_components": [
        {
          "long_name": "Hong Kong",
          "short_name": "HK",
          "types": [
            "country",
            "political"
          ]
        }
      ],
      "formatted_address": "Hong Kong, \u65b0\u754c\u5c07\u8ecd\u6fb3\u6bd3\u96c5\u91cc7\u865f\u5bcc\u9e97\u82b1\u5712\u5730\u4e0b",
      "geometry": {
        "location": {
          "lat": 22.3239334,
          "lng": 114.2547212
        },
        "location_type": "GEOMETRIC_CENTER",
        "viewport": {
          "northeast": {
            "lat": 22.3252823802915,
            "lng": 114.2560701802915
          },
          "southwest": {
            "lat": 22.32258441970849,
            "lng": 114.2533722197085
          }
        }
      },
      "partial_match": true,
      "place_id": "ChIJcceA0w4EBDQR9afX1bvDoVM",
      "plus_code": {
        "compound_code": "87F3+HV Hong Kong",
        "global_code": "7PJP87F3+HV"
      },
      "types": [
        "establishment",
        "food",
        "point_of_interest",
        "restaurant"
      ]
    },
    {
      "address_components": [
        {
          "long_name": "Finery Park",
          "short_name": "Finery Park",
          "types": [
            "establishment",
            "point_of_interest",
            "transit_station"
          ]
        },
        {
          "long_name": "New Territories",
          "short_name": "New Territories",
          "types": [
            "administrative_area_level_1",
            "political"
          ]
        },
        {
          "long_name": "Hong Kong",
          "short_name": "HK",
          "types": [
            "country",
            "political"
          ]
        }
      ],
      "formatted_address": "Finery Park, Hong Kong",
      "geometry": {
        "location": {
          "lat": 22.323051,
          "lng": 114.253985
        },
        "location_type": "GEOMETRIC_CENTER",
        "viewport": {
          "northeast": {
            "lat": 22.32439998029151,
            "lng": 114.2553339802915
          },
          "southwest": {
            "lat": 22.3217020197085,
            "lng": 114.2526360197085
          }
        }
      },
      "partial_match": true,
      "place_id": "ChIJnWDJKQkEBDQRYwUrsmTLW-o",
      "plus_code": {
        "compound_code": "87F3+6H Hong Kong",
        "global_code": "7PJP87F3+6H"
      },
      "types": [
        "establishment",
        "point_of_interest",
        "transit_station"
      ]
    },
    {
      "address_components": [
        {
          "long_name": "7",
          "short_name": "7",
          "types": [
            "street_number"
          ]
        },
        {
          "long_name": "Yuk Nga Lane",
          "short_name": "Yuk Nga Ln",
          "types": [
            "route"
          ]
        },
        {
          "long_name": "Tseung Kwan O",
          "short_name": "Tseung Kwan O",
          "types": [
            "neighborhood",
            "political"
          ]
        },
        {
          "long_name": "New Territories",
          "short_name": "New Territories",
          "types": [
            "administrative_area_level_1",
            "political"
          ]
        },
        {
          "long_name": "Hong Kong",
          "short_name": "HK",
          "types": [
            "country",
            "political"
          ]
        }
      ],
      "formatted_address": "7 Yuk Nga Ln, Tseung Kwan O, Hong Kong",
      "geometry": {
        "location": {
          "lat": 22.3239917,
          "lng": 114.2546559
        },
        "location_type": "ROOFTOP",
        "viewport": {
          "northeast": {
            "lat": 22.3253406802915,
            "lng": 114.2560048802915
          },
          "southwest": {
            "lat": 22.3226427197085,
            "lng": 114.2533069197085
          }
        }
      },
      "partial_match": true,
      "place_id": "ChIJle2MxQ4EBDQRUNN7itiOOCQ",
      "plus_code": {
        "compound_code": "87F3+HV Hong Kong",
        "global_code": "7PJP87F3+HV"
      },
      "types": [
        "street_address"
      ]
    }
  ],
  "geocode_tc": [
    {
      "address_components": [
        {
          "long_name": "\u9999\u6e2f",
          "short_name": "HK",
          "types": [
            "country",
            "political"
          ]
        }
      ],
      "formatted_address": "\u9999\u6e2f\u65b0\u754c\u5c07\u8ecd\u6fb3\u6bd3\u96c5\u91cc7\u865f\u5bcc\u9e97\u82b1\u5712\u5730\u4e0b",
      "geometry": {
        "location": {
          "lat": 22.3239334,
          "lng": 114.2547212
        },
        "location_type": "GEOMETRIC_CENTER",
        "viewport": {
          "northeast": {
            "lat": 22.3252823802915,
            "lng": 114.2560701802915
          },
          "southwest": {
            "lat": 22.32258441970849,
            "lng": 114.2533722197085
          }
        }
      },
      "place_id": "ChIJcceA0w4EBDQR9afX1bvDoVM",
      "plus_code": {
        "compound_code": "87F3+HV \u9999\u6e2f",
        "global_code": "7PJP87F3+HV"
      },
      "types": [
        "establishment",
        "food",
        "point_of_interest",
        "restaurant"
      ]
    }
  ],
  "licno": "2298000669",
  "timestamp": 1564975666,
  "version": "1564966095"
}
