{
  "adr_en": "BAR PACIFIC, PORTIONS OF G/F, AND BASEMENT, YEN PO COURT, 74-82 WHARF ROAD, NORTH POINT, HONG KONG",
  "adr_tc": "\u9999\u6e2f\u5317\u89d2\u548c\u5bcc\u905374-82\u865f\u4ec1\u5bf6\u95a3\u5730\u5eab\u53ca\u5730\u4e0b\u90e8\u4efd \u592a\u5e73\u6d0b\u9152\u5427",
  "geocode_en": [
    {
      "address_components": [
        {
          "long_name": "74-82",
          "short_name": "74-82",
          "types": [
            "street_number"
          ]
        },
        {
          "long_name": "Wharf Road",
          "short_name": "Wharf Rd",
          "types": [
            "route"
          ]
        },
        {
          "long_name": "North Point",
          "short_name": "North Point",
          "types": [
            "neighborhood",
            "political"
          ]
        },
        {
          "long_name": "Hong Kong Island",
          "short_name": "Hong Kong Island",
          "types": [
            "administrative_area_level_1",
            "political"
          ]
        },
        {
          "long_name": "Hong Kong",
          "short_name": "HK",
          "types": [
            "country",
            "political"
          ]
        }
      ],
      "formatted_address": "74-82 Wharf Rd, North Point, Hong Kong",
      "geometry": {
        "bounds": {
          "northeast": {
            "lat": 22.2921067,
            "lng": 114.1972704
          },
          "southwest": {
            "lat": 22.2919916,
            "lng": 114.1970816
          }
        },
        "location": {
          "lat": 22.2920415,
          "lng": 114.1971718
        },
        "location_type": "ROOFTOP",
        "viewport": {
          "northeast": {
            "lat": 22.2933981302915,
            "lng": 114.1985249802915
          },
          "southwest": {
            "lat": 22.2907001697085,
            "lng": 114.1958270197085
          }
        }
      },
      "partial_match": true,
      "place_id": "ChIJuzCcYAMBBDQRshcIfKUpgOI",
      "types": [
        "premise"
      ]
    }
  ],
  "geocode_tc": [
    {
      "address_components": [
        {
          "long_name": "74-82",
          "short_name": "74-82",
          "types": [
            "street_number"
          ]
        },
        {
          "long_name": "Wharf Road",
          "short_name": "Wharf Rd",
          "types": [
            "route"
          ]
        },
        {
          "long_name": "North Point",
          "short_name": "North Point",
          "types": [
            "neighborhood",
            "political"
          ]
        },
        {
          "long_name": "\u9999\u6e2f",
          "short_name": "HK",
          "types": [
            "country",
            "political"
          ]
        }
      ],
      "formatted_address": "\u4ec1 \u5bf6 \u95a3 \u5730 \u5eab, 74-82 Wharf Rd, North Point, \u9999\u6e2f",
      "geometry": {
        "location": {
          "lat": 22.2920758,
          "lng": 114.1970702
        },
        "location_type": "ROOFTOP",
        "viewport": {
          "northeast": {
            "lat": 22.2934247802915,
            "lng": 114.1984191802915
          },
          "southwest": {
            "lat": 22.2907268197085,
            "lng": 114.1957212197085
          }
        }
      },
      "place_id": "ChIJ2amsYAMBBDQRXt2ukHfl-TI",
      "plus_code": {
        "compound_code": "75RW+RR \u9999\u6e2f",
        "global_code": "7PJP75RW+RR"
      },
      "types": [
        "bar",
        "establishment",
        "point_of_interest"
      ]
    }
  ],
  "licno": "3111802848",
  "timestamp": 1564975666,
  "version": "1564966095"
}
