{
  "adr_en": "Cup's Coffee, SHOP 6, G/F, NAM SHING MANSION, 16-20 NAM SHING STREET, TAI PO, NEW TERRITORIES",
  "adr_tc": "\u65b0\u754c\u5927\u57d4\u5357\u76db\u885716-20\u865f\u5357\u76db\u5927\u5ec8\u5730\u4e0b6\u92ea Cup's Coffee",
  "geocode_en": [
    {
      "address_components": [
        {
          "long_name": "Nam Shing Mansion",
          "short_name": "Nam Shing Mansion",
          "types": [
            "premise"
          ]
        },
        {
          "long_name": "16",
          "short_name": "16",
          "types": [
            "street_number"
          ]
        },
        {
          "long_name": "Nam Shing Street",
          "short_name": "Nam Shing St",
          "types": [
            "route"
          ]
        },
        {
          "long_name": "Tai Po",
          "short_name": "Tai Po",
          "types": [
            "neighborhood",
            "political"
          ]
        },
        {
          "long_name": "New Territories",
          "short_name": "New Territories",
          "types": [
            "administrative_area_level_1",
            "political"
          ]
        },
        {
          "long_name": "Hong Kong",
          "short_name": "HK",
          "types": [
            "country",
            "political"
          ]
        }
      ],
      "formatted_address": "Nam Shing Mansion, 16 Nam Shing St, Tai Po, Hong Kong",
      "geometry": {
        "bounds": {
          "northeast": {
            "lat": 22.4480331,
            "lng": 114.165897
          },
          "southwest": {
            "lat": 22.4478371,
            "lng": 114.1657279
          }
        },
        "location": {
          "lat": 22.4479396,
          "lng": 114.1658349
        },
        "location_type": "ROOFTOP",
        "viewport": {
          "northeast": {
            "lat": 22.4492840802915,
            "lng": 114.1671614302915
          },
          "southwest": {
            "lat": 22.4465861197085,
            "lng": 114.1644634697085
          }
        }
      },
      "partial_match": true,
      "place_id": "ChIJh80kPD8IBDQR7oi7gXnLAvM",
      "types": [
        "premise"
      ]
    }
  ],
  "geocode_tc": [
    {
      "address_components": [
        {
          "long_name": "Nam Shing Mansion",
          "short_name": "Nam Shing Mansion",
          "types": [
            "premise"
          ]
        },
        {
          "long_name": "16",
          "short_name": "16",
          "types": [
            "street_number"
          ]
        },
        {
          "long_name": "Nam Shing Street",
          "short_name": "Nam Shing St",
          "types": [
            "route"
          ]
        },
        {
          "long_name": "Tai Po",
          "short_name": "Tai Po",
          "types": [
            "neighborhood",
            "political"
          ]
        },
        {
          "long_name": "\u9999\u6e2f",
          "short_name": "HK",
          "types": [
            "country",
            "political"
          ]
        }
      ],
      "formatted_address": "\u865f, Nam Shing Mansion, 16 Nam Shing St, Tai Po, \u9999\u6e2f",
      "geometry": {
        "location": {
          "lat": 22.4479341,
          "lng": 114.1658637
        },
        "location_type": "ROOFTOP",
        "viewport": {
          "northeast": {
            "lat": 22.4492830802915,
            "lng": 114.1672126802915
          },
          "southwest": {
            "lat": 22.4465851197085,
            "lng": 114.1645147197085
          }
        }
      },
      "place_id": "ChIJg80kPD8IBDQRvpY-wbLc7AY",
      "plus_code": {
        "compound_code": "C5X8+58 \u9999\u6e2f",
        "global_code": "7PJPC5X8+58"
      },
      "types": [
        "establishment",
        "food",
        "point_of_interest",
        "restaurant"
      ]
    }
  ],
  "licno": "3195800899",
  "timestamp": 1564975666,
  "version": "1564966095"
}
