{
  "adr_en": "Naruto Uo Ichiba Izakaya, SHOP B, G/F, LISA HOUSE, 12-14A YIM PO FONG STREET, MONG KOK, KOWLOON",
  "adr_tc": "\u4e5d\u9f8d\u65fa\u89d2\u67d3\u5e03\u623f\u885712-14A\u865f\u4f9d\u5229\u5927\u5ec8\u5730\u4e0bB\u92ea \u9cf4\u9580\u6f01\u5e02\u57f8\u5c45\u9152\u5c4b",
  "geocode_en": [
    {
      "address_components": [
        {
          "long_name": "Hong Kong",
          "short_name": "HK",
          "types": [
            "country",
            "political"
          ]
        }
      ],
      "formatted_address": "Hong Kong, \u897f\u74b0\u897f\u71df\u76e4\u7b2c\u4e00\u88578\u865f\u5730\u4e0b2\u865f\u92ea",
      "geometry": {
        "location": {
          "lat": 22.2864505,
          "lng": 114.1426395
        },
        "location_type": "GEOMETRIC_CENTER",
        "viewport": {
          "northeast": {
            "lat": 22.2877994802915,
            "lng": 114.1439884802915
          },
          "southwest": {
            "lat": 22.2851015197085,
            "lng": 114.1412905197085
          }
        }
      },
      "partial_match": true,
      "place_id": "ChIJBya3vID_AzQRbhsgBzurK-g",
      "plus_code": {
        "compound_code": "74PV+H3 Hong Kong",
        "global_code": "7PJP74PV+H3"
      },
      "types": [
        "establishment",
        "food",
        "point_of_interest",
        "restaurant"
      ]
    },
    {
      "address_components": [
        {
          "long_name": "Lisa House",
          "short_name": "Lisa House",
          "types": [
            "premise"
          ]
        },
        {
          "long_name": "12-14A",
          "short_name": "12-14A",
          "types": [
            "street_number"
          ]
        },
        {
          "long_name": "Yim Po Fong Street",
          "short_name": "Yim Po Fong St",
          "types": [
            "route"
          ]
        },
        {
          "long_name": "Mong Kok",
          "short_name": "Mong Kok",
          "types": [
            "neighborhood",
            "political"
          ]
        },
        {
          "long_name": "Kowloon",
          "short_name": "Kowloon",
          "types": [
            "administrative_area_level_1",
            "political"
          ]
        },
        {
          "long_name": "Hong Kong",
          "short_name": "HK",
          "types": [
            "country",
            "political"
          ]
        }
      ],
      "formatted_address": "Lisa House, 12-14A Yim Po Fong St, Mong Kok, Hong Kong",
      "geometry": {
        "bounds": {
          "northeast": {
            "lat": 22.319189,
            "lng": 114.172879
          },
          "southwest": {
            "lat": 22.318962,
            "lng": 114.172598
          }
        },
        "location": {
          "lat": 22.319092,
          "lng": 114.1726855
        },
        "location_type": "ROOFTOP",
        "viewport": {
          "northeast": {
            "lat": 22.3204244802915,
            "lng": 114.1740874802915
          },
          "southwest": {
            "lat": 22.3177265197085,
            "lng": 114.1713895197085
          }
        }
      },
      "partial_match": true,
      "place_id": "ChIJ1bn3GsYABDQRTCbrT_Uh-8s",
      "types": [
        "premise"
      ]
    }
  ],
  "geocode_tc": [
    {
      "address_components": [
        {
          "long_name": "Shop B",
          "short_name": "Shop B",
          "types": [
            "subpremise"
          ]
        },
        {
          "long_name": "Lisa House",
          "short_name": "Lisa House",
          "types": [
            "premise"
          ]
        },
        {
          "long_name": "12-14A",
          "short_name": "12-14A",
          "types": [
            "street_number"
          ]
        },
        {
          "long_name": "Yim Po Fong Street",
          "short_name": "Yim Po Fong St",
          "types": [
            "route"
          ]
        },
        {
          "long_name": "Mong Kok",
          "short_name": "Mong Kok",
          "types": [
            "neighborhood",
            "political"
          ]
        },
        {
          "long_name": "Kowloon",
          "short_name": "Kowloon",
          "types": [
            "administrative_area_level_1",
            "political"
          ]
        },
        {
          "long_name": "\u9999\u6e2f",
          "short_name": "HK",
          "types": [
            "country",
            "political"
          ]
        }
      ],
      "formatted_address": "Shop B, Lisa House, 12-14A Yim Po Fong St, Mong Kok, \u9999\u6e2f",
      "geometry": {
        "location": {
          "lat": 22.3192675,
          "lng": 114.1727312
        },
        "location_type": "ROOFTOP",
        "viewport": {
          "northeast": {
            "lat": 22.3206164802915,
            "lng": 114.1740801802915
          },
          "southwest": {
            "lat": 22.3179185197085,
            "lng": 114.1713822197085
          }
        }
      },
      "place_id": "ChIJU9x4G8YABDQRyR9dOBnaFf4",
      "plus_code": {
        "compound_code": "859F+P3 \u9999\u6e2f",
        "global_code": "7PJP859F+P3"
      },
      "types": [
        "establishment",
        "food",
        "point_of_interest",
        "restaurant"
      ]
    }
  ],
  "licno": "2262808178",
  "timestamp": 1564968756,
  "version": "1564966095"
}
