{
  "adr_en": "NOODLE 12 CAFE, G/F, NO. 221 FA YUEN STREET, MONG KOK, KOWLOON",
  "adr_tc": "\u4e5d\u9f8d\u65fa\u89d2\u82b1\u5712\u8857221\u865f\u5730\u4e0b \u9eb5\u7559\u9999\u9b5a\u86cb\u7247\u982d\u5c08\u9580\u5e97",
  "geocode_en": [
    {
      "address_components": [
        {
          "long_name": "Hong Kong",
          "short_name": "HK",
          "types": [
            "country",
            "political"
          ]
        }
      ],
      "formatted_address": "Hong Kong, \u592a\u5b50\u82b1\u5712\u8857215\u865f\u5730\u4e0b",
      "geometry": {
        "location": {
          "lat": 22.325184,
          "lng": 114.169825
        },
        "location_type": "GEOMETRIC_CENTER",
        "viewport": {
          "northeast": {
            "lat": 22.3265329802915,
            "lng": 114.1711739802915
          },
          "southwest": {
            "lat": 22.3238350197085,
            "lng": 114.1684760197085
          }
        }
      },
      "partial_match": true,
      "place_id": "ChIJy_8Mj8kABDQReveMhMXLYrY",
      "plus_code": {
        "compound_code": "85G9+3W Hong Kong",
        "global_code": "7PJP85G9+3W"
      },
      "types": [
        "establishment",
        "food",
        "point_of_interest",
        "restaurant"
      ]
    },
    {
      "address_components": [
        {
          "long_name": "G/F, NO",
          "short_name": "G/F, NO",
          "types": [
            "subpremise"
          ]
        },
        {
          "long_name": "221",
          "short_name": "221",
          "types": [
            "street_number"
          ]
        },
        {
          "long_name": "Fa Yuen Street",
          "short_name": "Fa Yuen St",
          "types": [
            "route"
          ]
        },
        {
          "long_name": "Prince Edward",
          "short_name": "Prince Edward",
          "types": [
            "neighborhood",
            "political"
          ]
        },
        {
          "long_name": "Kowloon",
          "short_name": "Kowloon",
          "types": [
            "administrative_area_level_1",
            "political"
          ]
        },
        {
          "long_name": "Hong Kong",
          "short_name": "HK",
          "types": [
            "country",
            "political"
          ]
        }
      ],
      "formatted_address": "G/F, NO, 221 Fa Yuen St, Prince Edward, Hong Kong",
      "geometry": {
        "location": {
          "lat": 22.3253055,
          "lng": 114.169803
        },
        "location_type": "ROOFTOP",
        "viewport": {
          "northeast": {
            "lat": 22.3266544802915,
            "lng": 114.1711519802915
          },
          "southwest": {
            "lat": 22.3239565197085,
            "lng": 114.1684540197085
          }
        }
      },
      "partial_match": true,
      "place_id": "EjFHL0YsIE5PLCAyMjEgRmEgWXVlbiBTdCwgUHJpbmNlIEVkd2FyZCwgSG9uZyBLb25nIiMaIQoWChQKEglV7y-PyQAENBEIxKrEL3bEKRIHRy9GLCBOTw",
      "types": [
        "subpremise"
      ]
    }
  ],
  "geocode_tc": [
    {
      "address_components": [
        {
          "long_name": "\u9999\u6e2f",
          "short_name": "HK",
          "types": [
            "country",
            "political"
          ]
        }
      ],
      "formatted_address": "\u9999\u6e2f\u592a\u5b50\u82b1\u5712\u8857215\u865f\u5730\u4e0b",
      "geometry": {
        "location": {
          "lat": 22.325184,
          "lng": 114.169825
        },
        "location_type": "GEOMETRIC_CENTER",
        "viewport": {
          "northeast": {
            "lat": 22.3265329802915,
            "lng": 114.1711739802915
          },
          "southwest": {
            "lat": 22.3238350197085,
            "lng": 114.1684760197085
          }
        }
      },
      "place_id": "ChIJy_8Mj8kABDQReveMhMXLYrY",
      "plus_code": {
        "compound_code": "85G9+3W \u9999\u6e2f",
        "global_code": "7PJP85G9+3W"
      },
      "types": [
        "establishment",
        "food",
        "point_of_interest",
        "restaurant"
      ]
    }
  ],
  "licno": "2262809597",
  "timestamp": 1564968756,
  "version": "1564966095"
}
