{
  "adr_en": "SHEK TONG TSUI DRAGON PALACE RESTAURANT, SHOP 2, G/F (PTN) AND 1/F, DRAGON FAIR GARDEN, 455-485 QUEEN'S ROAD WEST, WESTERN, HONG KONG",
  "adr_tc": "\u9999\u6e2f\u7687\u540e\u5927\u9053\u897f455-485\u865f \u9f8d\u6689\u82b1\u5712\u5730\u4e0b(\u90e8\u4efd)\u53ca1\u6a132\u865f\u8216 \u77f3\u5858\u5480\u9f8d\u5bf6\u9152\u5bb6",
  "geocode_en": [
    {
      "address_components": [
        {
          "long_name": "455-485",
          "short_name": "455-485",
          "types": [
            "street_number"
          ]
        },
        {
          "long_name": "Queen's Road West",
          "short_name": "Queen's Rd W",
          "types": [
            "route"
          ]
        },
        {
          "long_name": "Hong Kong",
          "short_name": "HK",
          "types": [
            "country",
            "political"
          ]
        }
      ],
      "formatted_address": "\u9999\u6e2f\u7687\u540e\u5927\u9053\u897f455-485\u865f\u9f8d\u6689\u82b1\u5712 / DRAGONFAIR GARDEN, 455-485 Queen's Rd W, Hong Kong",
      "geometry": {
        "location": {
          "lat": 22.28639,
          "lng": 114.13472
        },
        "location_type": "ROOFTOP",
        "viewport": {
          "northeast": {
            "lat": 22.2877389802915,
            "lng": 114.1360689802915
          },
          "southwest": {
            "lat": 22.28504101970849,
            "lng": 114.1333710197085
          }
        }
      },
      "partial_match": true,
      "place_id": "ChIJd9J-gYT_AzQRsIYarFQg_Wk",
      "plus_code": {
        "compound_code": "74PM+HV Hong Kong",
        "global_code": "7PJP74PM+HV"
      },
      "types": [
        "establishment",
        "point_of_interest"
      ]
    }
  ],
  "geocode_tc": [
    {
      "address_components": [
        {
          "long_name": "455-485",
          "short_name": "455-485",
          "types": [
            "street_number"
          ]
        },
        {
          "long_name": "Queen's Road West",
          "short_name": "Queen's Rd W",
          "types": [
            "route"
          ]
        },
        {
          "long_name": "\u9999\u6e2f",
          "short_name": "HK",
          "types": [
            "country",
            "political"
          ]
        }
      ],
      "formatted_address": "\u9999\u6e2f\u7687\u540e\u5927\u9053\u897f455-485\u865f\u9f8d\u6689\u82b1\u5712 / DRAGONFAIR GARDEN, 455-485 Queen's Rd W, \u9999\u6e2f",
      "geometry": {
        "location": {
          "lat": 22.28639,
          "lng": 114.13472
        },
        "location_type": "ROOFTOP",
        "viewport": {
          "northeast": {
            "lat": 22.2877389802915,
            "lng": 114.1360689802915
          },
          "southwest": {
            "lat": 22.28504101970849,
            "lng": 114.1333710197085
          }
        }
      },
      "partial_match": true,
      "place_id": "ChIJd9J-gYT_AzQRsIYarFQg_Wk",
      "plus_code": {
        "compound_code": "74PM+HV \u9999\u6e2f",
        "global_code": "7PJP74PM+HV"
      },
      "types": [
        "establishment",
        "point_of_interest"
      ]
    },
    {
      "address_components": [
        {
          "long_name": "455\uff0d485\u865f",
          "short_name": "455\uff0d485\u865f",
          "types": [
            "street_number"
          ]
        },
        {
          "long_name": "\u7687\u540e\u5927\u9053\u897f",
          "short_name": "\u7687\u540e\u5927\u9053\u897f",
          "types": [
            "route"
          ]
        },
        {
          "long_name": "\u897f\u74b0",
          "short_name": "\u897f\u74b0",
          "types": [
            "neighborhood",
            "political"
          ]
        },
        {
          "long_name": "\u9999\u6e2f\u5cf6",
          "short_name": "\u9999\u6e2f\u5cf6",
          "types": [
            "administrative_area_level_1",
            "political"
          ]
        },
        {
          "long_name": "\u9999\u6e2f",
          "short_name": "HK",
          "types": [
            "country",
            "political"
          ]
        }
      ],
      "formatted_address": "\u9999\u6e2f\u897f\u74b0\u7687\u540e\u5927\u9053\u897f455\uff0d485\u865f",
      "geometry": {
        "location": {
          "lat": 22.2862741,
          "lng": 114.1346528
        },
        "location_type": "ROOFTOP",
        "viewport": {
          "northeast": {
            "lat": 22.2876230802915,
            "lng": 114.1360017802915
          },
          "southwest": {
            "lat": 22.2849251197085,
            "lng": 114.1333038197085
          }
        }
      },
      "partial_match": true,
      "place_id": "ChIJQ4OHzPb_AzQRRxAN6NfGfos",
      "plus_code": {
        "compound_code": "74PM+GV \u9999\u6e2f",
        "global_code": "7PJP74PM+GV"
      },
      "types": [
        "establishment",
        "food",
        "point_of_interest",
        "restaurant"
      ]
    },
    {
      "address_components": [
        {
          "long_name": "\u9f8d\u6689\u82b1\u57121\u5ea7",
          "short_name": "\u9f8d\u6689\u82b1\u57121\u5ea7",
          "types": [
            "premise"
          ]
        },
        {
          "long_name": "455-485",
          "short_name": "455-485",
          "types": [
            "street_number"
          ]
        },
        {
          "long_name": "\u7687\u540e\u5927\u9053\u897f",
          "short_name": "\u7687\u540e\u5927\u9053\u897f",
          "types": [
            "route"
          ]
        },
        {
          "long_name": "\u897f\u74b0",
          "short_name": "\u897f\u74b0",
          "types": [
            "neighborhood",
            "political"
          ]
        },
        {
          "long_name": "\u9999\u6e2f\u5cf6",
          "short_name": "\u9999\u6e2f\u5cf6",
          "types": [
            "administrative_area_level_1",
            "political"
          ]
        },
        {
          "long_name": "\u9999\u6e2f",
          "short_name": "HK",
          "types": [
            "country",
            "political"
          ]
        }
      ],
      "formatted_address": "\u9999\u6e2f\u897f\u74b0\u7687\u540e\u5927\u9053\u897f455-485\u865f\u9f8d\u6689\u82b1\u57121\u5ea7",
      "geometry": {
        "bounds": {
          "northeast": {
            "lat": 22.2865129,
            "lng": 114.1345851
          },
          "southwest": {
            "lat": 22.28637,
            "lng": 114.134341
          }
        },
        "location": {
          "lat": 22.2864607,
          "lng": 114.1344367
        },
        "location_type": "ROOFTOP",
        "viewport": {
          "northeast": {
            "lat": 22.2877904302915,
            "lng": 114.1358120302915
          },
          "southwest": {
            "lat": 22.28509246970849,
            "lng": 114.1331140697085
          }
        }
      },
      "partial_match": true,
      "place_id": "ChIJr2hVgoT_AzQRbCHOTP7xDbs",
      "types": [
        "premise"
      ]
    },
    {
      "address_components": [
        {
          "long_name": "\u4efd)\u53ca1\u6a13",
          "short_name": "\u4efd)\u53ca1\u6a13",
          "types": [
            "subpremise"
          ]
        },
        {
          "long_name": "\u9f8d\u6689\u82b1\u57121\u5ea7",
          "short_name": "\u9f8d\u6689\u82b1\u57121\u5ea7",
          "types": [
            "premise"
          ]
        },
        {
          "long_name": "455-485",
          "short_name": "455-485",
          "types": [
            "street_number"
          ]
        },
        {
          "long_name": "\u7687\u540e\u5927\u9053\u897f",
          "short_name": "\u7687\u540e\u5927\u9053\u897f",
          "types": [
            "route"
          ]
        },
        {
          "long_name": "\u897f\u74b0",
          "short_name": "\u897f\u74b0",
          "types": [
            "neighborhood",
            "political"
          ]
        },
        {
          "long_name": "\u9999\u6e2f\u5cf6",
          "short_name": "\u9999\u6e2f\u5cf6",
          "types": [
            "administrative_area_level_1",
            "political"
          ]
        },
        {
          "long_name": "\u9999\u6e2f",
          "short_name": "HK",
          "types": [
            "country",
            "political"
          ]
        }
      ],
      "formatted_address": "\u9999\u6e2f\u897f\u74b0\u7687\u540e\u5927\u9053\u897f455-485\u865f\u9f8d\u6689\u82b1\u57121\u5ea7\u4efd)\u53ca1\u6a13",
      "geometry": {
        "bounds": {
          "northeast": {
            "lat": 22.2865129,
            "lng": 114.1345851
          },
          "southwest": {
            "lat": 22.28637,
            "lng": 114.134341
          }
        },
        "location": {
          "lat": 22.2864607,
          "lng": 114.1344367
        },
        "location_type": "ROOFTOP",
        "viewport": {
          "northeast": {
            "lat": 22.2877904302915,
            "lng": 114.1358120302915
          },
          "southwest": {
            "lat": 22.28509246970849,
            "lng": 114.1331140697085
          }
        }
      },
      "partial_match": true,
      "place_id": "ElDku70p5Y-KMeaokywgRHJhZ29uZmFpciBHYXJkZW4gQmxvY2sgMSwgNDU1LTQ4NSBRdWVlbidzIFJkIFcsIFNhaSBXYW4sIEhvbmcgS29uZyInGiUKFgoUChIJr2hVgoT_AzQRbCHOTP7xDbsSC-S7vSnlj4ox5qiT",
      "types": [
        "subpremise"
      ]
    }
  ],
  "licno": "2214115316",
  "timestamp": 1564968756,
  "version": "1564966095"
}
