{
  "adr_en": "\u8001\u8d99\u8d8a\u5357\u9910\u5ef3, PORTION A OF SHOP 1 AND SHOP 2 ON   GROUND FLOOR OF WING FU MANSION, 10-24 PARKES STREET, KOWLOON",
  "adr_tc": "\u4e5d\u9f8d\u767d\u52a0\u58eb\u885710-24\u865f\u6c38\u5bcc\u5927\u5ec8 \u5730\u4e0b1\u865f\u8216(A\u90e8\u4efd)\u53ca2\u865f\u8216 \u8001\u8d99\u8d8a\u5357\u9910\u5ef3",
  "geocode_en": [
    {
      "address_components": [
        {
          "long_name": "25-27",
          "short_name": "25-27",
          "types": [
            "street_number"
          ]
        },
        {
          "long_name": "Man Yuen Street",
          "short_name": "Man Yuen St",
          "types": [
            "route"
          ]
        },
        {
          "long_name": "Jordan",
          "short_name": "Jordan",
          "types": [
            "neighborhood",
            "political"
          ]
        },
        {
          "long_name": "Hong Kong",
          "short_name": "HK",
          "types": [
            "country",
            "political"
          ]
        }
      ],
      "formatted_address": "G/F,, 25-27 Man Yuen St, Jordan, Hong Kong",
      "geometry": {
        "location": {
          "lat": 22.3075123,
          "lng": 114.1661949
        },
        "location_type": "ROOFTOP",
        "viewport": {
          "northeast": {
            "lat": 22.3088612802915,
            "lng": 114.1675438802915
          },
          "southwest": {
            "lat": 22.3061633197085,
            "lng": 114.1648459197085
          }
        }
      },
      "partial_match": true,
      "place_id": "ChIJ0Rj3PZUABDQRH6pIgz7hS8U",
      "plus_code": {
        "compound_code": "8558+2F Hong Kong",
        "global_code": "7PJP8558+2F"
      },
      "types": [
        "establishment",
        "food",
        "point_of_interest",
        "restaurant"
      ]
    },
    {
      "address_components": [
        {
          "long_name": "Wing Fu Mansion",
          "short_name": "Wing Fu Mansion",
          "types": [
            "premise"
          ]
        },
        {
          "long_name": "10-24",
          "short_name": "10-24",
          "types": [
            "street_number"
          ]
        },
        {
          "long_name": "Parkes Street",
          "short_name": "Parkes St",
          "types": [
            "route"
          ]
        },
        {
          "long_name": "Yau Ma Tei",
          "short_name": "Yau Ma Tei",
          "types": [
            "neighborhood",
            "political"
          ]
        },
        {
          "long_name": "Kowloon",
          "short_name": "Kowloon",
          "types": [
            "administrative_area_level_1",
            "political"
          ]
        },
        {
          "long_name": "Hong Kong",
          "short_name": "HK",
          "types": [
            "country",
            "political"
          ]
        }
      ],
      "formatted_address": "Wing Fu Mansion, 10-24 Parkes St, Yau Ma Tei, Hong Kong",
      "geometry": {
        "bounds": {
          "northeast": {
            "lat": 22.303882,
            "lng": 114.170881
          },
          "southwest": {
            "lat": 22.303706,
            "lng": 114.170756
          }
        },
        "location": {
          "lat": 22.3038022,
          "lng": 114.1708045
        },
        "location_type": "ROOFTOP",
        "viewport": {
          "northeast": {
            "lat": 22.3051429802915,
            "lng": 114.1721674802915
          },
          "southwest": {
            "lat": 22.3024450197085,
            "lng": 114.1694695197085
          }
        }
      },
      "partial_match": true,
      "place_id": "ChIJRRjvgusABDQR7Of7ZTmFk28",
      "types": [
        "premise"
      ]
    }
  ],
  "geocode_tc": [
    {
      "address_components": [
        {
          "long_name": "\u865f\u8216",
          "short_name": "\u865f\u8216",
          "types": [
            "subpremise"
          ]
        },
        {
          "long_name": "\u6c38\u5bcc\u5927\u5ec8",
          "short_name": "\u6c38\u5bcc\u5927\u5ec8",
          "types": [
            "premise"
          ]
        },
        {
          "long_name": "10-24",
          "short_name": "10-24",
          "types": [
            "street_number"
          ]
        },
        {
          "long_name": "\u767d\u52a0\u58eb\u8857",
          "short_name": "\u767d\u52a0\u58eb\u8857",
          "types": [
            "route"
          ]
        },
        {
          "long_name": "\u6cb9\u9ebb\u5730",
          "short_name": "\u6cb9\u9ebb\u5730",
          "types": [
            "neighborhood",
            "political"
          ]
        },
        {
          "long_name": "\u4e5d\u9f8d",
          "short_name": "\u4e5d\u9f8d",
          "types": [
            "administrative_area_level_1",
            "political"
          ]
        },
        {
          "long_name": "\u9999\u6e2f",
          "short_name": "HK",
          "types": [
            "country",
            "political"
          ]
        }
      ],
      "formatted_address": "\u9999\u6e2f\u6cb9\u9ebb\u5730\u767d\u52a0\u58eb\u885710-24\u865f\u6c38\u5bcc\u5927\u5ec8\u865f\u8216",
      "geometry": {
        "bounds": {
          "northeast": {
            "lat": 22.303882,
            "lng": 114.170881
          },
          "southwest": {
            "lat": 22.303706,
            "lng": 114.170756
          }
        },
        "location": {
          "lat": 22.3038022,
          "lng": 114.1708045
        },
        "location_type": "ROOFTOP",
        "viewport": {
          "northeast": {
            "lat": 22.3051429802915,
            "lng": 114.1721674802915
          },
          "southwest": {
            "lat": 22.3024450197085,
            "lng": 114.1694695197085
          }
        }
      },
      "partial_match": true,
      "place_id": "Ej_omZ_oiJYsIFdpbmcgRnUgTWFuc2lvbiwgMTAtMjQgUGFya2VzIFN0LCBZYXUgTWEgVGVpLCBIb25nIEtvbmciIhogChYKFAoSCUUY74LrAAQ0Eezn-2U5hZNvEgbomZ_oiJY",
      "types": [
        "subpremise"
      ]
    },
    {
      "address_components": [
        {
          "long_name": "25-27",
          "short_name": "25-27",
          "types": [
            "street_number"
          ]
        },
        {
          "long_name": "Man Yuen Street",
          "short_name": "Man Yuen St",
          "types": [
            "route"
          ]
        },
        {
          "long_name": "Jordan",
          "short_name": "Jordan",
          "types": [
            "neighborhood",
            "political"
          ]
        },
        {
          "long_name": "\u9999\u6e2f",
          "short_name": "HK",
          "types": [
            "country",
            "political"
          ]
        }
      ],
      "formatted_address": "G/F,, 25-27 Man Yuen St, Jordan, \u9999\u6e2f",
      "geometry": {
        "location": {
          "lat": 22.3075123,
          "lng": 114.1661949
        },
        "location_type": "ROOFTOP",
        "viewport": {
          "northeast": {
            "lat": 22.3088612802915,
            "lng": 114.1675438802915
          },
          "southwest": {
            "lat": 22.3061633197085,
            "lng": 114.1648459197085
          }
        }
      },
      "partial_match": true,
      "place_id": "ChIJ0Rj3PZUABDQRH6pIgz7hS8U",
      "plus_code": {
        "compound_code": "8558+2F \u9999\u6e2f",
        "global_code": "7PJP8558+2F"
      },
      "types": [
        "establishment",
        "food",
        "point_of_interest",
        "restaurant"
      ]
    }
  ],
  "licno": "2261802562",
  "timestamp": 1564968756,
  "version": "1564966095"
}
