{
  "adr_en": "\u65b0\u6a02\u5712\u9b5a\u86cb\u7c89, SHOP NO. 15A(REAR PORTION) & 15B, G/F, KAI TIN TOWER, 49 KAI TIN ROAD, LAM TIN, KOWLOON",
  "adr_tc": "\u4e5d\u9f8d\u85cd\u7530\u5553\u7530\u905349\u865f\u5553\u7530\u5927\u5ec8\u5730\u4e0b 15\u865fA(\u5f8c\u9762\u90e8\u4efd)\u53ca15\u865fB\u8216 \u65b0\u6a02\u5712\u9b5a\u86cb\u7c89",
  "geocode_en": [
    {
      "address_components": [
        {
          "long_name": "Hong Kong",
          "short_name": "HK",
          "types": [
            "country",
            "political"
          ]
        }
      ],
      "formatted_address": "Hong Kong, \u85cd\u7530\u555f\u7530\u905351-67\u865f\u555f\u7530\u5546\u5834\u5730\u4e0bA-B\u8216",
      "geometry": {
        "location": {
          "lat": 22.3081361,
          "lng": 114.2341923
        },
        "location_type": "GEOMETRIC_CENTER",
        "viewport": {
          "northeast": {
            "lat": 22.3094850802915,
            "lng": 114.2355412802915
          },
          "southwest": {
            "lat": 22.3067871197085,
            "lng": 114.2328433197085
          }
        }
      },
      "partial_match": true,
      "place_id": "ChIJbdzU7FkBBDQRHz72ongE1CA",
      "plus_code": {
        "compound_code": "865M+7M Hong Kong",
        "global_code": "7PJP865M+7M"
      },
      "types": [
        "establishment",
        "food",
        "point_of_interest",
        "restaurant"
      ]
    },
    {
      "address_components": [
        {
          "long_name": "50\u865f",
          "short_name": "50\u865f",
          "types": [
            "street_number"
          ]
        },
        {
          "long_name": "Kai Tin Road",
          "short_name": "Kai Tin Rd",
          "types": [
            "route"
          ]
        },
        {
          "long_name": "Lam Tin",
          "short_name": "Lam Tin",
          "types": [
            "neighborhood",
            "political"
          ]
        },
        {
          "long_name": "Kowloon",
          "short_name": "Kowloon",
          "types": [
            "administrative_area_level_1",
            "political"
          ]
        },
        {
          "long_name": "Hong Kong",
          "short_name": "HK",
          "types": [
            "country",
            "political"
          ]
        }
      ],
      "formatted_address": "50\u865f Kai Tin Rd, Lam Tin, Hong Kong",
      "geometry": {
        "location": {
          "lat": 22.308714,
          "lng": 114.234947
        },
        "location_type": "ROOFTOP",
        "viewport": {
          "northeast": {
            "lat": 22.3100629802915,
            "lng": 114.2362959802915
          },
          "southwest": {
            "lat": 22.3073650197085,
            "lng": 114.2335980197085
          }
        }
      },
      "partial_match": true,
      "place_id": "ChIJ_RvewFkBBDQRRI2zO725tHk",
      "plus_code": {
        "compound_code": "865M+FX Lam Tin, Hong Kong",
        "global_code": "7PJP865M+FX"
      },
      "types": [
        "establishment",
        "point_of_interest",
        "shopping_mall"
      ]
    },
    {
      "address_components": [
        {
          "long_name": "49",
          "short_name": "49",
          "types": [
            "street_number"
          ]
        },
        {
          "long_name": "Kai Tin Road",
          "short_name": "Kai Tin Rd",
          "types": [
            "route"
          ]
        },
        {
          "long_name": "Lam Tin",
          "short_name": "Lam Tin",
          "types": [
            "neighborhood",
            "political"
          ]
        },
        {
          "long_name": "Kowloon",
          "short_name": "Kowloon",
          "types": [
            "administrative_area_level_1",
            "political"
          ]
        },
        {
          "long_name": "Hong Kong",
          "short_name": "HK",
          "types": [
            "country",
            "political"
          ]
        }
      ],
      "formatted_address": "49 Kai Tin Rd, Lam Tin, Hong Kong",
      "geometry": {
        "location": {
          "lat": 22.3081355,
          "lng": 114.234421
        },
        "location_type": "ROOFTOP",
        "viewport": {
          "northeast": {
            "lat": 22.3094844802915,
            "lng": 114.2357699802915
          },
          "southwest": {
            "lat": 22.3067865197085,
            "lng": 114.2330720197085
          }
        }
      },
      "partial_match": true,
      "place_id": "ChIJcVh8llkBBDQRbv2jwJc9hDM",
      "plus_code": {
        "compound_code": "865M+7Q Hong Kong",
        "global_code": "7PJP865M+7Q"
      },
      "types": [
        "street_address"
      ]
    }
  ],
  "geocode_tc": [
    {
      "address_components": [
        {
          "long_name": "\u555f\u7530\u5927\u5ec8",
          "short_name": "\u555f\u7530\u5927\u5ec8",
          "types": [
            "premise"
          ]
        },
        {
          "long_name": "49-67",
          "short_name": "49-67",
          "types": [
            "street_number"
          ]
        },
        {
          "long_name": "\u5553\u7530\u9053",
          "short_name": "\u5553\u7530\u9053",
          "types": [
            "route"
          ]
        },
        {
          "long_name": "\u85cd\u7530",
          "short_name": "\u85cd\u7530",
          "types": [
            "neighborhood",
            "political"
          ]
        },
        {
          "long_name": "\u4e5d\u9f8d",
          "short_name": "\u4e5d\u9f8d",
          "types": [
            "administrative_area_level_1",
            "political"
          ]
        },
        {
          "long_name": "\u9999\u6e2f",
          "short_name": "HK",
          "types": [
            "country",
            "political"
          ]
        }
      ],
      "formatted_address": "\u9999\u6e2f\u85cd\u7530\u5553\u7530\u905349-67\u865f\u555f\u7530\u5927\u5ec8",
      "geometry": {
        "bounds": {
          "northeast": {
            "lat": 22.308692,
            "lng": 114.2345539
          },
          "southwest": {
            "lat": 22.308114,
            "lng": 114.233796
          }
        },
        "location": {
          "lat": 22.3083379,
          "lng": 114.2341738
        },
        "location_type": "ROOFTOP",
        "viewport": {
          "northeast": {
            "lat": 22.3097519802915,
            "lng": 114.2355239302915
          },
          "southwest": {
            "lat": 22.3070540197085,
            "lng": 114.2328259697085
          }
        }
      },
      "partial_match": true,
      "place_id": "ChIJW_95k1kBBDQRej-oc5B70ts",
      "types": [
        "premise"
      ]
    },
    {
      "address_components": [
        {
          "long_name": "\u9999\u6e2f",
          "short_name": "HK",
          "types": [
            "country",
            "political"
          ]
        }
      ],
      "formatted_address": "\u9999\u6e2f\u85cd\u7530\u555f\u7530\u905351-67\u865f\u555f\u7530\u5546\u5834\u5730\u4e0bA-B\u8216",
      "geometry": {
        "location": {
          "lat": 22.3081361,
          "lng": 114.2341923
        },
        "location_type": "GEOMETRIC_CENTER",
        "viewport": {
          "northeast": {
            "lat": 22.3094850802915,
            "lng": 114.2355412802915
          },
          "southwest": {
            "lat": 22.3067871197085,
            "lng": 114.2328433197085
          }
        }
      },
      "partial_match": true,
      "place_id": "ChIJbdzU7FkBBDQRHz72ongE1CA",
      "plus_code": {
        "compound_code": "865M+7M \u9999\u6e2f",
        "global_code": "7PJP865M+7M"
      },
      "types": [
        "establishment",
        "food",
        "point_of_interest",
        "restaurant"
      ]
    }
  ],
  "licno": "2251801803",
  "timestamp": 1564968756,
  "version": "1564966095"
}
