{
  "adr_en": "\u6f6e\u8208\u7f8e\u98df, SHOPSTALL NO. 308, TAI YUEN MARKET, TAI YUEN ESTATE, TAI PO, NEW TERRITORIES",
  "adr_tc": "\u65b0\u754c\u5927\u57d4\u5927\u5143\u90a8\u5927\u5143\u8857\u5e02308\u865f\u92ea \u6f6e\u8208\u7f8e\u98df",
  "geocode_en": [
    {
      "address_components": [
        {
          "long_name": "Hong Kong",
          "short_name": "HK",
          "types": [
            "country",
            "political"
          ]
        }
      ],
      "formatted_address": "Hong Kong, \u5927\u57d4\u5927\u5143\u90a8\u5927\u5143\u8857\u5e02308\u865f\u8216",
      "geometry": {
        "location": {
          "lat": 22.4539204,
          "lng": 114.1678743
        },
        "location_type": "GEOMETRIC_CENTER",
        "viewport": {
          "northeast": {
            "lat": 22.4552693802915,
            "lng": 114.1692232802915
          },
          "southwest": {
            "lat": 22.45257141970849,
            "lng": 114.1665253197085
          }
        }
      },
      "place_id": "ChIJdd9x_0cIBDQR4AxH3w_ZeNU",
      "plus_code": {
        "compound_code": "F539+H4 Hong Kong",
        "global_code": "7PJPF539+H4"
      },
      "types": [
        "establishment",
        "food",
        "point_of_interest",
        "restaurant"
      ]
    }
  ],
  "geocode_tc": [
    {
      "address_components": [
        {
          "long_name": "\u9999\u6e2f",
          "short_name": "HK",
          "types": [
            "country",
            "political"
          ]
        }
      ],
      "formatted_address": "\u9999\u6e2f\u5927\u57d4\u5927\u5143\u90a8\u5927\u5143\u8857\u5e02308\u865f\u8216",
      "geometry": {
        "location": {
          "lat": 22.4539204,
          "lng": 114.1678743
        },
        "location_type": "GEOMETRIC_CENTER",
        "viewport": {
          "northeast": {
            "lat": 22.4552693802915,
            "lng": 114.1692232802915
          },
          "southwest": {
            "lat": 22.45257141970849,
            "lng": 114.1665253197085
          }
        }
      },
      "place_id": "ChIJdd9x_0cIBDQR4AxH3w_ZeNU",
      "plus_code": {
        "compound_code": "F539+H4 \u9999\u6e2f",
        "global_code": "7PJPF539+H4"
      },
      "types": [
        "establishment",
        "food",
        "point_of_interest",
        "restaurant"
      ]
    },
    {
      "address_components": [
        {
          "long_name": "\u5b89\u6cf0\u8def",
          "short_name": "\u5b89\u6cf0\u8def",
          "types": [
            "route"
          ]
        },
        {
          "long_name": "\u5927\u57d4",
          "short_name": "\u5927\u57d4",
          "types": [
            "neighborhood",
            "political"
          ]
        },
        {
          "long_name": "\u65b0\u754c",
          "short_name": "\u65b0\u754c",
          "types": [
            "administrative_area_level_1",
            "political"
          ]
        },
        {
          "long_name": "\u9999\u6e2f",
          "short_name": "HK",
          "types": [
            "country",
            "political"
          ]
        }
      ],
      "formatted_address": "\u9999\u6e2f\u5927\u57d4\u5b89\u6cf0\u8def",
      "geometry": {
        "location": {
          "lat": 22.454748,
          "lng": 114.1687474
        },
        "location_type": "GEOMETRIC_CENTER",
        "viewport": {
          "northeast": {
            "lat": 22.4560969802915,
            "lng": 114.1700963802915
          },
          "southwest": {
            "lat": 22.4533990197085,
            "lng": 114.1673984197085
          }
        }
      },
      "place_id": "ChIJlejx5TcIBDQR5TqxK43Wxuk",
      "plus_code": {
        "compound_code": "F539+VF \u9999\u6e2f",
        "global_code": "7PJPF539+VF"
      },
      "types": [
        "establishment",
        "point_of_interest"
      ]
    }
  ],
  "licno": "2295801070",
  "timestamp": 1564975666,
  "version": "1564966095"
}
