{
  "adr_en": "Yoshinoya, G/F (PORTION) AND BASEMENT, TOI SHAN CENTRE, 128 JOHNSTON ROAD, WAN CHAI, HONG KONG",
  "adr_tc": "\u9999\u6e2f\u7063\u4ed4\u838a\u58eb\u6566\u9053128\u865f\u53f0\u5c71\u4e2d\u5fc3\u5730\u4e0b(\u90e8\u4efd)\u53ca\u5730\u5eab \u5409\u91ce\u5bb6",
  "geocode_en": [
    {
      "address_components": [
        {
          "long_name": "Toi Shan Centre",
          "short_name": "Toi Shan Centre",
          "types": [
            "premise"
          ]
        },
        {
          "long_name": "124-128",
          "short_name": "124-128",
          "types": [
            "street_number"
          ]
        },
        {
          "long_name": "Johnston Road",
          "short_name": "Johnston Rd",
          "types": [
            "route"
          ]
        },
        {
          "long_name": "Wan Chai",
          "short_name": "Wan Chai",
          "types": [
            "neighborhood",
            "political"
          ]
        },
        {
          "long_name": "Hong Kong Island",
          "short_name": "Hong Kong Island",
          "types": [
            "administrative_area_level_1",
            "political"
          ]
        },
        {
          "long_name": "Hong Kong",
          "short_name": "HK",
          "types": [
            "country",
            "political"
          ]
        }
      ],
      "formatted_address": "Toi Shan Centre, 124-128 Johnston Rd, Wan Chai, Hong Kong",
      "geometry": {
        "bounds": {
          "northeast": {
            "lat": 22.276502,
            "lng": 114.173551
          },
          "southwest": {
            "lat": 22.276393,
            "lng": 114.173436
          }
        },
        "location": {
          "lat": 22.2764342,
          "lng": 114.1734983
        },
        "location_type": "ROOFTOP",
        "viewport": {
          "northeast": {
            "lat": 22.2777964802915,
            "lng": 114.1748424802915
          },
          "southwest": {
            "lat": 22.2750985197085,
            "lng": 114.1721445197085
          }
        }
      },
      "partial_match": true,
      "place_id": "ChIJk3Orn1wABDQR0qx6ilcRkLM",
      "types": [
        "premise"
      ]
    }
  ],
  "geocode_tc": [
    {
      "address_components": [
        {
          "long_name": "\u53f0\u5c71\u4e2d\u5fc3",
          "short_name": "\u53f0\u5c71\u4e2d\u5fc3",
          "types": [
            "premise"
          ]
        },
        {
          "long_name": "124-128",
          "short_name": "124-128",
          "types": [
            "street_number"
          ]
        },
        {
          "long_name": "\u838a\u58eb\u6566\u9053",
          "short_name": "\u838a\u58eb\u6566\u9053",
          "types": [
            "route"
          ]
        },
        {
          "long_name": "\u7063\u4ed4",
          "short_name": "\u7063\u4ed4",
          "types": [
            "neighborhood",
            "political"
          ]
        },
        {
          "long_name": "\u9999\u6e2f\u5cf6",
          "short_name": "\u9999\u6e2f\u5cf6",
          "types": [
            "administrative_area_level_1",
            "political"
          ]
        },
        {
          "long_name": "\u9999\u6e2f",
          "short_name": "HK",
          "types": [
            "country",
            "political"
          ]
        }
      ],
      "formatted_address": "\u9999\u6e2f\u7063\u4ed4\u838a\u58eb\u6566\u9053124-128\u865f\u53f0\u5c71\u4e2d\u5fc3",
      "geometry": {
        "bounds": {
          "northeast": {
            "lat": 22.276502,
            "lng": 114.173551
          },
          "southwest": {
            "lat": 22.276393,
            "lng": 114.173436
          }
        },
        "location": {
          "lat": 22.2764342,
          "lng": 114.1734983
        },
        "location_type": "ROOFTOP",
        "viewport": {
          "northeast": {
            "lat": 22.2777964802915,
            "lng": 114.1748424802915
          },
          "southwest": {
            "lat": 22.2750985197085,
            "lng": 114.1721445197085
          }
        }
      },
      "partial_match": true,
      "place_id": "ChIJk3Orn1wABDQR0qx6ilcRkLM",
      "types": [
        "premise"
      ]
    }
  ],
  "licno": "2212814163",
  "timestamp": 1564966180,
  "version": "1564966095"
}
