{
  "adr_en": "Schooner Pub, 2/F, ORIENTAL CRYSTAL FINANCE CENTRE, 107-109 CHATHAM ROAD SOUTH, TSIM SHA TSUI, KOWLOON",
  "adr_tc": "\u4e5d\u9f8d\u5c16\u6c99\u5480\u6f06\u54b8\u9053\u5357107-109\u865f\u4e2d\u6676\u91d1\u878d\u4e2d\u5fc32\u5b57\u6a13 Schooner Pub",
  "geocode_en": [
    {
      "address_components": [
        {
          "long_name": "Oriental Crystal Finance Centre",
          "short_name": "Oriental Crystal Finance Centre",
          "types": [
            "premise"
          ]
        },
        {
          "long_name": "107-109",
          "short_name": "107-109",
          "types": [
            "street_number"
          ]
        },
        {
          "long_name": "Chatham Road South",
          "short_name": "Chatham Rd S",
          "types": [
            "route"
          ]
        },
        {
          "long_name": "Tsim Sha Tsui",
          "short_name": "Tsim Sha Tsui",
          "types": [
            "neighborhood",
            "political"
          ]
        },
        {
          "long_name": "Kowloon",
          "short_name": "Kowloon",
          "types": [
            "administrative_area_level_1",
            "political"
          ]
        },
        {
          "long_name": "Hong Kong",
          "short_name": "HK",
          "types": [
            "country",
            "political"
          ]
        }
      ],
      "formatted_address": "Oriental Crystal Finance Centre, 107-109 Chatham Rd S, Tsim Sha Tsui, Hong Kong",
      "geometry": {
        "bounds": {
          "northeast": {
            "lat": 22.3014201,
            "lng": 114.176359
          },
          "southwest": {
            "lat": 22.3012169,
            "lng": 114.1761649
          }
        },
        "location": {
          "lat": 22.3013253,
          "lng": 114.1762849
        },
        "location_type": "ROOFTOP",
        "viewport": {
          "northeast": {
            "lat": 22.3026674802915,
            "lng": 114.1776109302915
          },
          "southwest": {
            "lat": 22.2999695197085,
            "lng": 114.1749129697085
          }
        }
      },
      "partial_match": true,
      "place_id": "ChIJaYBV2e4ABDQRIOASgR0HcQg",
      "types": [
        "premise"
      ]
    }
  ],
  "geocode_tc": [
    {
      "address_components": [
        {
          "long_name": "\u4e2d\u6676\u91d1\u878d\u4e2d\u5fc3",
          "short_name": "\u4e2d\u6676\u91d1\u878d\u4e2d\u5fc3",
          "types": [
            "premise"
          ]
        },
        {
          "long_name": "107-109",
          "short_name": "107-109",
          "types": [
            "street_number"
          ]
        },
        {
          "long_name": "\u6f06\u54b8\u9053\u5357",
          "short_name": "\u6f06\u54b8\u9053\u5357",
          "types": [
            "route"
          ]
        },
        {
          "long_name": "\u5c16\u6c99\u5480",
          "short_name": "\u5c16\u6c99\u5480",
          "types": [
            "neighborhood",
            "political"
          ]
        },
        {
          "long_name": "\u4e5d\u9f8d",
          "short_name": "\u4e5d\u9f8d",
          "types": [
            "administrative_area_level_1",
            "political"
          ]
        },
        {
          "long_name": "\u9999\u6e2f",
          "short_name": "HK",
          "types": [
            "country",
            "political"
          ]
        }
      ],
      "formatted_address": "\u9999\u6e2f\u5c16\u6c99\u5480\u6f06\u54b8\u9053\u5357107-109\u865f\u4e2d\u6676\u91d1\u878d\u4e2d\u5fc3",
      "geometry": {
        "bounds": {
          "northeast": {
            "lat": 22.3014201,
            "lng": 114.176359
          },
          "southwest": {
            "lat": 22.3012169,
            "lng": 114.1761649
          }
        },
        "location": {
          "lat": 22.3013253,
          "lng": 114.1762849
        },
        "location_type": "ROOFTOP",
        "viewport": {
          "northeast": {
            "lat": 22.3026674802915,
            "lng": 114.1776109302915
          },
          "southwest": {
            "lat": 22.2999695197085,
            "lng": 114.1749129697085
          }
        }
      },
      "partial_match": true,
      "place_id": "ChIJaYBV2e4ABDQRIOASgR0HcQg",
      "types": [
        "premise"
      ]
    }
  ],
  "licno": "3161805204",
  "timestamp": 1564975666,
  "version": "1564966095"
}
