{
  "adr_en": "\u597d\u5ba2\u6751, SHOP NO. 28, G/F, WING FAI PLAZA, 29-35 TING KOK ROAD, TAI PO, NEW TERRITORIES",
  "adr_tc": "\u65b0\u754c\u5927\u57d4\u6c40\u89d2\u8def29-35\u865f\u69ae\u6689\u82b1\u5712\u5730\u4e0b28\u865f\u8216 \u597d\u5ba2\u6751",
  "geocode_en": [
    {
      "address_components": [
        {
          "long_name": "29-35",
          "short_name": "29-35",
          "types": [
            "street_number"
          ]
        },
        {
          "long_name": "Ting Tai Road",
          "short_name": "Ting Tai Rd",
          "types": [
            "route"
          ]
        },
        {
          "long_name": "Tai Po",
          "short_name": "Tai Po",
          "types": [
            "neighborhood",
            "political"
          ]
        },
        {
          "long_name": "New Territories",
          "short_name": "New Territories",
          "types": [
            "administrative_area_level_1",
            "political"
          ]
        },
        {
          "long_name": "Hong Kong",
          "short_name": "HK",
          "types": [
            "country",
            "political"
          ]
        }
      ],
      "formatted_address": "29-35 Ting Tai Rd, Tai Po, Hong Kong",
      "geometry": {
        "location": {
          "lat": 22.453329,
          "lng": 114.165305
        },
        "location_type": "ROOFTOP",
        "viewport": {
          "northeast": {
            "lat": 22.4546779802915,
            "lng": 114.1666539802915
          },
          "southwest": {
            "lat": 22.4519800197085,
            "lng": 114.1639560197085
          }
        }
      },
      "partial_match": true,
      "place_id": "ChIJl8q3pN4JBDQRYF7HzG3K5Po",
      "plus_code": {
        "compound_code": "F538+84 Hong Kong",
        "global_code": "7PJPF538+84"
      },
      "types": [
        "establishment",
        "food",
        "point_of_interest",
        "restaurant"
      ]
    },
    {
      "address_components": [
        {
          "long_name": "Wing Fai Plaza",
          "short_name": "Wing Fai Plaza",
          "types": [
            "premise"
          ]
        },
        {
          "long_name": "29-35",
          "short_name": "29-35",
          "types": [
            "street_number"
          ]
        },
        {
          "long_name": "Ting Kok Road",
          "short_name": "Ting Kok Rd",
          "types": [
            "route"
          ]
        },
        {
          "long_name": "Tai Po",
          "short_name": "Tai Po",
          "types": [
            "neighborhood",
            "political"
          ]
        },
        {
          "long_name": "New Territories",
          "short_name": "New Territories",
          "types": [
            "administrative_area_level_1",
            "political"
          ]
        },
        {
          "long_name": "Hong Kong",
          "short_name": "HK",
          "types": [
            "country",
            "political"
          ]
        }
      ],
      "formatted_address": "Wing Fai Plaza, 29-35 Ting Kok Rd, Tai Po, Hong Kong",
      "geometry": {
        "bounds": {
          "northeast": {
            "lat": 22.453524,
            "lng": 114.16567
          },
          "southwest": {
            "lat": 22.453237,
            "lng": 114.1654041
          }
        },
        "location": {
          "lat": 22.45339,
          "lng": 114.1655562
        },
        "location_type": "ROOFTOP",
        "viewport": {
          "northeast": {
            "lat": 22.4547294802915,
            "lng": 114.1668860302915
          },
          "southwest": {
            "lat": 22.45203151970849,
            "lng": 114.1641880697085
          }
        }
      },
      "partial_match": true,
      "place_id": "ChIJFWQQODgIBDQRFMqR-pOF_SE",
      "types": [
        "premise"
      ]
    }
  ],
  "geocode_tc": [
    {
      "address_components": [
        {
          "long_name": "\u69ae\u6689\u82b1\u5712",
          "short_name": "\u69ae\u6689\u82b1\u5712",
          "types": [
            "premise"
          ]
        },
        {
          "long_name": "29-35",
          "short_name": "29-35",
          "types": [
            "street_number"
          ]
        },
        {
          "long_name": "\u6c40\u89d2\u8def",
          "short_name": "\u6c40\u89d2\u8def",
          "types": [
            "route"
          ]
        },
        {
          "long_name": "\u5927\u57d4",
          "short_name": "\u5927\u57d4",
          "types": [
            "neighborhood",
            "political"
          ]
        },
        {
          "long_name": "\u65b0\u754c",
          "short_name": "\u65b0\u754c",
          "types": [
            "administrative_area_level_1",
            "political"
          ]
        },
        {
          "long_name": "\u9999\u6e2f",
          "short_name": "HK",
          "types": [
            "country",
            "political"
          ]
        }
      ],
      "formatted_address": "\u9999\u6e2f\u5927\u57d4\u6c40\u89d2\u8def29-35\u865f\u69ae\u6689\u82b1\u5712",
      "geometry": {
        "bounds": {
          "northeast": {
            "lat": 22.453524,
            "lng": 114.16567
          },
          "southwest": {
            "lat": 22.453237,
            "lng": 114.1654041
          }
        },
        "location": {
          "lat": 22.45339,
          "lng": 114.1655562
        },
        "location_type": "ROOFTOP",
        "viewport": {
          "northeast": {
            "lat": 22.4547294802915,
            "lng": 114.1668860302915
          },
          "southwest": {
            "lat": 22.45203151970849,
            "lng": 114.1641880697085
          }
        }
      },
      "partial_match": true,
      "place_id": "ChIJFWQQODgIBDQRFMqR-pOF_SE",
      "types": [
        "premise"
      ]
    },
    {
      "address_components": [
        {
          "long_name": "29-35",
          "short_name": "29-35",
          "types": [
            "street_number"
          ]
        },
        {
          "long_name": "\u6c40\u592a\u8def",
          "short_name": "\u6c40\u592a\u8def",
          "types": [
            "route"
          ]
        },
        {
          "long_name": "\u5927\u57d4",
          "short_name": "\u5927\u57d4",
          "types": [
            "neighborhood",
            "political"
          ]
        },
        {
          "long_name": "\u65b0\u754c",
          "short_name": "\u65b0\u754c",
          "types": [
            "administrative_area_level_1",
            "political"
          ]
        },
        {
          "long_name": "\u9999\u6e2f",
          "short_name": "HK",
          "types": [
            "country",
            "political"
          ]
        }
      ],
      "formatted_address": "\u9999\u6e2f\u5927\u57d4\u6c40\u592a\u8def29-35\u865f",
      "geometry": {
        "location": {
          "lat": 22.453329,
          "lng": 114.165305
        },
        "location_type": "ROOFTOP",
        "viewport": {
          "northeast": {
            "lat": 22.4546779802915,
            "lng": 114.1666539802915
          },
          "southwest": {
            "lat": 22.4519800197085,
            "lng": 114.1639560197085
          }
        }
      },
      "partial_match": true,
      "place_id": "ChIJl8q3pN4JBDQRYF7HzG3K5Po",
      "plus_code": {
        "compound_code": "F538+84 \u9999\u6e2f",
        "global_code": "7PJPF538+84"
      },
      "types": [
        "establishment",
        "food",
        "point_of_interest",
        "restaurant"
      ]
    }
  ],
  "licno": "2295000552",
  "timestamp": 1564975666,
  "version": "1564966095"
}
