{
  "adr_en": "SUBWAY, PORTION B, SHOP NO. 9, G/F., NGONG PING THEME VILLAGE, LANTAU ISLAND, HONG KONG",
  "adr_tc": "\u9999\u6e2f\u5927\u5dbc\u5c71\u6602\u576a\u5e02\u96c6\u5730\u4e0b9\u865f\u8216B\u90e8\u4efd SUBWAY",
  "geocode_en": [
    {
      "address_components": [
        {
          "long_name": "Hong Kong",
          "short_name": "HK",
          "types": [
            "country",
            "political"
          ]
        }
      ],
      "formatted_address": "Hong Kong, \u5927\u5dbc\u5c71\u6602\u576a\u8def\u6602\u576a\u5e02\u96c6\u300c\u8207\u4f5b\u540c\u884c\u300d\u53ca\u300c\u9748\u7334\u5f71\u9662\u300d\u5730\u4e0b",
      "geometry": {
        "location": {
          "lat": 22.256406,
          "lng": 113.90308
        },
        "location_type": "GEOMETRIC_CENTER",
        "viewport": {
          "northeast": {
            "lat": 22.2577549802915,
            "lng": 113.9044289802915
          },
          "southwest": {
            "lat": 22.2550570197085,
            "lng": 113.9017310197085
          }
        }
      },
      "partial_match": true,
      "place_id": "ChIJR5BSLfRYATQRwr-hru7kb00",
      "plus_code": {
        "compound_code": "7W43+H6 Hong Kong",
        "global_code": "7PJM7W43+H6"
      },
      "types": [
        "establishment",
        "movie_theater",
        "point_of_interest"
      ]
    }
  ],
  "geocode_tc": [
    {
      "address_components": [
        {
          "long_name": "\u6602\u576a\u5e02\u96c6",
          "short_name": "\u6602\u576a\u5e02\u96c6",
          "types": [
            "premise"
          ]
        },
        {
          "long_name": "111",
          "short_name": "111",
          "types": [
            "street_number"
          ]
        },
        {
          "long_name": "\u6602\u5e73\u8def",
          "short_name": "\u6602\u5e73\u8def",
          "types": [
            "route"
          ]
        },
        {
          "long_name": "\u6602\u576a",
          "short_name": "\u6602\u576a",
          "types": [
            "neighborhood",
            "political"
          ]
        },
        {
          "long_name": "\u65b0\u754c",
          "short_name": "\u65b0\u754c",
          "types": [
            "administrative_area_level_1",
            "political"
          ]
        },
        {
          "long_name": "\u9999\u6e2f",
          "short_name": "HK",
          "types": [
            "country",
            "political"
          ]
        }
      ],
      "formatted_address": "\u9999\u6e2f\u6602\u576a\u6602\u5e73\u8def111\u865f\u6602\u576a\u5e02\u96c6",
      "geometry": {
        "bounds": {
          "northeast": {
            "lat": 22.2569521,
            "lng": 113.902599
          },
          "southwest": {
            "lat": 22.2566701,
            "lng": 113.901865
          }
        },
        "location": {
          "lat": 22.256888,
          "lng": 113.9022053
        },
        "location_type": "ROOFTOP",
        "viewport": {
          "northeast": {
            "lat": 22.2581600802915,
            "lng": 113.9035809802915
          },
          "southwest": {
            "lat": 22.2554621197085,
            "lng": 113.9008830197085
          }
        }
      },
      "partial_match": true,
      "place_id": "ChIJr5FDOvRYATQRgOeQyZO6BsM",
      "types": [
        "premise"
      ]
    }
  ],
  "licno": "3117800491",
  "timestamp": 1564975666,
  "version": "1564966095"
}
