{
  "adr_en": "Yeh Lam Kwok Restaurant, SHOP 524-527, LEVEL 5, TSZ WAN SHAN SHOPPING CENTRE, 23 YUK WAH STREET, TSZ WAN SHAN, KOWLOON",
  "adr_tc": "\u4e5d\u9f8d\u9ec3\u5927\u4ed9\u6bd3\u83ef\u885723\u865f \u6148\u96f2\u5c71\u4e2d\u5fc35\u6a13524-527\u865f\u8216 \u6930\u6797\u95a3\u9910\u5ef3",
  "geocode_en": [
    {
      "address_components": [
        {
          "long_name": "Hong Kong",
          "short_name": "HK",
          "types": [
            "country",
            "political"
          ]
        }
      ],
      "formatted_address": "Shop 524-527, 5/F, Tsz Wan Shan Shopping Centre, 23 Yuk Wah Street, Tsz Wan Shan, Hong Kong",
      "geometry": {
        "location": {
          "lat": 22.3482096,
          "lng": 114.2005978
        },
        "location_type": "GEOMETRIC_CENTER",
        "viewport": {
          "northeast": {
            "lat": 22.3495585802915,
            "lng": 114.2019467802915
          },
          "southwest": {
            "lat": 22.3468606197085,
            "lng": 114.1992488197085
          }
        }
      },
      "place_id": "ChIJKwtTeN0GBDQRAl7eJ_qcFOU",
      "types": [
        "establishment",
        "food",
        "point_of_interest",
        "restaurant"
      ]
    }
  ],
  "geocode_tc": [
    {
      "address_components": [
        {
          "long_name": "\u9999\u6e2f",
          "short_name": "HK",
          "types": [
            "country",
            "political"
          ]
        }
      ],
      "formatted_address": "\u9999\u6e2f\u6148\u96f2\u5c71\u6bd3\u83ef\u885723\u865f\u6148\u96f2\u5c71\u4e2d\u5fc35\u6a13524-527\u865f\u8216",
      "geometry": {
        "location": {
          "lat": 22.348177,
          "lng": 114.200586
        },
        "location_type": "GEOMETRIC_CENTER",
        "viewport": {
          "northeast": {
            "lat": 22.3495259802915,
            "lng": 114.2019349802915
          },
          "southwest": {
            "lat": 22.3468280197085,
            "lng": 114.1992370197085
          }
        }
      },
      "place_id": "ChIJKwtTeN0GBDQR12gbpMUwtA0",
      "types": [
        "establishment",
        "food",
        "point_of_interest",
        "restaurant"
      ]
    }
  ],
  "licno": "2253800141",
  "timestamp": 1564968756,
  "version": "1564966095"
}
