{
  "adr_en": "\u7fe0\u6e56\u8ed2, SHOP B1 & B2, G/F., ON YIP BUILDING, 100 & 104 SAI WAN HO STREET, SAI WAN HO, HONG KONG",
  "adr_tc": "\u9999\u6e2f\u897f\u7063\u6cb3\u897f\u7063\u6cb3\u8857100\u53ca104\u865f\u5b89\u696d\u5927\u5ec8\u5730\u4e0bB1\u53caB2\u8216 \u7fe0\u6e56\u8ed2",
  "geocode_en": [
    {
      "address_components": [
        {
          "long_name": "Hong Kong",
          "short_name": "HK",
          "types": [
            "country",
            "political"
          ]
        }
      ],
      "formatted_address": "Hong Kong, \u897f\u7063\u6cb3\u897f\u7063\u6cb3\u885782-84\u865f\u5730\u4e0b",
      "geometry": {
        "location": {
          "lat": 22.2807197,
          "lng": 114.2226008
        },
        "location_type": "GEOMETRIC_CENTER",
        "viewport": {
          "northeast": {
            "lat": 22.2820686802915,
            "lng": 114.2239497802915
          },
          "southwest": {
            "lat": 22.2793707197085,
            "lng": 114.2212518197085
          }
        }
      },
      "partial_match": true,
      "place_id": "ChIJ-a7HYHYBBDQRsjV7SoqFYwg",
      "plus_code": {
        "compound_code": "76JF+72 Hong Kong",
        "global_code": "7PJP76JF+72"
      },
      "types": [
        "establishment",
        "food",
        "point_of_interest",
        "restaurant"
      ]
    },
    {
      "address_components": [
        {
          "long_name": "On Yip Building",
          "short_name": "On Yip Building",
          "types": [
            "premise"
          ]
        },
        {
          "long_name": "100-104",
          "short_name": "100-104",
          "types": [
            "street_number"
          ]
        },
        {
          "long_name": "Sai Wan Ho Street",
          "short_name": "Sai Wan Ho St",
          "types": [
            "route"
          ]
        },
        {
          "long_name": "Sai Wan Ho",
          "short_name": "Sai Wan Ho",
          "types": [
            "neighborhood",
            "political"
          ]
        },
        {
          "long_name": "Hong Kong Island",
          "short_name": "Hong Kong Island",
          "types": [
            "administrative_area_level_1",
            "political"
          ]
        },
        {
          "long_name": "Hong Kong",
          "short_name": "HK",
          "types": [
            "country",
            "political"
          ]
        }
      ],
      "formatted_address": "On Yip Building, 100-104 Sai Wan Ho St, Sai Wan Ho, Hong Kong",
      "geometry": {
        "bounds": {
          "northeast": {
            "lat": 22.2810921,
            "lng": 114.2224661
          },
          "southwest": {
            "lat": 22.280857,
            "lng": 114.2222361
          }
        },
        "location": {
          "lat": 22.2809814,
          "lng": 114.2223552
        },
        "location_type": "ROOFTOP",
        "viewport": {
          "northeast": {
            "lat": 22.2823235302915,
            "lng": 114.2237000802915
          },
          "southwest": {
            "lat": 22.2796255697085,
            "lng": 114.2210021197085
          }
        }
      },
      "partial_match": true,
      "place_id": "ChIJZW6BYXYBBDQRZir741Ow65c",
      "types": [
        "premise"
      ]
    }
  ],
  "geocode_tc": [
    {
      "address_components": [
        {
          "long_name": "\u5b89\u696d\u5927\u5ec8",
          "short_name": "\u5b89\u696d\u5927\u5ec8",
          "types": [
            "premise"
          ]
        },
        {
          "long_name": "100-104",
          "short_name": "100-104",
          "types": [
            "street_number"
          ]
        },
        {
          "long_name": "\u897f\u7063\u6cb3\u8857",
          "short_name": "\u897f\u7063\u6cb3\u8857",
          "types": [
            "route"
          ]
        },
        {
          "long_name": "\u897f\u7063\u6cb3",
          "short_name": "\u897f\u7063\u6cb3",
          "types": [
            "neighborhood",
            "political"
          ]
        },
        {
          "long_name": "\u9999\u6e2f\u5cf6",
          "short_name": "\u9999\u6e2f\u5cf6",
          "types": [
            "administrative_area_level_1",
            "political"
          ]
        },
        {
          "long_name": "\u9999\u6e2f",
          "short_name": "HK",
          "types": [
            "country",
            "political"
          ]
        }
      ],
      "formatted_address": "\u9999\u6e2f\u897f\u7063\u6cb3\u897f\u7063\u6cb3\u8857100-104\u865f\u5b89\u696d\u5927\u5ec8",
      "geometry": {
        "bounds": {
          "northeast": {
            "lat": 22.2810921,
            "lng": 114.2224661
          },
          "southwest": {
            "lat": 22.280857,
            "lng": 114.2222361
          }
        },
        "location": {
          "lat": 22.2809814,
          "lng": 114.2223552
        },
        "location_type": "ROOFTOP",
        "viewport": {
          "northeast": {
            "lat": 22.2823235302915,
            "lng": 114.2237000802915
          },
          "southwest": {
            "lat": 22.2796255697085,
            "lng": 114.2210021197085
          }
        }
      },
      "partial_match": true,
      "place_id": "ChIJZW6BYXYBBDQRZir741Ow65c",
      "types": [
        "premise"
      ]
    },
    {
      "address_components": [
        {
          "long_name": "\u9999\u6e2f",
          "short_name": "HK",
          "types": [
            "country",
            "political"
          ]
        }
      ],
      "formatted_address": "\u9999\u6e2f\u897f\u7063\u6cb3\u897f\u7063\u6cb3\u885782-84\u865f\u5730\u4e0b",
      "geometry": {
        "location": {
          "lat": 22.2807197,
          "lng": 114.2226008
        },
        "location_type": "GEOMETRIC_CENTER",
        "viewport": {
          "northeast": {
            "lat": 22.2820686802915,
            "lng": 114.2239497802915
          },
          "southwest": {
            "lat": 22.2793707197085,
            "lng": 114.2212518197085
          }
        }
      },
      "partial_match": true,
      "place_id": "ChIJ-a7HYHYBBDQRsjV7SoqFYwg",
      "plus_code": {
        "compound_code": "76JF+72 \u9999\u6e2f",
        "global_code": "7PJP76JF+72"
      },
      "types": [
        "establishment",
        "food",
        "point_of_interest",
        "restaurant"
      ]
    }
  ],
  "licno": "2211806055",
  "timestamp": 1564966180,
  "version": "1564966095"
}
