{
  "adr_en": "The Green Room, MAJOR PORTION OF 26/F., TOWER 535, NO. 535 JAFFE ROAD, CAUSEWAY BAY, HONG KONG",
  "adr_tc": "\u9999\u6e2f\u9285\u947c\u7063\u8b1d\u6590\u9053535\u865fTOWER 535 26\u6a13\u5927\u90e8\u4efd The Green Room",
  "geocode_en": [
    {
      "address_components": [
        {
          "long_name": "26/F., TOWER",
          "short_name": "26/F., TOWER",
          "types": [
            "subpremise"
          ]
        },
        {
          "long_name": "535",
          "short_name": "535",
          "types": [
            "street_number"
          ]
        },
        {
          "long_name": "Jaffe Road",
          "short_name": "Jaffe Rd",
          "types": [
            "route"
          ]
        },
        {
          "long_name": "Causeway Bay",
          "short_name": "Causeway Bay",
          "types": [
            "neighborhood",
            "political"
          ]
        },
        {
          "long_name": "Hong Kong Island",
          "short_name": "Hong Kong Island",
          "types": [
            "administrative_area_level_1",
            "political"
          ]
        },
        {
          "long_name": "Hong Kong",
          "short_name": "HK",
          "types": [
            "country",
            "political"
          ]
        }
      ],
      "formatted_address": "26/F., TOWER, 535 Jaffe Rd, Causeway Bay, Hong Kong",
      "geometry": {
        "bounds": {
          "northeast": {
            "lat": 22.281559,
            "lng": 114.184111
          },
          "southwest": {
            "lat": 22.281226,
            "lng": 114.183757
          }
        },
        "location": {
          "lat": 22.2813968,
          "lng": 114.1839249
        },
        "location_type": "ROOFTOP",
        "viewport": {
          "northeast": {
            "lat": 22.2827414802915,
            "lng": 114.1852829802915
          },
          "southwest": {
            "lat": 22.2800435197085,
            "lng": 114.1825850197085
          }
        }
      },
      "partial_match": true,
      "place_id": "EjMyNi9GLiwgVE9XRVIsIDUzNSBKYWZmZSBSZCwgQ2F1c2V3YXkgQmF5LCBIb25nIEtvbmciKBomChYKFAoSCbma7_RWAAQ0ETKYaxSkjiSyEgwyNi9GLiwgVE9XRVI",
      "types": [
        "subpremise"
      ]
    }
  ],
  "geocode_tc": [
    {
      "address_components": [
        {
          "long_name": "\u6a13\u5927\u90e8\u4efd",
          "short_name": "\u6a13\u5927\u90e8\u4efd",
          "types": [
            "subpremise"
          ]
        },
        {
          "long_name": "535",
          "short_name": "535",
          "types": [
            "street_number"
          ]
        },
        {
          "long_name": "\u8b1d\u6590\u9053",
          "short_name": "\u8b1d\u6590\u9053",
          "types": [
            "route"
          ]
        },
        {
          "long_name": "\u9285\u947c\u7063",
          "short_name": "\u9285\u947c\u7063",
          "types": [
            "neighborhood",
            "political"
          ]
        },
        {
          "long_name": "\u9999\u6e2f\u5cf6",
          "short_name": "\u9999\u6e2f\u5cf6",
          "types": [
            "administrative_area_level_1",
            "political"
          ]
        },
        {
          "long_name": "\u9999\u6e2f",
          "short_name": "HK",
          "types": [
            "country",
            "political"
          ]
        }
      ],
      "formatted_address": "\u9999\u6e2f\u9285\u947c\u7063\u8b1d\u6590\u9053535\u865f\u6a13\u5927\u90e8\u4efd",
      "geometry": {
        "bounds": {
          "northeast": {
            "lat": 22.281559,
            "lng": 114.184111
          },
          "southwest": {
            "lat": 22.281226,
            "lng": 114.183757
          }
        },
        "location": {
          "lat": 22.2813968,
          "lng": 114.1839249
        },
        "location_type": "ROOFTOP",
        "viewport": {
          "northeast": {
            "lat": 22.2827414802915,
            "lng": 114.1852829802915
          },
          "southwest": {
            "lat": 22.2800435197085,
            "lng": 114.1825850197085
          }
        }
      },
      "partial_match": true,
      "place_id": "EjPmqJPlpKfpg6jku70sIDUzNSBKYWZmZSBSZCwgQ2F1c2V3YXkgQmF5LCBIb25nIEtvbmciKBomChYKFAoSCbma7_RWAAQ0ETKYaxSkjiSyEgzmqJPlpKfpg6jku70",
      "types": [
        "subpremise"
      ]
    }
  ],
  "licno": "3812817769",
  "timestamp": 1564975666,
  "version": "1564966095"
}
