{
  "adr_en": "IPPUDO, SHOP A, 3/F., CENTURY SQUARE, 1-13 D'AGUILAR STREET, CENTRAL, HONG KONG",
  "adr_tc": "\u9999\u6e2f\u4e2d\u74b0\u5fb7\u5df1\u7acb\u88571-13\u865f\u4e16\u7d00\u5ee3\u58343\u6a13A\u865f\u8216 IPPUDO",
  "geocode_en": [
    {
      "address_components": [
        {
          "long_name": "Hong Kong",
          "short_name": "HK",
          "types": [
            "country",
            "political"
          ]
        }
      ],
      "formatted_address": "Hong Kong, \u4e2d\u74b0\u5fb7\u5df1\u7acb\u88571-13\u865f\u4e16\u7d00\u5ee3\u58343\u6a13A\u865f\u8216",
      "geometry": {
        "location": {
          "lat": 22.281508,
          "lng": 114.155987
        },
        "location_type": "GEOMETRIC_CENTER",
        "viewport": {
          "northeast": {
            "lat": 22.2828569802915,
            "lng": 114.1573359802915
          },
          "southwest": {
            "lat": 22.2801590197085,
            "lng": 114.1546380197085
          }
        }
      },
      "partial_match": true,
      "place_id": "ChIJpd57y2QABDQRUYwJ1nVoqBk",
      "plus_code": {
        "compound_code": "75J4+J9 Hong Kong",
        "global_code": "7PJP75J4+J9"
      },
      "types": [
        "establishment",
        "food",
        "point_of_interest",
        "restaurant"
      ]
    },
    {
      "address_components": [
        {
          "long_name": "SHOP A",
          "short_name": "SHOP A",
          "types": [
            "subpremise"
          ]
        },
        {
          "long_name": "Century Square",
          "short_name": "Century Square",
          "types": [
            "premise"
          ]
        },
        {
          "long_name": "1",
          "short_name": "1",
          "types": [
            "street_number"
          ]
        },
        {
          "long_name": "D'Aguilar Street",
          "short_name": "D'Aguilar St",
          "types": [
            "route"
          ]
        },
        {
          "long_name": "Central",
          "short_name": "Central",
          "types": [
            "neighborhood",
            "political"
          ]
        },
        {
          "long_name": "Hong Kong Island",
          "short_name": "Hong Kong Island",
          "types": [
            "administrative_area_level_1",
            "political"
          ]
        },
        {
          "long_name": "Hong Kong",
          "short_name": "HK",
          "types": [
            "country",
            "political"
          ]
        }
      ],
      "formatted_address": "SHOP A, Century Square, 1 D'Aguilar St, Central, Hong Kong",
      "geometry": {
        "bounds": {
          "northeast": {
            "lat": 22.2817174,
            "lng": 114.1560745
          },
          "southwest": {
            "lat": 22.2814072,
            "lng": 114.1557814
          }
        },
        "location": {
          "lat": 22.2815521,
          "lng": 114.1559419
        },
        "location_type": "ROOFTOP",
        "viewport": {
          "northeast": {
            "lat": 22.2829112802915,
            "lng": 114.1572769302915
          },
          "southwest": {
            "lat": 22.2802133197085,
            "lng": 114.1545789697085
          }
        }
      },
      "partial_match": true,
      "place_id": "EjpTSE9QIEEsIENlbnR1cnkgU3F1YXJlLCAxIEQnQWd1aWxhciBTdCwgQ2VudHJhbCwgSG9uZyBLb25nIiIaIAoWChQKEgkpQRLLZAAENBH66dptXfQZlBIGU0hPUCBB",
      "types": [
        "subpremise"
      ]
    }
  ],
  "geocode_tc": [
    {
      "address_components": [
        {
          "long_name": "\u9999\u6e2f",
          "short_name": "HK",
          "types": [
            "country",
            "political"
          ]
        }
      ],
      "formatted_address": "\u9999\u6e2f\u4e2d\u74b0\u5fb7\u5df1\u7acb\u88571-13\u865f\u4e16\u7d00\u5ee3\u58343\u6a13A\u865f\u8216",
      "geometry": {
        "location": {
          "lat": 22.281508,
          "lng": 114.155987
        },
        "location_type": "GEOMETRIC_CENTER",
        "viewport": {
          "northeast": {
            "lat": 22.2828569802915,
            "lng": 114.1573359802915
          },
          "southwest": {
            "lat": 22.2801590197085,
            "lng": 114.1546380197085
          }
        }
      },
      "place_id": "ChIJpd57y2QABDQRUYwJ1nVoqBk",
      "plus_code": {
        "compound_code": "75J4+J9 \u9999\u6e2f",
        "global_code": "7PJP75J4+J9"
      },
      "types": [
        "establishment",
        "food",
        "point_of_interest",
        "restaurant"
      ]
    }
  ],
  "licno": "2218805811",
  "timestamp": 1564968756,
  "version": "1564966095"
}
