{
  "adr_en": "\u6d77\u5357\u5c0f\u5eda, SHOP D05, 1/F, HARAJUKU ZONE, KINGSWOOD RICHLY PLAZA, TIN SHUI WAI, YUEN LONG, NEW TERRITORIES",
  "adr_tc": "\u65b0\u754c\u5143\u6717\u5929\u6c34\u570d\u666f\u6e56\u5c45\u65b0\u5317\u6c5f1/F, D05\u865f\u92ea \u6d77\u5357\u5c0f\u5eda",
  "geocode_en": [
    {
      "address_components": [
        {
          "long_name": "Hong Kong",
          "short_name": "HK",
          "types": [
            "country",
            "political"
          ]
        }
      ],
      "formatted_address": "Shop A71-A72 & A84, G/F, Harajuku Zone, Kingswood Richly Plaza, Phase I, 1 Tin Wu Road, Tin Shui Wai, Yuen Long, New Territories, Hong Kong",
      "geometry": {
        "location": {
          "lat": 22.452431,
          "lng": 114.000461
        },
        "location_type": "GEOMETRIC_CENTER",
        "viewport": {
          "northeast": {
            "lat": 22.4537799802915,
            "lng": 114.0018099802915
          },
          "southwest": {
            "lat": 22.4510820197085,
            "lng": 113.9991120197085
          }
        }
      },
      "place_id": "ChIJB6JeD37wAzQREf1DVrtAVpc",
      "plus_code": {
        "compound_code": "F222+X5 Hong Kong",
        "global_code": "7PJPF222+X5"
      },
      "types": [
        "establishment",
        "point_of_interest"
      ]
    }
  ],
  "geocode_tc": [
    {
      "address_components": [
        {
          "long_name": "1",
          "short_name": "1",
          "types": [
            "street_number"
          ]
        },
        {
          "long_name": "\u5929\u6e56\u8def",
          "short_name": "\u5929\u6e56\u8def",
          "types": [
            "route"
          ]
        },
        {
          "long_name": "\u5929\u6c34\u570d",
          "short_name": "\u5929\u6c34\u570d",
          "types": [
            "neighborhood",
            "political"
          ]
        },
        {
          "long_name": "\u65b0\u754c",
          "short_name": "\u65b0\u754c",
          "types": [
            "administrative_area_level_1",
            "political"
          ]
        },
        {
          "long_name": "\u9999\u6e2f",
          "short_name": "HK",
          "types": [
            "country",
            "political"
          ]
        }
      ],
      "formatted_address": "\u9999\u6e2f\u5929\u6c34\u570d\u5929\u6e56\u8def1\u865f",
      "geometry": {
        "location": {
          "lat": 22.4522537,
          "lng": 114.0004029
        },
        "location_type": "ROOFTOP",
        "viewport": {
          "northeast": {
            "lat": 22.4536026802915,
            "lng": 114.0017518802915
          },
          "southwest": {
            "lat": 22.4509047197085,
            "lng": 113.9990539197085
          }
        }
      },
      "partial_match": true,
      "place_id": "ChIJ8YMUEH7wAzQRqzM52GT04cM",
      "plus_code": {
        "compound_code": "F222+W5 \u9999\u6e2f\u5929\u6c34\u570d",
        "global_code": "7PJPF222+W5"
      },
      "types": [
        "establishment",
        "point_of_interest",
        "shopping_mall",
        "store"
      ]
    },
    {
      "address_components": [
        {
          "long_name": "\u9999\u6e2f",
          "short_name": "HK",
          "types": [
            "country",
            "political"
          ]
        }
      ],
      "formatted_address": "\u9999\u6e2f\u5929\u6c34\u570d \u5929\u6e56\u8def1\u865f\u5609\u6e56\u65b0\u5317\u6c5f\u5546\u58341\u6a13D5\u865f\u8216",
      "geometry": {
        "location": {
          "lat": 22.4521924,
          "lng": 114.0001574
        },
        "location_type": "GEOMETRIC_CENTER",
        "viewport": {
          "northeast": {
            "lat": 22.4535413802915,
            "lng": 114.0015063802915
          },
          "southwest": {
            "lat": 22.45084341970849,
            "lng": 113.9988084197085
          }
        }
      },
      "partial_match": true,
      "place_id": "ChIJqfZg4X3wAzQRDA64WBjTre4",
      "plus_code": {
        "compound_code": "F222+V3 \u9999\u6e2f",
        "global_code": "7PJPF222+V3"
      },
      "types": [
        "establishment",
        "food",
        "point_of_interest",
        "restaurant"
      ]
    }
  ],
  "licno": "3194801503",
  "timestamp": 1564975666,
  "version": "1564966095"
}
