{
  "adr_en": "COEDO TAPROOM, SHOP C AND OUTSIDE SEATING ACCOMMODATION AT SHOP FRONT, G/F., TOWNING MANSION, 50-56 PATERSON STREET, CAUSEWAY BAY, HONG KONG",
  "adr_tc": "\u9999\u6e2f\u9285\u947c\u7063\u767e\u5fb7\u65b0\u885750-56\u865f\u5510\u5be7\u5927\u5ec8\u5730\u4e0bC\u865f\u8216\u53ca\u92ea\u524d\u9732\u5929\u5ea7 \u4f4d COEDO TAPROOM",
  "geocode_en": [
    {
      "address_components": [
        {
          "long_name": "Towning Mansion",
          "short_name": "Towning Mansion",
          "types": [
            "premise"
          ]
        },
        {
          "long_name": "Paterson Street",
          "short_name": "Paterson St",
          "types": [
            "route"
          ]
        },
        {
          "long_name": "Causeway Bay",
          "short_name": "Causeway Bay",
          "types": [
            "neighborhood",
            "political"
          ]
        },
        {
          "long_name": "Hong Kong Island",
          "short_name": "Hong Kong Island",
          "types": [
            "administrative_area_level_1",
            "political"
          ]
        },
        {
          "long_name": "Hong Kong",
          "short_name": "HK",
          "types": [
            "country",
            "political"
          ]
        }
      ],
      "formatted_address": "Towning Mansion, Paterson St, Causeway Bay, Hong Kong",
      "geometry": {
        "location": {
          "lat": 22.2817622,
          "lng": 114.1854428
        },
        "location_type": "ROOFTOP",
        "viewport": {
          "northeast": {
            "lat": 22.2831111802915,
            "lng": 114.1867917802915
          },
          "southwest": {
            "lat": 22.2804132197085,
            "lng": 114.1840938197085
          }
        }
      },
      "partial_match": true,
      "place_id": "ChIJL81-eVYABDQR-ZQbhZRB90g",
      "plus_code": {
        "compound_code": "75JP+P5 Hong Kong",
        "global_code": "7PJP75JP+P5"
      },
      "types": [
        "establishment",
        "food",
        "point_of_interest",
        "restaurant"
      ]
    },
    {
      "address_components": [
        {
          "long_name": "Towning Mansion",
          "short_name": "Towning Mansion",
          "types": [
            "premise"
          ]
        },
        {
          "long_name": "50-56",
          "short_name": "50-56",
          "types": [
            "street_number"
          ]
        },
        {
          "long_name": "Paterson Street",
          "short_name": "Paterson St",
          "types": [
            "route"
          ]
        },
        {
          "long_name": "Causeway Bay",
          "short_name": "Causeway Bay",
          "types": [
            "neighborhood",
            "political"
          ]
        },
        {
          "long_name": "Hong Kong Island",
          "short_name": "Hong Kong Island",
          "types": [
            "administrative_area_level_1",
            "political"
          ]
        },
        {
          "long_name": "Hong Kong",
          "short_name": "HK",
          "types": [
            "country",
            "political"
          ]
        }
      ],
      "formatted_address": "Towning Mansion, 50-56 Paterson St, Causeway Bay, Hong Kong",
      "geometry": {
        "bounds": {
          "northeast": {
            "lat": 22.282028,
            "lng": 114.1854168
          },
          "southwest": {
            "lat": 22.2817991,
            "lng": 114.185159
          }
        },
        "location": {
          "lat": 22.2819054,
          "lng": 114.1852895
        },
        "location_type": "ROOFTOP",
        "viewport": {
          "northeast": {
            "lat": 22.28326253029151,
            "lng": 114.1866368802915
          },
          "southwest": {
            "lat": 22.2805645697085,
            "lng": 114.1839389197085
          }
        }
      },
      "partial_match": true,
      "place_id": "ChIJKc1-eVYABDQRnqBt7WydxF4",
      "types": [
        "premise"
      ]
    }
  ],
  "geocode_tc": [
    {
      "address_components": [
        {
          "long_name": "\u5510\u5be7\u5927\u5ec8",
          "short_name": "\u5510\u5be7\u5927\u5ec8",
          "types": [
            "premise"
          ]
        },
        {
          "long_name": "\u767e\u5fb7\u65b0\u8857",
          "short_name": "\u767e\u5fb7\u65b0\u8857",
          "types": [
            "route"
          ]
        },
        {
          "long_name": "\u9285\u947c\u7063",
          "short_name": "\u9285\u947c\u7063",
          "types": [
            "neighborhood",
            "political"
          ]
        },
        {
          "long_name": "\u9999\u6e2f\u5cf6",
          "short_name": "\u9999\u6e2f\u5cf6",
          "types": [
            "administrative_area_level_1",
            "political"
          ]
        },
        {
          "long_name": "\u9999\u6e2f",
          "short_name": "HK",
          "types": [
            "country",
            "political"
          ]
        }
      ],
      "formatted_address": "\u9999\u6e2f\u9285\u947c\u7063\u767e\u5fb7\u65b0\u8857\u5510\u5be7\u5927\u5ec8",
      "geometry": {
        "location": {
          "lat": 22.2817622,
          "lng": 114.1854428
        },
        "location_type": "ROOFTOP",
        "viewport": {
          "northeast": {
            "lat": 22.2831111802915,
            "lng": 114.1867917802915
          },
          "southwest": {
            "lat": 22.2804132197085,
            "lng": 114.1840938197085
          }
        }
      },
      "partial_match": true,
      "place_id": "ChIJL81-eVYABDQR-ZQbhZRB90g",
      "plus_code": {
        "compound_code": "75JP+P5 \u9999\u6e2f",
        "global_code": "7PJP75JP+P5"
      },
      "types": [
        "establishment",
        "food",
        "point_of_interest",
        "restaurant"
      ]
    },
    {
      "address_components": [
        {
          "long_name": "\u5510\u5be7\u5927\u5ec8",
          "short_name": "\u5510\u5be7\u5927\u5ec8",
          "types": [
            "premise"
          ]
        },
        {
          "long_name": "50-56",
          "short_name": "50-56",
          "types": [
            "street_number"
          ]
        },
        {
          "long_name": "\u767e\u5fb7\u65b0\u8857",
          "short_name": "\u767e\u5fb7\u65b0\u8857",
          "types": [
            "route"
          ]
        },
        {
          "long_name": "\u9285\u947c\u7063",
          "short_name": "\u9285\u947c\u7063",
          "types": [
            "neighborhood",
            "political"
          ]
        },
        {
          "long_name": "\u9999\u6e2f\u5cf6",
          "short_name": "\u9999\u6e2f\u5cf6",
          "types": [
            "administrative_area_level_1",
            "political"
          ]
        },
        {
          "long_name": "\u9999\u6e2f",
          "short_name": "HK",
          "types": [
            "country",
            "political"
          ]
        }
      ],
      "formatted_address": "\u9999\u6e2f\u9285\u947c\u7063\u767e\u5fb7\u65b0\u885750-56\u865f\u5510\u5be7\u5927\u5ec8",
      "geometry": {
        "bounds": {
          "northeast": {
            "lat": 22.282028,
            "lng": 114.1854168
          },
          "southwest": {
            "lat": 22.2817991,
            "lng": 114.185159
          }
        },
        "location": {
          "lat": 22.2819054,
          "lng": 114.1852895
        },
        "location_type": "ROOFTOP",
        "viewport": {
          "northeast": {
            "lat": 22.28326253029151,
            "lng": 114.1866368802915
          },
          "southwest": {
            "lat": 22.2805645697085,
            "lng": 114.1839389197085
          }
        }
      },
      "partial_match": true,
      "place_id": "ChIJKc1-eVYABDQRnqBt7WydxF4",
      "types": [
        "premise"
      ]
    }
  ],
  "licno": "2212812130",
  "timestamp": 1564966180,
  "version": "1564966095"
}
