{
  "adr_en": "Cheung Fat Restaurant, 4A, G/F, KA WO BUILDING, 14-22 KA WO STREET, ABERDEEN, SOUTHERN, HONG KONG",
  "adr_tc": "\u9999\u6e2f\u4ed4\u7530\u7063\u5609\u79be\u885714\u81f322\u865f\u5730\u4e0b \u5609\u548c\u5927\u5ec84A\u865f\u8216 \u7965\u767c\u8336\u9910\u5ef3",
  "geocode_en": [
    {
      "address_components": [
        {
          "long_name": "Hong Kong",
          "short_name": "HK",
          "types": [
            "country",
            "political"
          ]
        }
      ],
      "formatted_address": "Shop4A, 14-22 Ka Wo street, Tin Wai, Aberdeen, Hong Kong",
      "geometry": {
        "location": {
          "lat": 22.2498363,
          "lng": 114.1487458
        },
        "location_type": "GEOMETRIC_CENTER",
        "viewport": {
          "northeast": {
            "lat": 22.2511852802915,
            "lng": 114.1500947802915
          },
          "southwest": {
            "lat": 22.2484873197085,
            "lng": 114.1473968197085
          }
        }
      },
      "partial_match": true,
      "place_id": "ChIJnW-rRgEABDQRSmutsaRD9wE",
      "plus_code": {
        "compound_code": "64XX+WF Hong Kong",
        "global_code": "7PJP64XX+WF"
      },
      "types": [
        "establishment",
        "food",
        "point_of_interest",
        "restaurant"
      ]
    },
    {
      "address_components": [
        {
          "long_name": "Ka Wo Building Block B",
          "short_name": "Ka Wo Building Block B",
          "types": [
            "premise"
          ]
        },
        {
          "long_name": "14-22",
          "short_name": "14-22",
          "types": [
            "street_number"
          ]
        },
        {
          "long_name": "Ka Wo Street",
          "short_name": "Ka Wo St",
          "types": [
            "route"
          ]
        },
        {
          "long_name": "Tin Wan",
          "short_name": "Tin Wan",
          "types": [
            "neighborhood",
            "political"
          ]
        },
        {
          "long_name": "Hong Kong Island",
          "short_name": "Hong Kong Island",
          "types": [
            "administrative_area_level_1",
            "political"
          ]
        },
        {
          "long_name": "Hong Kong",
          "short_name": "HK",
          "types": [
            "country",
            "political"
          ]
        }
      ],
      "formatted_address": "Ka Wo Building Block B, 14-22 Ka Wo St, Tin Wan, Hong Kong",
      "geometry": {
        "bounds": {
          "northeast": {
            "lat": 22.250026,
            "lng": 114.148954
          },
          "southwest": {
            "lat": 22.249815,
            "lng": 114.1487079
          }
        },
        "location": {
          "lat": 22.2499491,
          "lng": 114.1488123
        },
        "location_type": "ROOFTOP",
        "viewport": {
          "northeast": {
            "lat": 22.2512694802915,
            "lng": 114.1501799302915
          },
          "southwest": {
            "lat": 22.2485715197085,
            "lng": 114.1474819697085
          }
        }
      },
      "partial_match": true,
      "place_id": "ChIJ7xM8RAEABDQREGH2sKOuLjI",
      "types": [
        "premise"
      ]
    }
  ],
  "geocode_tc": [
    {
      "address_components": [
        {
          "long_name": "\u9999\u6e2f",
          "short_name": "HK",
          "types": [
            "country",
            "political"
          ]
        }
      ],
      "formatted_address": "\u9999\u6e2f\u5609\u79be\u885714-22\u865f",
      "geometry": {
        "location": {
          "lat": 22.249981,
          "lng": 114.148647
        },
        "location_type": "GEOMETRIC_CENTER",
        "viewport": {
          "northeast": {
            "lat": 22.2513299802915,
            "lng": 114.1499959802915
          },
          "southwest": {
            "lat": 22.2486320197085,
            "lng": 114.1472980197085
          }
        }
      },
      "partial_match": true,
      "place_id": "ChIJZY3xRgEABDQRpGNRQBfMRro",
      "plus_code": {
        "compound_code": "64XX+XF \u9999\u6e2f",
        "global_code": "7PJP64XX+XF"
      },
      "types": [
        "establishment",
        "point_of_interest"
      ]
    },
    {
      "address_components": [
        {
          "long_name": "27D",
          "short_name": "27D",
          "types": [
            "street_number"
          ]
        },
        {
          "long_name": "\u4e03\u59ca\u59b9\u9053",
          "short_name": "\u4e03\u59ca\u59b9\u9053",
          "types": [
            "route"
          ]
        },
        {
          "long_name": "\u5317\u89d2",
          "short_name": "\u5317\u89d2",
          "types": [
            "neighborhood",
            "political"
          ]
        },
        {
          "long_name": "\u9999\u6e2f\u5cf6",
          "short_name": "\u9999\u6e2f\u5cf6",
          "types": [
            "administrative_area_level_1",
            "political"
          ]
        },
        {
          "long_name": "\u9999\u6e2f",
          "short_name": "HK",
          "types": [
            "country",
            "political"
          ]
        }
      ],
      "formatted_address": "\u9999\u6e2f\u5317\u89d2\u4e03\u59ca\u59b9\u905327D\u865f",
      "geometry": {
        "location": {
          "lat": 22.2908876,
          "lng": 114.2015545
        },
        "location_type": "ROOFTOP",
        "viewport": {
          "northeast": {
            "lat": 22.2922365802915,
            "lng": 114.2029034802915
          },
          "southwest": {
            "lat": 22.2895386197085,
            "lng": 114.2002055197085
          }
        }
      },
      "partial_match": true,
      "place_id": "ChIJPXHI31AABDQRKKEr5XkUMKE",
      "plus_code": {
        "compound_code": "76R2+9J \u9999\u6e2f",
        "global_code": "7PJP76R2+9J"
      },
      "types": [
        "establishment",
        "food",
        "point_of_interest",
        "restaurant"
      ]
    },
    {
      "address_components": [
        {
          "long_name": "\u81f322\u865f\u5730\u4e0b",
          "short_name": "\u81f322\u865f\u5730\u4e0b",
          "types": [
            "subpremise"
          ]
        },
        {
          "long_name": "14",
          "short_name": "14",
          "types": [
            "street_number"
          ]
        },
        {
          "long_name": "\u5609\u79be\u8857",
          "short_name": "\u5609\u79be\u8857",
          "types": [
            "route"
          ]
        },
        {
          "long_name": "\u7530\u7063",
          "short_name": "\u7530\u7063",
          "types": [
            "neighborhood",
            "political"
          ]
        },
        {
          "long_name": "\u9999\u6e2f\u5cf6",
          "short_name": "\u9999\u6e2f\u5cf6",
          "types": [
            "administrative_area_level_1",
            "political"
          ]
        },
        {
          "long_name": "\u9999\u6e2f",
          "short_name": "HK",
          "types": [
            "country",
            "political"
          ]
        }
      ],
      "formatted_address": "\u9999\u6e2f\u7530\u7063\u5609\u79be\u885714\u865f\u81f322\u865f\u5730\u4e0b",
      "geometry": {
        "location": {
          "lat": 22.2499063,
          "lng": 114.1488479
        },
        "location_type": "ROOFTOP",
        "viewport": {
          "northeast": {
            "lat": 22.2512552802915,
            "lng": 114.1501968802915
          },
          "southwest": {
            "lat": 22.2485573197085,
            "lng": 114.1474989197085
          }
        }
      },
      "partial_match": true,
      "place_id": "Ei_oh7MyMuiZn-WcsOS4iywgMTQgS2EgV28gU3QsIFRpbiBXYW4sIEhvbmcgS29uZyIqGigKFgoUChIJPUo5RAEABDQR_tOdByFGETYSDuiHszIy6Jmf5Zyw5LiL",
      "types": [
        "subpremise"
      ]
    }
  ],
  "licno": "2215045900",
  "timestamp": 1564968756,
  "version": "1564966095"
}
