{
  "adr_en": "BABYLON, ROOM C, D & E, 7/F., HO LEE COMMERCIAL BUILDING, NO. 40 D' AGUILAR STREET, CENTRAL, HONG KONG",
  "adr_tc": "\u9999\u6e2f\u4e2d\u74b0\u5fb7\u5df1\u7acb\u885740\u865f\u597d\u5229\u5546\u696d\u5927\u5ec87\u6a13C,D\u53caE\u92ea BABYLON",
  "geocode_en": [
    {
      "address_components": [
        {
          "long_name": "ROOM C",
          "short_name": "ROOM C",
          "types": [
            "subpremise"
          ]
        },
        {
          "long_name": "Ho Lee Commercial Building",
          "short_name": "Ho Lee Commercial Building",
          "types": [
            "premise"
          ]
        },
        {
          "long_name": "38-44",
          "short_name": "38-44",
          "types": [
            "street_number"
          ]
        },
        {
          "long_name": "D'Aguilar Street",
          "short_name": "D'Aguilar St",
          "types": [
            "route"
          ]
        },
        {
          "long_name": "Central",
          "short_name": "Central",
          "types": [
            "neighborhood",
            "political"
          ]
        },
        {
          "long_name": "Hong Kong Island",
          "short_name": "Hong Kong Island",
          "types": [
            "administrative_area_level_1",
            "political"
          ]
        },
        {
          "long_name": "Hong Kong",
          "short_name": "HK",
          "types": [
            "country",
            "political"
          ]
        }
      ],
      "formatted_address": "ROOM C, Ho Lee Commercial Building, 38-44 D'Aguilar St, Central, Hong Kong",
      "geometry": {
        "bounds": {
          "northeast": {
            "lat": 22.28093,
            "lng": 114.15551
          },
          "southwest": {
            "lat": 22.2806429,
            "lng": 114.155225
          }
        },
        "location": {
          "lat": 22.2807677,
          "lng": 114.1553846
        },
        "location_type": "ROOFTOP",
        "viewport": {
          "northeast": {
            "lat": 22.2821354302915,
            "lng": 114.1567164802915
          },
          "southwest": {
            "lat": 22.2794374697085,
            "lng": 114.1540185197085
          }
        }
      },
      "partial_match": true,
      "place_id": "EkpST09NIEMsIEhvIExlZSBDb21tZXJjaWFsIEJ1aWxkaW5nLCAzOC00NCBEJ0FndWlsYXIgU3QsIENlbnRyYWwsIEhvbmcgS29uZyIiGiAKFgoUChIJx-pqKXsABDQRntquCwR4PAUSBlJPT00gQw",
      "types": [
        "subpremise"
      ]
    }
  ],
  "geocode_tc": [
    {
      "address_components": [
        {
          "long_name": "\u6a13C,D\u53ca",
          "short_name": "\u6a13C,D\u53ca",
          "types": [
            "subpremise"
          ]
        },
        {
          "long_name": "\u597d\u5229\u5546\u696d\u5927\u5ec8",
          "short_name": "\u597d\u5229\u5546\u696d\u5927\u5ec8",
          "types": [
            "premise"
          ]
        },
        {
          "long_name": "38-44",
          "short_name": "38-44",
          "types": [
            "street_number"
          ]
        },
        {
          "long_name": "\u5fb7\u5df1\u7acb\u8857",
          "short_name": "\u5fb7\u5df1\u7acb\u8857",
          "types": [
            "route"
          ]
        },
        {
          "long_name": "\u4e2d\u74b0",
          "short_name": "\u4e2d\u74b0",
          "types": [
            "neighborhood",
            "political"
          ]
        },
        {
          "long_name": "\u9999\u6e2f\u5cf6",
          "short_name": "\u9999\u6e2f\u5cf6",
          "types": [
            "administrative_area_level_1",
            "political"
          ]
        },
        {
          "long_name": "\u9999\u6e2f",
          "short_name": "HK",
          "types": [
            "country",
            "political"
          ]
        }
      ],
      "formatted_address": "\u9999\u6e2f\u4e2d\u74b0\u5fb7\u5df1\u7acb\u885738-44\u865f\u597d\u5229\u5546\u696d\u5927\u5ec8\u6a13C,D\u53ca",
      "geometry": {
        "bounds": {
          "northeast": {
            "lat": 22.28093,
            "lng": 114.15551
          },
          "southwest": {
            "lat": 22.2806429,
            "lng": 114.155225
          }
        },
        "location": {
          "lat": 22.2807677,
          "lng": 114.1553846
        },
        "location_type": "ROOFTOP",
        "viewport": {
          "northeast": {
            "lat": 22.2821354302915,
            "lng": 114.1567164802915
          },
          "southwest": {
            "lat": 22.2794374697085,
            "lng": 114.1540185197085
          }
        }
      },
      "partial_match": true,
      "place_id": "Ek3mqJNDLETlj4osIEhvIExlZSBDb21tZXJjaWFsIEJ1aWxkaW5nLCAzOC00NCBEJ0FndWlsYXIgU3QsIENlbnRyYWwsIEhvbmcgS29uZyIlGiMKFgoUChIJx-pqKXsABDQRntquCwR4PAUSCeaok0MsROWPig",
      "types": [
        "subpremise"
      ]
    },
    {
      "address_components": [
        {
          "long_name": "\u597d\u5229\u5546\u696d\u5927\u5ec8",
          "short_name": "\u597d\u5229\u5546\u696d\u5927\u5ec8",
          "types": [
            "premise"
          ]
        },
        {
          "long_name": "38-44",
          "short_name": "38-44",
          "types": [
            "street_number"
          ]
        },
        {
          "long_name": "\u5fb7\u5df1\u7acb\u8857",
          "short_name": "\u5fb7\u5df1\u7acb\u8857",
          "types": [
            "route"
          ]
        },
        {
          "long_name": "\u4e2d\u74b0",
          "short_name": "\u4e2d\u74b0",
          "types": [
            "neighborhood",
            "political"
          ]
        },
        {
          "long_name": "\u9999\u6e2f\u5cf6",
          "short_name": "\u9999\u6e2f\u5cf6",
          "types": [
            "administrative_area_level_1",
            "political"
          ]
        },
        {
          "long_name": "\u9999\u6e2f",
          "short_name": "HK",
          "types": [
            "country",
            "political"
          ]
        }
      ],
      "formatted_address": "\u9999\u6e2f\u4e2d\u74b0\u5fb7\u5df1\u7acb\u885738-44\u865f\u597d\u5229\u5546\u696d\u5927\u5ec8",
      "geometry": {
        "bounds": {
          "northeast": {
            "lat": 22.28093,
            "lng": 114.15551
          },
          "southwest": {
            "lat": 22.2806429,
            "lng": 114.155225
          }
        },
        "location": {
          "lat": 22.2807677,
          "lng": 114.1553846
        },
        "location_type": "ROOFTOP",
        "viewport": {
          "northeast": {
            "lat": 22.2821354302915,
            "lng": 114.1567164802915
          },
          "southwest": {
            "lat": 22.2794374697085,
            "lng": 114.1540185197085
          }
        }
      },
      "partial_match": true,
      "place_id": "ChIJx-pqKXsABDQRntquCwR4PAU",
      "types": [
        "premise"
      ]
    },
    {
      "address_components": [
        {
          "long_name": "7/F",
          "short_name": "7/F",
          "types": [
            "subpremise"
          ]
        },
        {
          "long_name": "Ho Lee Commercial Building",
          "short_name": "Ho Lee Commercial Building",
          "types": [
            "premise"
          ]
        },
        {
          "long_name": "D'Aguilar Street",
          "short_name": "D'Aguilar St",
          "types": [
            "route"
          ]
        },
        {
          "long_name": "Central",
          "short_name": "Central",
          "types": [
            "neighborhood",
            "political"
          ]
        },
        {
          "long_name": "Hong Kong Island",
          "short_name": "Hong Kong Island",
          "types": [
            "administrative_area_level_1",
            "political"
          ]
        },
        {
          "long_name": "\u9999\u6e2f",
          "short_name": "HK",
          "types": [
            "country",
            "political"
          ]
        }
      ],
      "formatted_address": "7/F, Ho Lee Commercial Building, D'Aguilar St, Central, \u9999\u6e2f",
      "geometry": {
        "location": {
          "lat": 22.2807677,
          "lng": 114.1553846
        },
        "location_type": "ROOFTOP",
        "viewport": {
          "northeast": {
            "lat": 22.28211668029151,
            "lng": 114.1567335802915
          },
          "southwest": {
            "lat": 22.2794187197085,
            "lng": 114.1540356197085
          }
        }
      },
      "partial_match": true,
      "place_id": "ChIJq6puKXsABDQRfLn3chlUR9A",
      "plus_code": {
        "compound_code": "75J4+85 \u9999\u6e2f\u4e2d\u74b0",
        "global_code": "7PJP75J4+85"
      },
      "types": [
        "establishment",
        "point_of_interest"
      ]
    }
  ],
  "licno": "2218812239",
  "timestamp": 1564968756,
  "version": "1564966095"
}
