{
  "adr_en": "\u7d05\u840d\u679c, SHOP 4, G/F, YIN HING BLDG., 52 YIN HING ST., SAN PO KONG, WONG TAI SIN, KOWLOON",
  "adr_tc": "\u4e5d\u9f8d\u65b0\u84b2\u5d17\u884d\u6176\u885752\u865f \u884d\u6176\u5927\u5ec8\u5730\u4e0b4\u865f\u8216 \u7d05\u840d\u679c",
  "geocode_en": [
    {
      "address_components": [
        {
          "long_name": "54",
          "short_name": "54",
          "types": [
            "street_number"
          ]
        },
        {
          "long_name": "Yin Hing Street",
          "short_name": "Yin Hing St",
          "types": [
            "route"
          ]
        },
        {
          "long_name": "San Po Kong",
          "short_name": "San Po Kong",
          "types": [
            "neighborhood",
            "political"
          ]
        },
        {
          "long_name": "Kowloon",
          "short_name": "Kowloon",
          "types": [
            "administrative_area_level_1",
            "political"
          ]
        },
        {
          "long_name": "Hong Kong",
          "short_name": "HK",
          "types": [
            "country",
            "political"
          ]
        }
      ],
      "formatted_address": "54 Yin Hing St, San Po Kong, Hong Kong",
      "geometry": {
        "location": {
          "lat": 22.3354835,
          "lng": 114.1946615
        },
        "location_type": "ROOFTOP",
        "viewport": {
          "northeast": {
            "lat": 22.3368324802915,
            "lng": 114.1960104802915
          },
          "southwest": {
            "lat": 22.3341345197085,
            "lng": 114.1933125197085
          }
        }
      },
      "partial_match": true,
      "place_id": "ChIJF8rp_tYGBDQR06YYsrn_BYs",
      "plus_code": {
        "compound_code": "85PV+5V Hong Kong",
        "global_code": "7PJP85PV+5V"
      },
      "types": [
        "establishment",
        "food",
        "point_of_interest",
        "restaurant"
      ]
    },
    {
      "address_components": [
        {
          "long_name": "Yin Hing Building",
          "short_name": "Yin Hing Building",
          "types": [
            "premise"
          ]
        },
        {
          "long_name": "58-82",
          "short_name": "58-82",
          "types": [
            "street_number"
          ]
        },
        {
          "long_name": "Choi Hung Road",
          "short_name": "Choi Hung Rd",
          "types": [
            "route"
          ]
        },
        {
          "long_name": "San Po Kong",
          "short_name": "San Po Kong",
          "types": [
            "neighborhood",
            "political"
          ]
        },
        {
          "long_name": "Kowloon",
          "short_name": "Kowloon",
          "types": [
            "administrative_area_level_1",
            "political"
          ]
        },
        {
          "long_name": "Hong Kong",
          "short_name": "HK",
          "types": [
            "country",
            "political"
          ]
        }
      ],
      "formatted_address": "Yin Hing Building, 58-82 Choi Hung Rd, San Po Kong, Hong Kong",
      "geometry": {
        "bounds": {
          "northeast": {
            "lat": 22.335874,
            "lng": 114.19486
          },
          "southwest": {
            "lat": 22.335331,
            "lng": 114.194391
          }
        },
        "location": {
          "lat": 22.3355991,
          "lng": 114.1946068
        },
        "location_type": "ROOFTOP",
        "viewport": {
          "northeast": {
            "lat": 22.3369514802915,
            "lng": 114.1959744802915
          },
          "southwest": {
            "lat": 22.3342535197085,
            "lng": 114.1932765197085
          }
        }
      },
      "partial_match": true,
      "place_id": "ChIJcZSx_9YGBDQRmoyHw6LZA1U",
      "types": [
        "premise"
      ]
    }
  ],
  "geocode_tc": [
    {
      "address_components": [
        {
          "long_name": "54",
          "short_name": "54",
          "types": [
            "street_number"
          ]
        },
        {
          "long_name": "\u884d\u6176\u8857",
          "short_name": "\u884d\u6176\u8857",
          "types": [
            "route"
          ]
        },
        {
          "long_name": "\u65b0\u84b2\u5d17",
          "short_name": "\u65b0\u84b2\u5d17",
          "types": [
            "neighborhood",
            "political"
          ]
        },
        {
          "long_name": "\u4e5d\u9f8d",
          "short_name": "\u4e5d\u9f8d",
          "types": [
            "administrative_area_level_1",
            "political"
          ]
        },
        {
          "long_name": "\u9999\u6e2f",
          "short_name": "HK",
          "types": [
            "country",
            "political"
          ]
        }
      ],
      "formatted_address": "\u9999\u6e2f\u65b0\u84b2\u5d17\u884d\u6176\u885754\u865f",
      "geometry": {
        "location": {
          "lat": 22.3354835,
          "lng": 114.1946615
        },
        "location_type": "ROOFTOP",
        "viewport": {
          "northeast": {
            "lat": 22.3368324802915,
            "lng": 114.1960104802915
          },
          "southwest": {
            "lat": 22.3341345197085,
            "lng": 114.1933125197085
          }
        }
      },
      "partial_match": true,
      "place_id": "ChIJF8rp_tYGBDQR06YYsrn_BYs",
      "plus_code": {
        "compound_code": "85PV+5V \u9999\u6e2f",
        "global_code": "7PJP85PV+5V"
      },
      "types": [
        "establishment",
        "food",
        "point_of_interest",
        "restaurant"
      ]
    },
    {
      "address_components": [
        {
          "long_name": "\u5730\u4e0b4\u865f\u8216",
          "short_name": "\u5730\u4e0b4\u865f\u8216",
          "types": [
            "subpremise"
          ]
        },
        {
          "long_name": "\u884d\u6176\u5927\u5ec8",
          "short_name": "\u884d\u6176\u5927\u5ec8",
          "types": [
            "premise"
          ]
        },
        {
          "long_name": "58-82",
          "short_name": "58-82",
          "types": [
            "street_number"
          ]
        },
        {
          "long_name": "\u5f69\u8679\u9053",
          "short_name": "\u5f69\u8679\u9053",
          "types": [
            "route"
          ]
        },
        {
          "long_name": "\u65b0\u84b2\u5d17",
          "short_name": "\u65b0\u84b2\u5d17",
          "types": [
            "neighborhood",
            "political"
          ]
        },
        {
          "long_name": "\u4e5d\u9f8d",
          "short_name": "\u4e5d\u9f8d",
          "types": [
            "administrative_area_level_1",
            "political"
          ]
        },
        {
          "long_name": "\u9999\u6e2f",
          "short_name": "HK",
          "types": [
            "country",
            "political"
          ]
        }
      ],
      "formatted_address": "\u9999\u6e2f\u65b0\u84b2\u5d17\u5f69\u8679\u905358-82\u865f\u884d\u6176\u5927\u5ec8\u5730\u4e0b4\u865f\u8216",
      "geometry": {
        "bounds": {
          "northeast": {
            "lat": 22.335874,
            "lng": 114.19486
          },
          "southwest": {
            "lat": 22.335331,
            "lng": 114.194391
          }
        },
        "location": {
          "lat": 22.3355991,
          "lng": 114.1946068
        },
        "location_type": "ROOFTOP",
        "viewport": {
          "northeast": {
            "lat": 22.3369514802915,
            "lng": 114.1959744802915
          },
          "southwest": {
            "lat": 22.3342535197085,
            "lng": 114.1932765197085
          }
        }
      },
      "partial_match": true,
      "place_id": "EkzlnLDkuIs06Jmf6IiWLCBZaW4gSGluZyBCdWlsZGluZywgNTgtODIgQ2hvaSBIdW5nIFJkLCBTYW4gUG8gS29uZywgSG9uZyBLb25nIikaJwoWChQKEglxlLH_1gYENBGajIfDotkDVRIN5Zyw5LiLNOiZn-iIlg",
      "types": [
        "subpremise"
      ]
    },
    {
      "address_components": [
        {
          "long_name": "\u884d\u6176\u5927\u5ec8",
          "short_name": "\u884d\u6176\u5927\u5ec8",
          "types": [
            "premise"
          ]
        },
        {
          "long_name": "58-82",
          "short_name": "58-82",
          "types": [
            "street_number"
          ]
        },
        {
          "long_name": "\u5f69\u8679\u9053",
          "short_name": "\u5f69\u8679\u9053",
          "types": [
            "route"
          ]
        },
        {
          "long_name": "\u65b0\u84b2\u5d17",
          "short_name": "\u65b0\u84b2\u5d17",
          "types": [
            "neighborhood",
            "political"
          ]
        },
        {
          "long_name": "\u4e5d\u9f8d",
          "short_name": "\u4e5d\u9f8d",
          "types": [
            "administrative_area_level_1",
            "political"
          ]
        },
        {
          "long_name": "\u9999\u6e2f",
          "short_name": "HK",
          "types": [
            "country",
            "political"
          ]
        }
      ],
      "formatted_address": "\u9999\u6e2f\u65b0\u84b2\u5d17\u5f69\u8679\u905358-82\u865f\u884d\u6176\u5927\u5ec8",
      "geometry": {
        "bounds": {
          "northeast": {
            "lat": 22.335874,
            "lng": 114.19486
          },
          "southwest": {
            "lat": 22.335331,
            "lng": 114.194391
          }
        },
        "location": {
          "lat": 22.3355991,
          "lng": 114.1946068
        },
        "location_type": "ROOFTOP",
        "viewport": {
          "northeast": {
            "lat": 22.3369514802915,
            "lng": 114.1959744802915
          },
          "southwest": {
            "lat": 22.3342535197085,
            "lng": 114.1932765197085
          }
        }
      },
      "partial_match": true,
      "place_id": "ChIJcZSx_9YGBDQRmoyHw6LZA1U",
      "types": [
        "premise"
      ]
    }
  ],
  "licno": "2253203261",
  "timestamp": 1564968756,
  "version": "1564966095"
}
