{
  "adr_en": "CHAI RUNG THAI FOOD, SHOP A, G/F, YAU LUNG BUILDING, 33 NAM KOK ROAD, KOWLOON CITY, KOWLOON",
  "adr_tc": "\u4e5d\u9f8d\u57ce\u5357\u89d2\u905333\u865f\u5730\u4e0b A\u8216 \u6cf0\u5f0f\u71d2\u70e4",
  "geocode_en": [
    {
      "address_components": [
        {
          "long_name": "33",
          "short_name": "33",
          "types": [
            "street_number"
          ]
        },
        {
          "long_name": "Nam Kok Road",
          "short_name": "Nam Kok Rd",
          "types": [
            "route"
          ]
        },
        {
          "long_name": "Kowloon City",
          "short_name": "Kowloon City",
          "types": [
            "neighborhood",
            "political"
          ]
        },
        {
          "long_name": "Hong Kong",
          "short_name": "HK",
          "types": [
            "country",
            "political"
          ]
        }
      ],
      "formatted_address": "\u865f, 33 Nam Kok Rd, Kowloon City, Hong Kong",
      "geometry": {
        "location": {
          "lat": 22.329462,
          "lng": 114.189691
        },
        "location_type": "ROOFTOP",
        "viewport": {
          "northeast": {
            "lat": 22.3308109802915,
            "lng": 114.1910399802915
          },
          "southwest": {
            "lat": 22.3281130197085,
            "lng": 114.1883420197085
          }
        }
      },
      "partial_match": true,
      "place_id": "ChIJ88PtwSoHBDQRNyCI-VWMrNs",
      "plus_code": {
        "compound_code": "85HQ+QV Hong Kong",
        "global_code": "7PJP85HQ+QV"
      },
      "types": [
        "establishment",
        "food",
        "point_of_interest",
        "restaurant"
      ]
    }
  ],
  "geocode_tc": [
    {
      "address_components": [
        {
          "long_name": "33",
          "short_name": "33",
          "types": [
            "street_number"
          ]
        },
        {
          "long_name": "Nam Kok Road",
          "short_name": "Nam Kok Rd",
          "types": [
            "route"
          ]
        },
        {
          "long_name": "Kowloon City",
          "short_name": "Kowloon City",
          "types": [
            "neighborhood",
            "political"
          ]
        },
        {
          "long_name": "\u9999\u6e2f",
          "short_name": "HK",
          "types": [
            "country",
            "political"
          ]
        }
      ],
      "formatted_address": "\u865f, 33 Nam Kok Rd, Kowloon City, \u9999\u6e2f",
      "geometry": {
        "location": {
          "lat": 22.329462,
          "lng": 114.189691
        },
        "location_type": "ROOFTOP",
        "viewport": {
          "northeast": {
            "lat": 22.3308109802915,
            "lng": 114.1910399802915
          },
          "southwest": {
            "lat": 22.3281130197085,
            "lng": 114.1883420197085
          }
        }
      },
      "place_id": "ChIJ88PtwSoHBDQRNyCI-VWMrNs",
      "plus_code": {
        "compound_code": "85HQ+QV \u9999\u6e2f",
        "global_code": "7PJP85HQ+QV"
      },
      "types": [
        "establishment",
        "food",
        "point_of_interest",
        "restaurant"
      ]
    },
    {
      "address_components": [
        {
          "long_name": "\u9999\u6e2f",
          "short_name": "HK",
          "types": [
            "country",
            "political"
          ]
        }
      ],
      "formatted_address": "\u9999\u6e2f\u4e5d\u9f8d\u57ce\u5357\u89d2\u905319\u865f\u5730\u4e0b",
      "geometry": {
        "location": {
          "lat": 22.3285564,
          "lng": 114.1897313
        },
        "location_type": "GEOMETRIC_CENTER",
        "viewport": {
          "northeast": {
            "lat": 22.3299053802915,
            "lng": 114.1910802802915
          },
          "southwest": {
            "lat": 22.3272074197085,
            "lng": 114.1883823197085
          }
        }
      },
      "place_id": "ChIJj1BbyCoHBDQRQCwy4fmh670",
      "plus_code": {
        "compound_code": "85HQ+CV \u9999\u6e2f",
        "global_code": "7PJP85HQ+CV"
      },
      "types": [
        "establishment",
        "food",
        "point_of_interest",
        "restaurant"
      ]
    }
  ],
  "licno": "2252260243",
  "timestamp": 1564968756,
  "version": "1564966095"
}
