{
  "adr_en": "DRAGON COFFEE HOUSE, SHOP D (FRONT PTN), G/F, 7-7 B CAMERON ROAD, TSIM SHA TSUI, KOWLOON",
  "adr_tc": "\u4e5d\u9f8d\u91d1\u99ac\u502b\u90537-7B\u865f \u5730\u4e0bD\u8216\u524d\u90e8\u4efd \u83ef\u9f8d\u5496\u5561\u5c4b\u9905\u5e97",
  "geocode_en": [
    {
      "address_components": [
        {
          "long_name": "G",
          "short_name": "G",
          "types": [
            "subpremise"
          ]
        },
        {
          "long_name": "Hotel Benito",
          "short_name": "Hotel Benito",
          "types": [
            "premise"
          ]
        },
        {
          "long_name": "7-7B",
          "short_name": "7-7B",
          "types": [
            "street_number"
          ]
        },
        {
          "long_name": "Cameron Road",
          "short_name": "Cameron Rd",
          "types": [
            "route"
          ]
        },
        {
          "long_name": "Tsim Sha Tsui",
          "short_name": "Tsim Sha Tsui",
          "types": [
            "neighborhood",
            "political"
          ]
        },
        {
          "long_name": "Kowloon",
          "short_name": "Kowloon",
          "types": [
            "administrative_area_level_1",
            "political"
          ]
        },
        {
          "long_name": "Hong Kong",
          "short_name": "HK",
          "types": [
            "country",
            "political"
          ]
        }
      ],
      "formatted_address": "G, Hotel Benito, 7-7B Cameron Rd, Tsim Sha Tsui, Hong Kong",
      "geometry": {
        "bounds": {
          "northeast": {
            "lat": 22.299075,
            "lng": 114.173293
          },
          "southwest": {
            "lat": 22.298861,
            "lng": 114.173017
          }
        },
        "location": {
          "lat": 22.2989638,
          "lng": 114.1731499
        },
        "location_type": "ROOFTOP",
        "viewport": {
          "northeast": {
            "lat": 22.3003169802915,
            "lng": 114.1745039802915
          },
          "southwest": {
            "lat": 22.2976190197085,
            "lng": 114.1718060197085
          }
        }
      },
      "partial_match": true,
      "place_id": "EjpHLCBIb3RlbCBCZW5pdG8sIDctN0IgQ2FtZXJvbiBSZCwgVHNpbSBTaGEgVHN1aSwgSG9uZyBLb25nIh0aGwoWChQKEgnhFHDc7QAENBHWmO3DcqFBQRIBRw",
      "types": [
        "subpremise"
      ]
    },
    {
      "address_components": [
        {
          "long_name": "F",
          "short_name": "F",
          "types": [
            "subpremise"
          ]
        },
        {
          "long_name": "Hotel Benito",
          "short_name": "Hotel Benito",
          "types": [
            "premise"
          ]
        },
        {
          "long_name": "7-7B",
          "short_name": "7-7B",
          "types": [
            "street_number"
          ]
        },
        {
          "long_name": "Cameron Road",
          "short_name": "Cameron Rd",
          "types": [
            "route"
          ]
        },
        {
          "long_name": "Tsim Sha Tsui",
          "short_name": "Tsim Sha Tsui",
          "types": [
            "neighborhood",
            "political"
          ]
        },
        {
          "long_name": "Kowloon",
          "short_name": "Kowloon",
          "types": [
            "administrative_area_level_1",
            "political"
          ]
        },
        {
          "long_name": "Hong Kong",
          "short_name": "HK",
          "types": [
            "country",
            "political"
          ]
        }
      ],
      "formatted_address": "F, Hotel Benito, 7-7B Cameron Rd, Tsim Sha Tsui, Hong Kong",
      "geometry": {
        "bounds": {
          "northeast": {
            "lat": 22.299075,
            "lng": 114.173293
          },
          "southwest": {
            "lat": 22.298861,
            "lng": 114.173017
          }
        },
        "location": {
          "lat": 22.2989638,
          "lng": 114.1731499
        },
        "location_type": "ROOFTOP",
        "viewport": {
          "northeast": {
            "lat": 22.3003169802915,
            "lng": 114.1745039802915
          },
          "southwest": {
            "lat": 22.2976190197085,
            "lng": 114.1718060197085
          }
        }
      },
      "partial_match": true,
      "place_id": "EjpGLCBIb3RlbCBCZW5pdG8sIDctN0IgQ2FtZXJvbiBSZCwgVHNpbSBTaGEgVHN1aSwgSG9uZyBLb25nIh0aGwoWChQKEgnhFHDc7QAENBHWmO3DcqFBQRIBRg",
      "types": [
        "subpremise"
      ]
    }
  ],
  "geocode_tc": [
    {
      "address_components": [
        {
          "long_name": "7B \u5730\u4e0b",
          "short_name": "7B \u5730\u4e0b",
          "types": [
            "subpremise"
          ]
        },
        {
          "long_name": "7",
          "short_name": "7",
          "types": [
            "street_number"
          ]
        },
        {
          "long_name": "Cameron Road",
          "short_name": "Cameron Rd",
          "types": [
            "route"
          ]
        },
        {
          "long_name": "Tsim Sha Tsui",
          "short_name": "Tsim Sha Tsui",
          "types": [
            "neighborhood",
            "political"
          ]
        },
        {
          "long_name": "Kowloon",
          "short_name": "Kowloon",
          "types": [
            "administrative_area_level_1",
            "political"
          ]
        },
        {
          "long_name": "\u9999\u6e2f",
          "short_name": "HK",
          "types": [
            "country",
            "political"
          ]
        }
      ],
      "formatted_address": "\u9999\u6e2f Tsim Sha Tsui, Cameron Rd, 7\u865f 7B \u5730\u4e0b",
      "geometry": {
        "location": {
          "lat": 22.2989568,
          "lng": 114.1731751
        },
        "location_type": "ROOFTOP",
        "viewport": {
          "northeast": {
            "lat": 22.3003057802915,
            "lng": 114.1745240802915
          },
          "southwest": {
            "lat": 22.2976078197085,
            "lng": 114.1718261197085
          }
        }
      },
      "place_id": "ChIJfder3e0ABDQRxdqLVHzZUjM",
      "plus_code": {
        "compound_code": "75XF+H7 \u9999\u6e2f",
        "global_code": "7PJP75XF+H7"
      },
      "types": [
        "cafe",
        "establishment",
        "food",
        "point_of_interest"
      ]
    }
  ],
  "licno": "3161288988",
  "timestamp": 1564975666,
  "version": "1564966095"
}
