{
  "adr_en": "GAKI JAPANESE RESTAURANT, SHOP 5, G/F, CARADO GARDEN SHOPPING CENTRE, TIN SAM STREET, SHA TIN, NEW TERRITORIES",
  "adr_tc": "\u65b0\u754c\u6c99\u7530\u7530\u5fc3\u8857\u96f2\u758a\u82b1\u5712\u5546\u5834\u5730\u4e0b5\u865f\u92ea \u8cc0\u559c",
  "geocode_en": [
    {
      "address_components": [
        {
          "long_name": "Hong Kong",
          "short_name": "HK",
          "types": [
            "country",
            "political"
          ]
        }
      ],
      "formatted_address": "Hong Kong, \u5927\u570d \u7530\u5fc3\u8857\u96f2\u758a\u82b1\u5712\u5546\u5834\u5730\u4e0b5\u865f\u8216",
      "geometry": {
        "location": {
          "lat": 22.3684793,
          "lng": 114.1777472
        },
        "location_type": "GEOMETRIC_CENTER",
        "viewport": {
          "northeast": {
            "lat": 22.3698282802915,
            "lng": 114.1790961802915
          },
          "southwest": {
            "lat": 22.3671303197085,
            "lng": 114.1763982197085
          }
        }
      },
      "partial_match": true,
      "place_id": "ChIJfedWNw8HBDQRHL9qqzDEWUM",
      "plus_code": {
        "compound_code": "959H+93 Hong Kong",
        "global_code": "7PJP959H+93"
      },
      "types": [
        "establishment",
        "food",
        "point_of_interest",
        "restaurant"
      ]
    },
    {
      "address_components": [
        {
          "long_name": "20",
          "short_name": "20",
          "types": [
            "street_number"
          ]
        },
        {
          "long_name": "Tin Sam Street",
          "short_name": "Tin Sam St",
          "types": [
            "route"
          ]
        },
        {
          "long_name": "Tai Wai",
          "short_name": "Tai Wai",
          "types": [
            "neighborhood",
            "political"
          ]
        },
        {
          "long_name": "New Territories",
          "short_name": "New Territories",
          "types": [
            "administrative_area_level_1",
            "political"
          ]
        },
        {
          "long_name": "Hong Kong",
          "short_name": "HK",
          "types": [
            "country",
            "political"
          ]
        }
      ],
      "formatted_address": "20 Tin Sam St, Tai Wai, Hong Kong",
      "geometry": {
        "location": {
          "lat": 22.368507,
          "lng": 114.177542
        },
        "location_type": "ROOFTOP",
        "viewport": {
          "northeast": {
            "lat": 22.3698559802915,
            "lng": 114.1788909802915
          },
          "southwest": {
            "lat": 22.36715801970849,
            "lng": 114.1761930197085
          }
        }
      },
      "partial_match": true,
      "place_id": "ChIJrxxeMA8HBDQRF9_qELuqQ9Q",
      "plus_code": {
        "compound_code": "959H+C2 Hong Kong",
        "global_code": "7PJP959H+C2"
      },
      "types": [
        "establishment",
        "point_of_interest",
        "shopping_mall"
      ]
    }
  ],
  "geocode_tc": [
    {
      "address_components": [
        {
          "long_name": "20",
          "short_name": "20",
          "types": [
            "street_number"
          ]
        },
        {
          "long_name": "\u7530\u5fc3\u8857",
          "short_name": "\u7530\u5fc3\u8857",
          "types": [
            "route"
          ]
        },
        {
          "long_name": "\u5927\u570d",
          "short_name": "\u5927\u570d",
          "types": [
            "neighborhood",
            "political"
          ]
        },
        {
          "long_name": "\u65b0\u754c",
          "short_name": "\u65b0\u754c",
          "types": [
            "administrative_area_level_1",
            "political"
          ]
        },
        {
          "long_name": "\u9999\u6e2f",
          "short_name": "HK",
          "types": [
            "country",
            "political"
          ]
        }
      ],
      "formatted_address": "\u9999\u6e2f\u5927\u570d\u7530\u5fc3\u885720\u865f",
      "geometry": {
        "location": {
          "lat": 22.368507,
          "lng": 114.177542
        },
        "location_type": "ROOFTOP",
        "viewport": {
          "northeast": {
            "lat": 22.3698559802915,
            "lng": 114.1788909802915
          },
          "southwest": {
            "lat": 22.36715801970849,
            "lng": 114.1761930197085
          }
        }
      },
      "place_id": "ChIJrxxeMA8HBDQRF9_qELuqQ9Q",
      "plus_code": {
        "compound_code": "959H+C2 \u9999\u6e2f",
        "global_code": "7PJP959H+C2"
      },
      "types": [
        "establishment",
        "point_of_interest",
        "shopping_mall"
      ]
    },
    {
      "address_components": [
        {
          "long_name": "\u9999\u6e2f",
          "short_name": "HK",
          "types": [
            "country",
            "political"
          ]
        }
      ],
      "formatted_address": "\u9999\u6e2f\u5927\u570d \u7530\u5fc3\u8857\u96f2\u758a\u82b1\u5712\u5546\u5834\u5730\u4e0b5\u865f\u8216",
      "geometry": {
        "location": {
          "lat": 22.3684793,
          "lng": 114.1777472
        },
        "location_type": "GEOMETRIC_CENTER",
        "viewport": {
          "northeast": {
            "lat": 22.3698282802915,
            "lng": 114.1790961802915
          },
          "southwest": {
            "lat": 22.3671303197085,
            "lng": 114.1763982197085
          }
        }
      },
      "place_id": "ChIJfedWNw8HBDQRHL9qqzDEWUM",
      "plus_code": {
        "compound_code": "959H+93 \u9999\u6e2f",
        "global_code": "7PJP959H+93"
      },
      "types": [
        "establishment",
        "food",
        "point_of_interest",
        "restaurant"
      ]
    }
  ],
  "licno": "2297803201",
  "timestamp": 1564975666,
  "version": "1564966095"
}
