{
  "adr_en": "\u6f22\u8a18, G/F. (FRONT PORTION), 53 TAI O WING ON STREET, LANTAU ISLAND, NEW TERRITORIES",
  "adr_tc": "\u5927\u5dbc\u5c71\u5927\u6fb3\u6c38\u5b89\u885753\u865f\u5730\u4e0b(\u524d\u90e8) \u6f22\u8a18",
  "geocode_en": [
    {
      "address_components": [
        {
          "long_name": "53",
          "short_name": "53",
          "types": [
            "street_number"
          ]
        },
        {
          "long_name": "Tai O Wing On Street",
          "short_name": "Tai O Wing On St",
          "types": [
            "route"
          ]
        },
        {
          "long_name": "Tai O",
          "short_name": "Tai O",
          "types": [
            "neighborhood",
            "political"
          ]
        },
        {
          "long_name": "New Territories",
          "short_name": "New Territories",
          "types": [
            "administrative_area_level_1",
            "political"
          ]
        },
        {
          "long_name": "Hong Kong",
          "short_name": "HK",
          "types": [
            "country",
            "political"
          ]
        }
      ],
      "formatted_address": "53 Tai O Wing On St, Tai O, Hong Kong",
      "geometry": {
        "location": {
          "lat": 22.2536501,
          "lng": 113.8630131
        },
        "location_type": "RANGE_INTERPOLATED",
        "viewport": {
          "northeast": {
            "lat": 22.2549990802915,
            "lng": 113.8643620802915
          },
          "southwest": {
            "lat": 22.2523011197085,
            "lng": 113.8616641197085
          }
        }
      },
      "partial_match": true,
      "place_id": "EiU1MyBUYWkgTyBXaW5nIE9uIFN0LCBUYWkgTywgSG9uZyBLb25nIhoSGAoUChIJ-YjxStJYATQRyQBFSwxzlz4QNQ",
      "types": [
        "street_address"
      ]
    }
  ],
  "geocode_tc": [
    {
      "address_components": [
        {
          "long_name": "\u9999\u6e2f",
          "short_name": "HK",
          "types": [
            "country",
            "political"
          ]
        }
      ],
      "formatted_address": "\u9999\u6e2f\u5927\u6fb3\u6c38\u5b89\u885753\u865f",
      "geometry": {
        "location": {
          "lat": 22.25373,
          "lng": 113.863113
        },
        "location_type": "GEOMETRIC_CENTER",
        "viewport": {
          "northeast": {
            "lat": 22.2550789802915,
            "lng": 113.8644619802915
          },
          "southwest": {
            "lat": 22.25238101970849,
            "lng": 113.8617640197085
          }
        }
      },
      "place_id": "ChIJw7IBNdJYATQR8IUA0w3FWg8",
      "plus_code": {
        "compound_code": "7V37+F6 \u9999\u6e2f",
        "global_code": "7PJM7V37+F6"
      },
      "types": [
        "establishment",
        "food",
        "point_of_interest",
        "restaurant"
      ]
    }
  ],
  "licno": "3117000602",
  "timestamp": 1564975666,
  "version": "1564966095"
}
