{
  "adr_en": "Pokka Cafe, SHOP 140-141, 1/F, EAST WING, HAU TAK SHOPPING CENTRE, HAU TAK ESTATE, TSEUNG KWAN O, SAI KUNG, NEW TERRITORIES",
  "adr_tc": "\u65b0\u754c\u897f\u8ca2\u5c07\u8ecd\u6fb3\u539a\u5fb7\u90a8 \u539a\u5fb7\u5546\u5834\u6771\u7ffc1\u6a13140\u81f3141\u865f\u8216 \u767e\u4f73\u5496\u5561",
  "geocode_en": [
    {
      "address_components": [
        {
          "long_name": "Shop 140-141",
          "short_name": "Shop 140-141",
          "types": [
            "subpremise"
          ]
        },
        {
          "long_name": "2",
          "short_name": "2",
          "types": [
            "street_number"
          ]
        },
        {
          "long_name": "Sheung Ning Road",
          "short_name": "Sheung Ning Rd",
          "types": [
            "route"
          ]
        },
        {
          "long_name": "Tseung Kwan O",
          "short_name": "Tseung Kwan O",
          "types": [
            "neighborhood",
            "political"
          ]
        },
        {
          "long_name": "New Territories",
          "short_name": "New Territories",
          "types": [
            "administrative_area_level_1",
            "political"
          ]
        },
        {
          "long_name": "Hong Kong",
          "short_name": "HK",
          "types": [
            "country",
            "political"
          ]
        }
      ],
      "formatted_address": "Shop 140-141, 2 Sheung Ning Rd, Tseung Kwan O, Hong Kong",
      "geometry": {
        "bounds": {
          "northeast": {
            "lat": 22.317356,
            "lng": 114.265906
          },
          "southwest": {
            "lat": 22.3172225,
            "lng": 114.2657141
          }
        },
        "location": {
          "lat": 22.3173052,
          "lng": 114.2657737
        },
        "location_type": "ROOFTOP",
        "viewport": {
          "northeast": {
            "lat": 22.3186382302915,
            "lng": 114.2671590302915
          },
          "southwest": {
            "lat": 22.31594026970849,
            "lng": 114.2644610697085
          }
        }
      },
      "partial_match": true,
      "place_id": "ChIJoyApnnUEBDQRXxF3z9iJdgo",
      "types": [
        "subpremise"
      ]
    },
    {
      "address_components": [
        {
          "long_name": "Sheung Ning Road",
          "short_name": "Sheung Ning Rd",
          "types": [
            "route"
          ]
        },
        {
          "long_name": "Tseung Kwan O",
          "short_name": "Tseung Kwan O",
          "types": [
            "neighborhood",
            "political"
          ]
        },
        {
          "long_name": "New Territories",
          "short_name": "New Territories",
          "types": [
            "administrative_area_level_1",
            "political"
          ]
        },
        {
          "long_name": "Hong Kong",
          "short_name": "HK",
          "types": [
            "country",
            "political"
          ]
        }
      ],
      "formatted_address": "Sheung Ning Rd, Tseung Kwan O, Hong Kong",
      "geometry": {
        "location": {
          "lat": 22.3174611,
          "lng": 114.2642273
        },
        "location_type": "GEOMETRIC_CENTER",
        "viewport": {
          "northeast": {
            "lat": 22.3188100802915,
            "lng": 114.2655762802915
          },
          "southwest": {
            "lat": 22.3161121197085,
            "lng": 114.2628783197085
          }
        }
      },
      "partial_match": true,
      "place_id": "ChIJF1cknooDBDQRpv1Udy5XlrM",
      "plus_code": {
        "compound_code": "8787+XM Hong Kong",
        "global_code": "7PJP8787+XM"
      },
      "types": [
        "establishment",
        "point_of_interest"
      ]
    }
  ],
  "geocode_tc": [
    {
      "address_components": [
        {
          "long_name": "\u5e38\u5be7\u8def",
          "short_name": "\u5e38\u5be7\u8def",
          "types": [
            "route"
          ]
        },
        {
          "long_name": "\u5c07\u8ecd\u6fb3",
          "short_name": "\u5c07\u8ecd\u6fb3",
          "types": [
            "neighborhood",
            "political"
          ]
        },
        {
          "long_name": "\u65b0\u754c",
          "short_name": "\u65b0\u754c",
          "types": [
            "administrative_area_level_1",
            "political"
          ]
        },
        {
          "long_name": "\u9999\u6e2f",
          "short_name": "HK",
          "types": [
            "country",
            "political"
          ]
        }
      ],
      "formatted_address": "\u9999\u6e2f\u5c07\u8ecd\u6fb3\u5e38\u5be7\u8def",
      "geometry": {
        "location": {
          "lat": 22.3174611,
          "lng": 114.2642273
        },
        "location_type": "GEOMETRIC_CENTER",
        "viewport": {
          "northeast": {
            "lat": 22.3188100802915,
            "lng": 114.2655762802915
          },
          "southwest": {
            "lat": 22.3161121197085,
            "lng": 114.2628783197085
          }
        }
      },
      "partial_match": true,
      "place_id": "ChIJF1cknooDBDQRpv1Udy5XlrM",
      "plus_code": {
        "compound_code": "8787+XM \u9999\u6e2f",
        "global_code": "7PJP8787+XM"
      },
      "types": [
        "establishment",
        "point_of_interest"
      ]
    }
  ],
  "licno": "2298800397",
  "timestamp": 1564975666,
  "version": "1564966095"
}
