{
  "adr_en": "GENKI SUSHI / DONDONYA / IPPUDO / UO-SHOW, PORTION OF 1/F, NO. 17 CHEUNG SHUN STREET, CHEUNG SHA WAN, KOWLOON",
  "adr_tc": "\u4e5d\u9f8d\u9577\u6c99\u7063\u9577\u9806\u885717\u865f1\u6a13\u90e8\u4efd \u5143\u6c23\u58fd\u53f8 / \u4e3c\u4e3c\u5c4b / \uff0d / \u9b5a\u5c1a",
  "geocode_en": [
    {
      "address_components": [
        {
          "long_name": "1/F, NO",
          "short_name": "1/F, NO",
          "types": [
            "subpremise"
          ]
        },
        {
          "long_name": "17",
          "short_name": "17",
          "types": [
            "street_number"
          ]
        },
        {
          "long_name": "Cheung Shun Street",
          "short_name": "Cheung Shun St",
          "types": [
            "route"
          ]
        },
        {
          "long_name": "Cheung Sha Wan",
          "short_name": "Cheung Sha Wan",
          "types": [
            "neighborhood",
            "political"
          ]
        },
        {
          "long_name": "Kowloon",
          "short_name": "Kowloon",
          "types": [
            "administrative_area_level_1",
            "political"
          ]
        },
        {
          "long_name": "Hong Kong",
          "short_name": "HK",
          "types": [
            "country",
            "political"
          ]
        }
      ],
      "formatted_address": "1/F, NO, 17 Cheung Shun St, Cheung Sha Wan, Hong Kong",
      "geometry": {
        "bounds": {
          "northeast": {
            "lat": 22.336188,
            "lng": 114.147214
          },
          "southwest": {
            "lat": 22.335755,
            "lng": 114.146864
          }
        },
        "location": {
          "lat": 22.3359522,
          "lng": 114.1470473
        },
        "location_type": "ROOFTOP",
        "viewport": {
          "northeast": {
            "lat": 22.3373204802915,
            "lng": 114.1483879802915
          },
          "southwest": {
            "lat": 22.3346225197085,
            "lng": 114.1456900197085
          }
        }
      },
      "partial_match": true,
      "place_id": "EjUxL0YsIE5PLCAxNyBDaGV1bmcgU2h1biBTdCwgQ2hldW5nIFNoYSBXYW4sIEhvbmcgS29uZyIjGiEKFgoUChIJFW4731QHBDQRSj0UacytB0cSBzEvRiwgTk8",
      "types": [
        "subpremise"
      ]
    }
  ],
  "geocode_tc": [
    {
      "address_components": [
        {
          "long_name": "\u6a13\u90e8\u4efd",
          "short_name": "\u6a13\u90e8\u4efd",
          "types": [
            "subpremise"
          ]
        },
        {
          "long_name": "17",
          "short_name": "17",
          "types": [
            "street_number"
          ]
        },
        {
          "long_name": "\u9577\u9806\u8857",
          "short_name": "\u9577\u9806\u8857",
          "types": [
            "route"
          ]
        },
        {
          "long_name": "\u9577\u6c99\u7063",
          "short_name": "\u9577\u6c99\u7063",
          "types": [
            "neighborhood",
            "political"
          ]
        },
        {
          "long_name": "\u4e5d\u9f8d",
          "short_name": "\u4e5d\u9f8d",
          "types": [
            "administrative_area_level_1",
            "political"
          ]
        },
        {
          "long_name": "\u9999\u6e2f",
          "short_name": "HK",
          "types": [
            "country",
            "political"
          ]
        }
      ],
      "formatted_address": "\u9999\u6e2f\u9577\u6c99\u7063\u9577\u9806\u885717\u865f\u6a13\u90e8\u4efd",
      "geometry": {
        "bounds": {
          "northeast": {
            "lat": 22.336188,
            "lng": 114.147214
          },
          "southwest": {
            "lat": 22.335755,
            "lng": 114.146864
          }
        },
        "location": {
          "lat": 22.3359522,
          "lng": 114.1470473
        },
        "location_type": "ROOFTOP",
        "viewport": {
          "northeast": {
            "lat": 22.3373204802915,
            "lng": 114.1483879802915
          },
          "southwest": {
            "lat": 22.3346225197085,
            "lng": 114.1456900197085
          }
        }
      },
      "partial_match": true,
      "place_id": "EjfmqJPpg6jku70sIDE3IENoZXVuZyBTaHVuIFN0LCBDaGV1bmcgU2hhIFdhbiwgSG9uZyBLb25nIiUaIwoWChQKEgkVbjvfVAcENBFKPRRpzK0HRxIJ5qiT6YOo5Lu9",
      "types": [
        "subpremise"
      ]
    },
    {
      "address_components": [
        {
          "long_name": "79",
          "short_name": "79",
          "types": [
            "street_number"
          ]
        },
        {
          "long_name": "Tai Wai Road",
          "short_name": "Tai Wai Rd",
          "types": [
            "route"
          ]
        },
        {
          "long_name": "Tai Wai",
          "short_name": "Tai Wai",
          "types": [
            "neighborhood",
            "political"
          ]
        },
        {
          "long_name": "New Territories",
          "short_name": "New Territories",
          "types": [
            "administrative_area_level_1",
            "political"
          ]
        },
        {
          "long_name": "\u9999\u6e2f",
          "short_name": "HK",
          "types": [
            "country",
            "political"
          ]
        }
      ],
      "formatted_address": "\u865f, 79 Tai Wai Rd, Tai Wai, \u9999\u6e2f",
      "geometry": {
        "location": {
          "lat": 22.3735058,
          "lng": 114.1782339
        },
        "location_type": "ROOFTOP",
        "viewport": {
          "northeast": {
            "lat": 22.3748547802915,
            "lng": 114.1795828802915
          },
          "southwest": {
            "lat": 22.3721568197085,
            "lng": 114.1768849197085
          }
        }
      },
      "partial_match": true,
      "place_id": "ChIJqy8oFwgHBDQRU_3KCHLhz74",
      "plus_code": {
        "compound_code": "95FH+C7 \u9999\u6e2f",
        "global_code": "7PJP95FH+C7"
      },
      "types": [
        "establishment",
        "food",
        "point_of_interest",
        "restaurant"
      ]
    }
  ],
  "licno": "2263804632",
  "timestamp": 1564968756,
  "version": "1564966095"
}
