{
  "adr_en": "\u806f\u8208, G/F, 3 KAM FUNG STREETAND THE OUTSIDE SEATING ACCOMMODATION, FUNG WONG VILLAGE, WONG TAI SIN, KOWLOON",
  "adr_tc": "\u4e5d\u9f8d\u9cf3\u51f0\u65b0\u6751\u91d1\u9cf3\u88573\u865f\u5730\u4e0b\u53ca\u8216\u524d\u9732\u5929\u8336\u5ea7 \u806f\u8208",
  "geocode_en": [
    {
      "address_components": [
        {
          "long_name": "41",
          "short_name": "41",
          "types": [
            "street_number"
          ]
        },
        {
          "long_name": "Spring Garden Lane",
          "short_name": "Spring Garden Ln",
          "types": [
            "route"
          ]
        },
        {
          "long_name": "Wan Chai",
          "short_name": "Wan Chai",
          "types": [
            "neighborhood",
            "political"
          ]
        },
        {
          "long_name": "Hong Kong Island",
          "short_name": "Hong Kong Island",
          "types": [
            "administrative_area_level_1",
            "political"
          ]
        },
        {
          "long_name": "Hong Kong",
          "short_name": "HK",
          "types": [
            "country",
            "political"
          ]
        }
      ],
      "formatted_address": "41 Spring Garden Ln, Wan Chai, Hong Kong",
      "geometry": {
        "location": {
          "lat": 22.2754567,
          "lng": 114.1725846
        },
        "location_type": "ROOFTOP",
        "viewport": {
          "northeast": {
            "lat": 22.2768056802915,
            "lng": 114.1739335802915
          },
          "southwest": {
            "lat": 22.2741077197085,
            "lng": 114.1712356197085
          }
        }
      },
      "partial_match": true,
      "place_id": "ChIJJQ_usFwABDQRSWFY94m93Es",
      "plus_code": {
        "compound_code": "75GF+52 Wan Chai, Hong Kong",
        "global_code": "7PJP75GF+52"
      },
      "types": [
        "establishment",
        "food",
        "point_of_interest",
        "restaurant"
      ]
    },
    {
      "address_components": [
        {
          "long_name": "Fung Wong Building",
          "short_name": "Fung Wong Building",
          "types": [
            "premise"
          ]
        },
        {
          "long_name": "37",
          "short_name": "37",
          "types": [
            "street_number"
          ]
        },
        {
          "long_name": "Sheung Fung Street",
          "short_name": "Sheung Fung St",
          "types": [
            "route"
          ]
        },
        {
          "long_name": "Chuk Un",
          "short_name": "Chuk Un",
          "types": [
            "neighborhood",
            "political"
          ]
        },
        {
          "long_name": "Kowloon",
          "short_name": "Kowloon",
          "types": [
            "administrative_area_level_1",
            "political"
          ]
        },
        {
          "long_name": "Hong Kong",
          "short_name": "HK",
          "types": [
            "country",
            "political"
          ]
        }
      ],
      "formatted_address": "Fung Wong Building, 37 Sheung Fung St, Chuk Un, Hong Kong",
      "geometry": {
        "bounds": {
          "northeast": {
            "lat": 22.3443871,
            "lng": 114.1974961
          },
          "southwest": {
            "lat": 22.3442681,
            "lng": 114.197181
          }
        },
        "location": {
          "lat": 22.3443279,
          "lng": 114.1973004
        },
        "location_type": "ROOFTOP",
        "viewport": {
          "northeast": {
            "lat": 22.3456765802915,
            "lng": 114.1986875302915
          },
          "southwest": {
            "lat": 22.3429786197085,
            "lng": 114.1959895697085
          }
        }
      },
      "partial_match": true,
      "place_id": "ChIJSe1yqN4GBDQRfEe_8NdyUEk",
      "types": [
        "premise"
      ]
    }
  ],
  "geocode_tc": [
    {
      "address_components": [
        {
          "long_name": "\u9999\u6e2f",
          "short_name": "HK",
          "types": [
            "country",
            "political"
          ]
        }
      ],
      "formatted_address": "\u9999\u6e2f\u91d1\u9cf3\u88573\u865f",
      "geometry": {
        "location": {
          "lat": 22.345066,
          "lng": 114.197946
        },
        "location_type": "GEOMETRIC_CENTER",
        "viewport": {
          "northeast": {
            "lat": 22.3464149802915,
            "lng": 114.1992949802915
          },
          "southwest": {
            "lat": 22.3437170197085,
            "lng": 114.1965970197085
          }
        }
      },
      "place_id": "ChIJgx6Hp94GBDQRqkgnO6uJY84",
      "plus_code": {
        "compound_code": "85WX+25 \u9999\u6e2f",
        "global_code": "7PJP85WX+25"
      },
      "types": [
        "establishment",
        "food",
        "point_of_interest",
        "restaurant"
      ]
    }
  ],
  "licno": "2253172132",
  "timestamp": 1564968756,
  "version": "1564966095"
}
