{
  "adr_en": "BLISS PUB, SHOP NO. 17 & 18, G/F, WAI FAT BUILDING, FUNG CHEUNG ROAD, YUEN LONG, NEW TERRITORIES",
  "adr_tc": "\u65b0\u754c\u5143\u6717\u9cf3\u7fd4\u8def \u5049\u767c\u5927\u5ec8\u5730\u4e0b17\u53ca18\u865f\u92ea BLISS PUB",
  "geocode_en": [
    {
      "address_components": [
        {
          "long_name": "Wai Fat Building",
          "short_name": "Wai Fat Building",
          "types": [
            "premise"
          ]
        },
        {
          "long_name": "1A-5L",
          "short_name": "1A-5L",
          "types": [
            "street_number"
          ]
        },
        {
          "long_name": "Fung Cheung Road",
          "short_name": "Fung Cheung Rd",
          "types": [
            "route"
          ]
        },
        {
          "long_name": "Yuen Long",
          "short_name": "Yuen Long",
          "types": [
            "neighborhood",
            "political"
          ]
        },
        {
          "long_name": "New Territories",
          "short_name": "New Territories",
          "types": [
            "administrative_area_level_1",
            "political"
          ]
        },
        {
          "long_name": "Hong Kong",
          "short_name": "HK",
          "types": [
            "country",
            "political"
          ]
        }
      ],
      "formatted_address": "Wai Fat Building, 1A-5L Fung Cheung Rd, Yuen Long, Hong Kong",
      "geometry": {
        "bounds": {
          "northeast": {
            "lat": 22.444126,
            "lng": 114.0329886
          },
          "southwest": {
            "lat": 22.443899,
            "lng": 114.0327162
          }
        },
        "location": {
          "lat": 22.4440305,
          "lng": 114.0328283
        },
        "location_type": "ROOFTOP",
        "viewport": {
          "northeast": {
            "lat": 22.4453614802915,
            "lng": 114.0342013802915
          },
          "southwest": {
            "lat": 22.4426635197085,
            "lng": 114.0315034197085
          }
        }
      },
      "partial_match": true,
      "place_id": "ChIJO5M2EafwAzQRIHS3cgrUHmY",
      "types": [
        "premise"
      ]
    }
  ],
  "geocode_tc": [
    {
      "address_components": [
        {
          "long_name": "\u9999\u6e2f",
          "short_name": "HK",
          "types": [
            "country",
            "political"
          ]
        }
      ],
      "formatted_address": "Shop 18, Wai Fat Building, 1 Fung Yau Street, Yuen Long, \u9999\u6e2f",
      "geometry": {
        "location": {
          "lat": 22.4440282,
          "lng": 114.0328424
        },
        "location_type": "GEOMETRIC_CENTER",
        "viewport": {
          "northeast": {
            "lat": 22.4453771802915,
            "lng": 114.0341913802915
          },
          "southwest": {
            "lat": 22.44267921970849,
            "lng": 114.0314934197085
          }
        }
      },
      "place_id": "ChIJE2o2EafwAzQRbwwbZ2jt7rU",
      "plus_code": {
        "compound_code": "C2VM+J4 \u9999\u6e2f",
        "global_code": "7PJPC2VM+J4"
      },
      "types": [
        "bar",
        "establishment",
        "point_of_interest"
      ]
    }
  ],
  "licno": "3194000632",
  "timestamp": 1564975666,
  "version": "1564966095"
}
