{
  "adr_en": "Fairwood Fast Food, SHOP NOS. 204 & 207A, LEVEL 2, METRO CITY, PHASE 1, TSEUNG KWAN O, SAI KUNG, NEW TERRITORIES",
  "adr_tc": "\u65b0\u754c\u897f\u8ca2\u5c07\u8ecd\u6fb3\u65b0\u90fd\u57ce\u4e00\u671f\u5546\u5834 \u7b2c\u4e8c\u5c64204\u53ca207A\u865f\u92ea \u5927\u5feb\u6d3b",
  "geocode_en": [
    {
      "address_components": [
        {
          "long_name": "1",
          "short_name": "1",
          "types": [
            "street_number"
          ]
        },
        {
          "long_name": "Wan Hang Road",
          "short_name": "Wan Hang Rd",
          "types": [
            "route"
          ]
        },
        {
          "long_name": "Metro City",
          "short_name": "Metro City",
          "types": [
            "neighborhood",
            "political"
          ]
        },
        {
          "long_name": "New Territories",
          "short_name": "New Territories",
          "types": [
            "administrative_area_level_1",
            "political"
          ]
        },
        {
          "long_name": "Hong Kong",
          "short_name": "HK",
          "types": [
            "country",
            "political"
          ]
        }
      ],
      "formatted_address": "1 Wan Hang Rd, Metro City, Hong Kong",
      "geometry": {
        "location": {
          "lat": 22.320684,
          "lng": 114.256963
        },
        "location_type": "ROOFTOP",
        "viewport": {
          "northeast": {
            "lat": 22.3220329802915,
            "lng": 114.2583119802915
          },
          "southwest": {
            "lat": 22.3193350197085,
            "lng": 114.2556140197085
          }
        }
      },
      "partial_match": true,
      "place_id": "ChIJTyMjCQwEBDQRUW1fsqA10aQ",
      "plus_code": {
        "compound_code": "87C4+7Q Hong Kong",
        "global_code": "7PJP87C4+7Q"
      },
      "types": [
        "establishment",
        "point_of_interest"
      ]
    },
    {
      "address_components": [
        {
          "long_name": "Tseung Kwan O",
          "short_name": "Tseung Kwan O",
          "types": [
            "neighborhood",
            "political"
          ]
        },
        {
          "long_name": "New Territories",
          "short_name": "New Territories",
          "types": [
            "administrative_area_level_1",
            "political"
          ]
        },
        {
          "long_name": "Hong Kong",
          "short_name": "HK",
          "types": [
            "country",
            "political"
          ]
        }
      ],
      "formatted_address": "Tseung Kwan O, Hong Kong",
      "geometry": {
        "bounds": {
          "northeast": {
            "lat": 22.3147112,
            "lng": 114.2654406
          },
          "southwest": {
            "lat": 22.3005346,
            "lng": 114.255294
          }
        },
        "location": {
          "lat": 22.3119357,
          "lng": 114.2568776
        },
        "location_type": "APPROXIMATE",
        "viewport": {
          "northeast": {
            "lat": 22.3147112,
            "lng": 114.2654406
          },
          "southwest": {
            "lat": 22.3005346,
            "lng": 114.255294
          }
        }
      },
      "partial_match": true,
      "place_id": "ChIJQclRg-kDBDQRcCbTSL7_7M0",
      "types": [
        "neighborhood",
        "political"
      ]
    }
  ],
  "geocode_tc": [
    {
      "address_components": [
        {
          "long_name": "1",
          "short_name": "1",
          "types": [
            "street_number"
          ]
        },
        {
          "long_name": "\u904b\u4ea8\u8def",
          "short_name": "\u904b\u4ea8\u8def",
          "types": [
            "route"
          ]
        },
        {
          "long_name": "\u65b0\u90fd\u57ce",
          "short_name": "\u65b0\u90fd\u57ce",
          "types": [
            "neighborhood",
            "political"
          ]
        },
        {
          "long_name": "\u65b0\u754c",
          "short_name": "\u65b0\u754c",
          "types": [
            "administrative_area_level_1",
            "political"
          ]
        },
        {
          "long_name": "\u9999\u6e2f",
          "short_name": "HK",
          "types": [
            "country",
            "political"
          ]
        }
      ],
      "formatted_address": "\u9999\u6e2f\u65b0\u90fd\u57ce\u904b\u4ea8\u8def1\u865f",
      "geometry": {
        "location": {
          "lat": 22.3216486,
          "lng": 114.2573864
        },
        "location_type": "ROOFTOP",
        "viewport": {
          "northeast": {
            "lat": 22.3229975802915,
            "lng": 114.2587353802915
          },
          "southwest": {
            "lat": 22.3202996197085,
            "lng": 114.2560374197085
          }
        }
      },
      "place_id": "ChIJqwmu2QsEBDQRVz-mvOXb-kk",
      "plus_code": {
        "compound_code": "87C4+MX \u9999\u6e2f",
        "global_code": "7PJP87C4+MX"
      },
      "types": [
        "establishment",
        "food",
        "point_of_interest",
        "restaurant"
      ]
    }
  ],
  "licno": "2298800591",
  "timestamp": 1564975666,
  "version": "1564966095"
}
