{
  "adr_en": "HUNGRY KOREAN, SHOP NO. 3, G/F., TAK WOO HOUSE, NOS. 17-19 D'AGUILAR STREET, NOS. 1-3 WO ON LANE, CENTRAL, HONG KONG",
  "adr_tc": "\u9999\u6e2f\u4e2d\u74b0\u548c\u5b89\u91cc1-3\u865f\u5fb7\u5df1\u7acb\u885717-19\u865f\u5fb7\u548c\u5927\u5ec8\u5730\u4e0b3\u865f\u8216 HUNGRY KOREAN",
  "geocode_en": [
    {
      "address_components": [
        {
          "long_name": "SHOP NO. 3, G",
          "short_name": "SHOP NO. 3, G",
          "types": [
            "subpremise"
          ]
        },
        {
          "long_name": "17",
          "short_name": "17",
          "types": [
            "street_number"
          ]
        },
        {
          "long_name": "D'Aguilar Street",
          "short_name": "D'Aguilar St",
          "types": [
            "route"
          ]
        },
        {
          "long_name": "Central",
          "short_name": "Central",
          "types": [
            "neighborhood",
            "political"
          ]
        },
        {
          "long_name": "Hong Kong Island",
          "short_name": "Hong Kong Island",
          "types": [
            "administrative_area_level_1",
            "political"
          ]
        },
        {
          "long_name": "Hong Kong",
          "short_name": "HK",
          "types": [
            "country",
            "political"
          ]
        }
      ],
      "formatted_address": "SHOP NO. 3, G, 17 D'Aguilar St, Central, Hong Kong",
      "geometry": {
        "location": {
          "lat": 22.2813364,
          "lng": 114.1554563
        },
        "location_type": "ROOFTOP",
        "viewport": {
          "northeast": {
            "lat": 22.2826853802915,
            "lng": 114.1568052802915
          },
          "southwest": {
            "lat": 22.2799874197085,
            "lng": 114.1541073197085
          }
        }
      },
      "partial_match": true,
      "place_id": "EjJTSE9QIE5PLiAzLCBHLCAxNyBEJ0FndWlsYXIgU3QsIENlbnRyYWwsIEhvbmcgS29uZyIpGicKFgoUChIJpxIiMnsABDQReuO-ZIo_4PcSDVNIT1AgTk8uIDMsIEc",
      "types": [
        "subpremise"
      ]
    }
  ],
  "geocode_tc": [
    {
      "address_components": [
        {
          "long_name": "\u5fb7\u548c\u5927\u5ec8",
          "short_name": "\u5fb7\u548c\u5927\u5ec8",
          "types": [
            "premise"
          ]
        },
        {
          "long_name": "\u4e2d\u74b0",
          "short_name": "\u4e2d\u74b0",
          "types": [
            "neighborhood",
            "political"
          ]
        },
        {
          "long_name": "\u9999\u6e2f\u5cf6",
          "short_name": "\u9999\u6e2f\u5cf6",
          "types": [
            "administrative_area_level_1",
            "political"
          ]
        },
        {
          "long_name": "\u9999\u6e2f",
          "short_name": "HK",
          "types": [
            "country",
            "political"
          ]
        }
      ],
      "formatted_address": "\u9999\u6e2f\u4e2d\u74b0\u5fb7\u548c\u5927\u5ec8",
      "geometry": {
        "bounds": {
          "northeast": {
            "lat": 22.2814115,
            "lng": 114.1555572
          },
          "southwest": {
            "lat": 22.2811142,
            "lng": 114.1553074
          }
        },
        "location": {
          "lat": 22.2812836,
          "lng": 114.155431
        },
        "location_type": "ROOFTOP",
        "viewport": {
          "northeast": {
            "lat": 22.2826118302915,
            "lng": 114.1567812802915
          },
          "southwest": {
            "lat": 22.27991386970849,
            "lng": 114.1540833197085
          }
        }
      },
      "partial_match": true,
      "place_id": "ChIJ7TsiMnsABDQRag48Umstiik",
      "types": [
        "premise"
      ]
    }
  ],
  "licno": "2218810109",
  "timestamp": 1564968756,
  "version": "1564966095"
}
