{
  "adr_en": "Fairwood Fast Food, SHOP NOS. C1A, C1B, C1C AND C2C ON G/F. AND B/F., CHINA INSURANCE GROUP BUILDING, 141 DES VOEUX ROAD CENTRAL, 73 CONNAUGHT ROAD CENTRAL, 61-65 GILMAN STREET, SHEUNG WAN, HONG KONG",
  "adr_tc": "\u9999\u6e2f\u4e0a\u74b0\u5fb7\u8f14\u9053\u4e2d141\u865f,\u5e72\u8afe\u9053\u4e2d73\u865f, \u6a5f\u5229\u6587\u885761-65\u865f\u4e2d\u4fdd\u96c6\u5718\u5927\u5ec8\u5730\u4e0b C1A, C1B, C1C\u53caC2C\u865f\u8216\u53ca\u5730\u5eab \u5927\u5feb\u6d3b\u5feb\u9910",
  "geocode_en": [
    {
      "address_components": [
        {
          "long_name": "141",
          "short_name": "141",
          "types": [
            "street_number"
          ]
        },
        {
          "long_name": "Des Voeux Road Central",
          "short_name": "Des Voeux Rd Central",
          "types": [
            "route"
          ]
        },
        {
          "long_name": "Central",
          "short_name": "Central",
          "types": [
            "neighborhood",
            "political"
          ]
        },
        {
          "long_name": "Hong Kong Island",
          "short_name": "Hong Kong Island",
          "types": [
            "administrative_area_level_1",
            "political"
          ]
        },
        {
          "long_name": "Hong Kong",
          "short_name": "HK",
          "types": [
            "country",
            "political"
          ]
        }
      ],
      "formatted_address": "141 Des Voeux Rd Central, Central, Hong Kong",
      "geometry": {
        "location": {
          "lat": 22.2855,
          "lng": 114.155172
        },
        "location_type": "ROOFTOP",
        "viewport": {
          "northeast": {
            "lat": 22.2868489802915,
            "lng": 114.1565209802915
          },
          "southwest": {
            "lat": 22.2841510197085,
            "lng": 114.1538230197085
          }
        }
      },
      "partial_match": true,
      "place_id": "ChIJVTIW0HwABDQRvywcOKK71cc",
      "plus_code": {
        "compound_code": "75P4+53 Central, Hong Kong",
        "global_code": "7PJP75P4+53"
      },
      "types": [
        "establishment",
        "point_of_interest",
        "premise"
      ]
    },
    {
      "address_components": [
        {
          "long_name": "China Insurance Group Building",
          "short_name": "China Insurance Group Building",
          "types": [
            "premise"
          ]
        },
        {
          "long_name": "141",
          "short_name": "141",
          "types": [
            "street_number"
          ]
        },
        {
          "long_name": "Des Voeux Road Central",
          "short_name": "Des Voeux Rd Central",
          "types": [
            "route"
          ]
        },
        {
          "long_name": "Central",
          "short_name": "Central",
          "types": [
            "neighborhood",
            "political"
          ]
        },
        {
          "long_name": "Hong Kong Island",
          "short_name": "Hong Kong Island",
          "types": [
            "administrative_area_level_1",
            "political"
          ]
        },
        {
          "long_name": "Hong Kong",
          "short_name": "HK",
          "types": [
            "country",
            "political"
          ]
        }
      ],
      "formatted_address": "China Insurance Group Building, 141 Des Voeux Rd Central, Central, Hong Kong",
      "geometry": {
        "bounds": {
          "northeast": {
            "lat": 22.285804,
            "lng": 114.1554149
          },
          "southwest": {
            "lat": 22.2852869,
            "lng": 114.154902
          }
        },
        "location": {
          "lat": 22.2855824,
          "lng": 114.1551291
        },
        "location_type": "ROOFTOP",
        "viewport": {
          "northeast": {
            "lat": 22.2868944302915,
            "lng": 114.1565074302915
          },
          "southwest": {
            "lat": 22.2841964697085,
            "lng": 114.1538094697085
          }
        }
      },
      "partial_match": true,
      "place_id": "ChIJR6Br0HwABDQRJgmDEUzUnA0",
      "types": [
        "premise"
      ]
    }
  ],
  "geocode_tc": [
    {
      "address_components": [
        {
          "long_name": "\u4e2d\u4fdd\u96c6\u5718\u5927\u5ec8",
          "short_name": "\u4e2d\u4fdd\u96c6\u5718\u5927\u5ec8",
          "types": [
            "premise"
          ]
        },
        {
          "long_name": "141",
          "short_name": "141",
          "types": [
            "street_number"
          ]
        },
        {
          "long_name": "\u5fb7\u8f14\u9053\u4e2d",
          "short_name": "\u5fb7\u8f14\u9053\u4e2d",
          "types": [
            "route"
          ]
        },
        {
          "long_name": "\u4e2d\u74b0",
          "short_name": "\u4e2d\u74b0",
          "types": [
            "neighborhood",
            "political"
          ]
        },
        {
          "long_name": "\u9999\u6e2f\u5cf6",
          "short_name": "\u9999\u6e2f\u5cf6",
          "types": [
            "administrative_area_level_1",
            "political"
          ]
        },
        {
          "long_name": "\u9999\u6e2f",
          "short_name": "HK",
          "types": [
            "country",
            "political"
          ]
        }
      ],
      "formatted_address": "\u9999\u6e2f\u4e2d\u74b0\u5fb7\u8f14\u9053\u4e2d141\u865f\u4e2d\u4fdd\u96c6\u5718\u5927\u5ec8",
      "geometry": {
        "bounds": {
          "northeast": {
            "lat": 22.285804,
            "lng": 114.1554149
          },
          "southwest": {
            "lat": 22.2852869,
            "lng": 114.154902
          }
        },
        "location": {
          "lat": 22.2855824,
          "lng": 114.1551291
        },
        "location_type": "ROOFTOP",
        "viewport": {
          "northeast": {
            "lat": 22.2868944302915,
            "lng": 114.1565074302915
          },
          "southwest": {
            "lat": 22.2841964697085,
            "lng": 114.1538094697085
          }
        }
      },
      "partial_match": true,
      "place_id": "ChIJR6Br0HwABDQRJgmDEUzUnA0",
      "types": [
        "premise"
      ]
    },
    {
      "address_components": [
        {
          "long_name": "\u4e2d\u4fdd\u96c6\u5718\u5927\u5ec8",
          "short_name": "\u4e2d\u4fdd\u96c6\u5718\u5927\u5ec8",
          "types": [
            "premise"
          ]
        },
        {
          "long_name": "141",
          "short_name": "141",
          "types": [
            "street_number"
          ]
        },
        {
          "long_name": "\u5fb7\u8f14\u9053\u4e2d",
          "short_name": "\u5fb7\u8f14\u9053\u4e2d",
          "types": [
            "route"
          ]
        },
        {
          "long_name": "\u4e2d\u74b0",
          "short_name": "\u4e2d\u74b0",
          "types": [
            "neighborhood",
            "political"
          ]
        },
        {
          "long_name": "\u9999\u6e2f\u5cf6",
          "short_name": "\u9999\u6e2f\u5cf6",
          "types": [
            "administrative_area_level_1",
            "political"
          ]
        },
        {
          "long_name": "\u9999\u6e2f",
          "short_name": "HK",
          "types": [
            "country",
            "political"
          ]
        }
      ],
      "formatted_address": "\u9999\u6e2f\u4e2d\u74b0\u5fb7\u8f14\u9053\u4e2d141\u865f\u4e2d\u4fdd\u96c6\u5718\u5927\u5ec8",
      "geometry": {
        "bounds": {
          "northeast": {
            "lat": 22.285804,
            "lng": 114.1554149
          },
          "southwest": {
            "lat": 22.2852869,
            "lng": 114.154902
          }
        },
        "location": {
          "lat": 22.2855824,
          "lng": 114.1551291
        },
        "location_type": "ROOFTOP",
        "viewport": {
          "northeast": {
            "lat": 22.2868944302915,
            "lng": 114.1565074302915
          },
          "southwest": {
            "lat": 22.2841964697085,
            "lng": 114.1538094697085
          }
        }
      },
      "partial_match": true,
      "place_id": "ChIJR6Br0HwABDQRJgmDEUzUnA0",
      "types": [
        "premise"
      ]
    },
    {
      "address_components": [
        {
          "long_name": "61",
          "short_name": "61",
          "types": [
            "street_number"
          ]
        },
        {
          "long_name": "\u6a5f\u5229\u6587\u8857",
          "short_name": "\u6a5f\u5229\u6587\u8857",
          "types": [
            "route"
          ]
        },
        {
          "long_name": "\u4e2d\u74b0",
          "short_name": "\u4e2d\u74b0",
          "types": [
            "neighborhood",
            "political"
          ]
        },
        {
          "long_name": "\u9999\u6e2f\u5cf6",
          "short_name": "\u9999\u6e2f\u5cf6",
          "types": [
            "administrative_area_level_1",
            "political"
          ]
        },
        {
          "long_name": "\u9999\u6e2f",
          "short_name": "HK",
          "types": [
            "country",
            "political"
          ]
        }
      ],
      "formatted_address": "\u9999\u6e2f\u4e2d\u74b0\u6a5f\u5229\u6587\u885761\u865f",
      "geometry": {
        "location": {
          "lat": 22.2861715,
          "lng": 114.1557251
        },
        "location_type": "RANGE_INTERPOLATED",
        "viewport": {
          "northeast": {
            "lat": 22.2875204802915,
            "lng": 114.1570740802915
          },
          "southwest": {
            "lat": 22.2848225197085,
            "lng": 114.1543761197085
          }
        }
      },
      "partial_match": true,
      "place_id": "EiA2MSBHaWxtYW4gU3QsIENlbnRyYWwsIEhvbmcgS29uZyIaEhgKFAoSCQnoVyl9AAQ0EVN2KaA4zsQiED0",
      "types": [
        "street_address"
      ]
    },
    {
      "address_components": [
        {
          "long_name": "141",
          "short_name": "141",
          "types": [
            "street_number"
          ]
        },
        {
          "long_name": "\u5fb7\u8f14\u9053\u4e2d",
          "short_name": "\u5fb7\u8f14\u9053\u4e2d",
          "types": [
            "route"
          ]
        },
        {
          "long_name": "\u4e2d\u74b0",
          "short_name": "\u4e2d\u74b0",
          "types": [
            "neighborhood",
            "political"
          ]
        },
        {
          "long_name": "\u9999\u6e2f\u5cf6",
          "short_name": "\u9999\u6e2f\u5cf6",
          "types": [
            "administrative_area_level_1",
            "political"
          ]
        },
        {
          "long_name": "\u9999\u6e2f",
          "short_name": "HK",
          "types": [
            "country",
            "political"
          ]
        }
      ],
      "formatted_address": "\u9999\u6e2f\u4e2d\u74b0\u5fb7\u8f14\u9053\u4e2d141\u865f",
      "geometry": {
        "location": {
          "lat": 22.2855,
          "lng": 114.155172
        },
        "location_type": "ROOFTOP",
        "viewport": {
          "northeast": {
            "lat": 22.2868489802915,
            "lng": 114.1565209802915
          },
          "southwest": {
            "lat": 22.2841510197085,
            "lng": 114.1538230197085
          }
        }
      },
      "partial_match": true,
      "place_id": "ChIJVTIW0HwABDQRvywcOKK71cc",
      "plus_code": {
        "compound_code": "75P4+53 \u9999\u6e2f\u4e2d\u74b0",
        "global_code": "7PJP75P4+53"
      },
      "types": [
        "establishment",
        "point_of_interest",
        "premise"
      ]
    }
  ],
  "licno": "2218805042",
  "timestamp": 1564968756,
  "version": "1564966095"
}
