{
  "adr_en": "WATER FRONT PARK LIGHT REFRESHMENT RESTAURANT, LIGHT REFRESHMENT RESTAURANT WATERFRONT PARK, DAI FAT STREET, TAI PO, NEW TERRITORIES",
  "adr_tc": "\u65b0\u754c\u5927\u57d4\u5927\u767c\u8857\u6d77\u6ff1\u516c\u5712\u5feb\u9910\u5ef3 \u6d77\u6ff1\u516c\u5712\u5feb\u9910\u5ef3",
  "geocode_en": [
    {
      "address_components": [
        {
          "long_name": "Hong Kong",
          "short_name": "HK",
          "types": [
            "country",
            "political"
          ]
        }
      ],
      "formatted_address": "Light Refreshment Restaurant Waterfront Park, Dai Fat Street, Tai Po, New Territories, Hong Kong",
      "geometry": {
        "location": {
          "lat": 22.451336,
          "lng": 114.179622
        },
        "location_type": "GEOMETRIC_CENTER",
        "viewport": {
          "northeast": {
            "lat": 22.4526849802915,
            "lng": 114.1809709802915
          },
          "southwest": {
            "lat": 22.4499870197085,
            "lng": 114.1782730197085
          }
        }
      },
      "place_id": "ChIJ9XXMtFoIBDQRaWuX_4G3iGM",
      "plus_code": {
        "compound_code": "F52H+GR Hong Kong",
        "global_code": "7PJPF52H+GR"
      },
      "types": [
        "establishment",
        "point_of_interest"
      ]
    }
  ],
  "geocode_tc": [
    {
      "address_components": [
        {
          "long_name": "\u9999\u6e2f",
          "short_name": "HK",
          "types": [
            "country",
            "political"
          ]
        }
      ],
      "formatted_address": "Light Refreshment Restaurant Waterfront Park, Dai Fat Street, Tai Po, New Territories, \u9999\u6e2f",
      "geometry": {
        "location": {
          "lat": 22.451336,
          "lng": 114.179622
        },
        "location_type": "GEOMETRIC_CENTER",
        "viewport": {
          "northeast": {
            "lat": 22.4526849802915,
            "lng": 114.1809709802915
          },
          "southwest": {
            "lat": 22.4499870197085,
            "lng": 114.1782730197085
          }
        }
      },
      "place_id": "ChIJ9XXMtFoIBDQRaWuX_4G3iGM",
      "plus_code": {
        "compound_code": "F52H+GR \u9999\u6e2f",
        "global_code": "7PJPF52H+GR"
      },
      "types": [
        "establishment",
        "point_of_interest"
      ]
    },
    {
      "address_components": [
        {
          "long_name": "\u5927\u57d4\u6d77\u6ff1\u516c\u5712",
          "short_name": "\u5927\u57d4\u6d77\u6ff1\u516c\u5712",
          "types": [
            "establishment",
            "park",
            "point_of_interest"
          ]
        },
        {
          "long_name": "\u5927\u559c\u8857",
          "short_name": "\u5927\u559c\u8857",
          "types": [
            "route"
          ]
        },
        {
          "long_name": "\u5927\u57d4",
          "short_name": "\u5927\u57d4",
          "types": [
            "neighborhood",
            "political"
          ]
        },
        {
          "long_name": "\u65b0\u754c",
          "short_name": "\u65b0\u754c",
          "types": [
            "administrative_area_level_1",
            "political"
          ]
        },
        {
          "long_name": "\u9999\u6e2f",
          "short_name": "HK",
          "types": [
            "country",
            "political"
          ]
        }
      ],
      "formatted_address": "\u9999\u6e2f\u5927\u57d4\u5927\u559c\u8857\u5927\u57d4\u6d77\u6ff1\u516c\u5712",
      "geometry": {
        "location": {
          "lat": 22.452679,
          "lng": 114.188403
        },
        "location_type": "GEOMETRIC_CENTER",
        "viewport": {
          "northeast": {
            "lat": 22.4540279802915,
            "lng": 114.1897519802915
          },
          "southwest": {
            "lat": 22.4513300197085,
            "lng": 114.1870540197085
          }
        }
      },
      "place_id": "ChIJ5b45AVoIBDQR05f-5Z2mj8Q",
      "plus_code": {
        "compound_code": "F53Q+39 \u9999\u6e2f",
        "global_code": "7PJPF53Q+39"
      },
      "types": [
        "establishment",
        "park",
        "point_of_interest"
      ]
    }
  ],
  "licno": "3195800695",
  "timestamp": 1564975666,
  "version": "1564966095"
}
