{
  "adr_en": "New Star Restaurant, UPPER G/F, 40-42 STANLEY MAIN STREET, STANLEY, SOUTHERN, HONG KONG",
  "adr_tc": "\u8d64\u67f1\u5927\u885740\u81f342\u865f\u5730\u4e0b\u9ad8\u5c64 \u65b0\u661f\u8336\u9910\u5ef3",
  "geocode_en": [
    {
      "address_components": [
        {
          "long_name": "40-42",
          "short_name": "40-42",
          "types": [
            "street_number"
          ]
        },
        {
          "long_name": "Stanley Main Street",
          "short_name": "Stanley Main St",
          "types": [
            "route"
          ]
        },
        {
          "long_name": "Stanley",
          "short_name": "Stanley",
          "types": [
            "neighborhood",
            "political"
          ]
        },
        {
          "long_name": "Hong Kong Island",
          "short_name": "Hong Kong Island",
          "types": [
            "administrative_area_level_1",
            "political"
          ]
        },
        {
          "long_name": "Hong Kong",
          "short_name": "HK",
          "types": [
            "country",
            "political"
          ]
        }
      ],
      "formatted_address": "40-42 Stanley Main St, Stanley, Hong Kong",
      "geometry": {
        "location": {
          "lat": 22.217948,
          "lng": 114.212843
        },
        "location_type": "ROOFTOP",
        "viewport": {
          "northeast": {
            "lat": 22.2192969802915,
            "lng": 114.2141919802915
          },
          "southwest": {
            "lat": 22.2165990197085,
            "lng": 114.2114940197085
          }
        }
      },
      "partial_match": true,
      "place_id": "ChIJsUoGe2uqBjQRQu2dMLC-Eg4",
      "plus_code": {
        "compound_code": "6697+54 Hong Kong",
        "global_code": "7PJP6697+54"
      },
      "types": [
        "establishment",
        "food",
        "point_of_interest",
        "restaurant"
      ]
    },
    {
      "address_components": [
        {
          "long_name": "F",
          "short_name": "F",
          "types": [
            "subpremise"
          ]
        },
        {
          "long_name": "Yau Yee House",
          "short_name": "Yau Yee House",
          "types": [
            "premise"
          ]
        },
        {
          "long_name": "40-42",
          "short_name": "40-42",
          "types": [
            "street_number"
          ]
        },
        {
          "long_name": "Stanley Main Street",
          "short_name": "Stanley Main St",
          "types": [
            "route"
          ]
        },
        {
          "long_name": "Stanley",
          "short_name": "Stanley",
          "types": [
            "neighborhood",
            "political"
          ]
        },
        {
          "long_name": "Hong Kong Island",
          "short_name": "Hong Kong Island",
          "types": [
            "administrative_area_level_1",
            "political"
          ]
        },
        {
          "long_name": "Hong Kong",
          "short_name": "HK",
          "types": [
            "country",
            "political"
          ]
        }
      ],
      "formatted_address": "F, Yau Yee House, 40-42 Stanley Main St, Stanley, Hong Kong",
      "geometry": {
        "bounds": {
          "northeast": {
            "lat": 22.218045,
            "lng": 114.21292
          },
          "southwest": {
            "lat": 22.2179181,
            "lng": 114.2127961
          }
        },
        "location": {
          "lat": 22.2179824,
          "lng": 114.2128466
        },
        "location_type": "ROOFTOP",
        "viewport": {
          "northeast": {
            "lat": 22.2193305302915,
            "lng": 114.2142070302915
          },
          "southwest": {
            "lat": 22.2166325697085,
            "lng": 114.2115090697085
          }
        }
      },
      "partial_match": true,
      "place_id": "EjtGLCBZYXUgWWVlIEhvdXNlLCA0MC00MiBTdGFubGV5IE1haW4gU3QsIFN0YW5sZXksIEhvbmcgS29uZyIdGhsKFgoUChIJbyqoe2uqBjQRmg1luNydveMSAUY",
      "types": [
        "subpremise"
      ]
    }
  ],
  "geocode_tc": [
    {
      "address_components": [
        {
          "long_name": "\u9999\u6e2f",
          "short_name": "HK",
          "types": [
            "country",
            "political"
          ]
        }
      ],
      "formatted_address": "\u9999\u6e2f\u8d64\u67f1\u8d64\u67f1\u5927\u8857\u53cb\u8abc\u6a13\u5730\u4e0b",
      "geometry": {
        "location": {
          "lat": 22.2179824,
          "lng": 114.2128466
        },
        "location_type": "GEOMETRIC_CENTER",
        "viewport": {
          "northeast": {
            "lat": 22.2193313802915,
            "lng": 114.2141955802915
          },
          "southwest": {
            "lat": 22.2166334197085,
            "lng": 114.2114976197085
          }
        }
      },
      "place_id": "ChIJsUoGe2uqBjQRJwh9zdtKDTc",
      "plus_code": {
        "compound_code": "6697+54 \u9999\u6e2f",
        "global_code": "7PJP6697+54"
      },
      "types": [
        "establishment",
        "food",
        "point_of_interest",
        "restaurant"
      ]
    }
  ],
  "licno": "2215036762",
  "timestamp": 1564968756,
  "version": "1564966095"
}
