{
  "adr_en": "\u5c0f\u96f2\u5357\u9ebb\u9178\u8fa3\u7c73\u7dda, SHOP 35, LEVEL 3, BLOCK 8, MAYFAIR GARDENS, TSING YI, NEW TERRITORIES",
  "adr_tc": "\u65b0\u754c\u9752\u8863\u7f8e\u666f\u82b1\u5712L-3\u7b2c8\u5ea735\u865f\u92ea \u5c0f\u96f2\u5357\u9ebb\u9178\u8fa3\u7c73\u7dda",
  "geocode_en": [
    {
      "address_components": [
        {
          "long_name": "2",
          "short_name": "2",
          "types": [
            "street_number"
          ]
        },
        {
          "long_name": "Sai Shan Road",
          "short_name": "Sai Shan Rd",
          "types": [
            "route"
          ]
        },
        {
          "long_name": "Tsing Yi",
          "short_name": "Tsing Yi",
          "types": [
            "neighborhood",
            "political"
          ]
        },
        {
          "long_name": "New Territories",
          "short_name": "New Territories",
          "types": [
            "administrative_area_level_1",
            "political"
          ]
        },
        {
          "long_name": "Hong Kong",
          "short_name": "HK",
          "types": [
            "country",
            "political"
          ]
        }
      ],
      "formatted_address": "2 Sai Shan Rd, Tsing Yi, Hong Kong",
      "geometry": {
        "location": {
          "lat": 22.3438267,
          "lng": 114.1068491
        },
        "location_type": "ROOFTOP",
        "viewport": {
          "northeast": {
            "lat": 22.3451756802915,
            "lng": 114.1081980802915
          },
          "southwest": {
            "lat": 22.3424777197085,
            "lng": 114.1055001197085
          }
        }
      },
      "partial_match": true,
      "place_id": "ChIJAbveitL4AzQRP91G0dxI_QI",
      "plus_code": {
        "compound_code": "84V4+GP Hong Kong",
        "global_code": "7PJP84V4+GP"
      },
      "types": [
        "establishment",
        "food",
        "point_of_interest",
        "restaurant"
      ]
    },
    {
      "address_components": [
        {
          "long_name": "2-16\u865f",
          "short_name": "2-16\u865f",
          "types": [
            "street_number"
          ]
        },
        {
          "long_name": "Sai Shan Road",
          "short_name": "Sai Shan Rd",
          "types": [
            "route"
          ]
        },
        {
          "long_name": "Sai Shan",
          "short_name": "Sai Shan",
          "types": [
            "neighborhood",
            "political"
          ]
        },
        {
          "long_name": "New Territories",
          "short_name": "New Territories",
          "types": [
            "administrative_area_level_1",
            "political"
          ]
        },
        {
          "long_name": "Hong Kong",
          "short_name": "HK",
          "types": [
            "country",
            "political"
          ]
        }
      ],
      "formatted_address": "2-16\u865f Sai Shan Rd, Sai Shan, Hong Kong",
      "geometry": {
        "location": {
          "lat": 22.3440515,
          "lng": 114.1071605
        },
        "location_type": "ROOFTOP",
        "viewport": {
          "northeast": {
            "lat": 22.3454004802915,
            "lng": 114.1085094802915
          },
          "southwest": {
            "lat": 22.3427025197085,
            "lng": 114.1058115197085
          }
        }
      },
      "partial_match": true,
      "place_id": "ChIJX0C0etL4AzQR9gsw2Y1XJEc",
      "plus_code": {
        "compound_code": "84V4+JV Hong Kong",
        "global_code": "7PJP84V4+JV"
      },
      "types": [
        "establishment",
        "point_of_interest"
      ]
    }
  ],
  "geocode_tc": [
    {
      "address_components": [
        {
          "long_name": "2-16\u865f",
          "short_name": "2-16\u865f",
          "types": [
            "street_number"
          ]
        },
        {
          "long_name": "\u7d30\u5c71\u8def",
          "short_name": "\u7d30\u5c71\u8def",
          "types": [
            "route"
          ]
        },
        {
          "long_name": "\u7d30\u5c71",
          "short_name": "\u7d30\u5c71",
          "types": [
            "neighborhood",
            "political"
          ]
        },
        {
          "long_name": "\u65b0\u754c",
          "short_name": "\u65b0\u754c",
          "types": [
            "administrative_area_level_1",
            "political"
          ]
        },
        {
          "long_name": "\u9999\u6e2f",
          "short_name": "HK",
          "types": [
            "country",
            "political"
          ]
        }
      ],
      "formatted_address": "\u9999\u6e2f\u7d30\u5c71\u7d30\u5c71\u8def2-16\u865f",
      "geometry": {
        "location": {
          "lat": 22.3440515,
          "lng": 114.1071605
        },
        "location_type": "ROOFTOP",
        "viewport": {
          "northeast": {
            "lat": 22.3454004802915,
            "lng": 114.1085094802915
          },
          "southwest": {
            "lat": 22.3427025197085,
            "lng": 114.1058115197085
          }
        }
      },
      "partial_match": true,
      "place_id": "ChIJX0C0etL4AzQR9gsw2Y1XJEc",
      "plus_code": {
        "compound_code": "84V4+JV \u9999\u6e2f",
        "global_code": "7PJP84V4+JV"
      },
      "types": [
        "establishment",
        "point_of_interest"
      ]
    },
    {
      "address_components": [
        {
          "long_name": "\u96f2\u5357",
          "short_name": "\u96f2\u5357",
          "types": [
            "administrative_area_level_1",
            "political"
          ]
        },
        {
          "long_name": "\u4e2d\u570b",
          "short_name": "CN",
          "types": [
            "country",
            "political"
          ]
        }
      ],
      "formatted_address": "\u4e2d\u570b\u96f2\u5357",
      "geometry": {
        "bounds": {
          "northeast": {
            "lat": 29.2233268,
            "lng": 106.1977222
          },
          "southwest": {
            "lat": 21.1417696,
            "lng": 97.5279781
          }
        },
        "location": {
          "lat": 24.4752847,
          "lng": 101.3431058
        },
        "location_type": "APPROXIMATE",
        "viewport": {
          "northeast": {
            "lat": 29.2233268,
            "lng": 106.1977222
          },
          "southwest": {
            "lat": 21.1417696,
            "lng": 97.5279781
          }
        }
      },
      "partial_match": true,
      "place_id": "ChIJKVugMtuD0DYRKayNyrfrPKY",
      "types": [
        "administrative_area_level_1",
        "political"
      ]
    }
  ],
  "licno": "3191800509",
  "timestamp": 1564975666,
  "version": "1564966095"
}
