{
  "adr_en": "28 \u5c45\u9152\u5c4b, SHOP J, G/F., TUNG HING MANSION, NO. 41-55 BELCHER'S STREET, KENNEDY TOWN, HONG KONG",
  "adr_tc": "\u9999\u6e2f\u5805\u5c3c\u5730\u57ce\u5351\u8def\u4e4d\u885741-55\u865f\u540c\u8208\u6a13\u5730\u4e0bJ\u92ea 28 \u5c45\u9152\u5c4b",
  "geocode_en": [
    {
      "address_components": [
        {
          "long_name": "Hong Kong",
          "short_name": "HK",
          "types": [
            "country",
            "political"
          ]
        }
      ],
      "formatted_address": "Hong Kong, \u897f\u74b0\u5805\u5c3c\u5730\u57ce28\u865f\u5c71\u5e02\u8857\u5730\u4e0b",
      "geometry": {
        "location": {
          "lat": 22.2833386,
          "lng": 114.1299224
        },
        "location_type": "GEOMETRIC_CENTER",
        "viewport": {
          "northeast": {
            "lat": 22.2846875802915,
            "lng": 114.1312713802915
          },
          "southwest": {
            "lat": 22.2819896197085,
            "lng": 114.1285734197085
          }
        }
      },
      "partial_match": true,
      "place_id": "ChIJCfGzlJr_AzQRtQM9pcT8jFs",
      "plus_code": {
        "compound_code": "74MH+8X Hong Kong",
        "global_code": "7PJP74MH+8X"
      },
      "types": [
        "establishment",
        "food",
        "point_of_interest",
        "restaurant"
      ]
    },
    {
      "address_components": [
        {
          "long_name": "Tung Hing Mansion",
          "short_name": "Tung Hing Mansion",
          "types": [
            "premise"
          ]
        },
        {
          "long_name": "41-55",
          "short_name": "41-55",
          "types": [
            "street_number"
          ]
        },
        {
          "long_name": "Belcher's Street",
          "short_name": "Belcher's St",
          "types": [
            "route"
          ]
        },
        {
          "long_name": "Kennedy Town",
          "short_name": "Kennedy Town",
          "types": [
            "neighborhood",
            "political"
          ]
        },
        {
          "long_name": "Hong Kong Island",
          "short_name": "Hong Kong Island",
          "types": [
            "administrative_area_level_1",
            "political"
          ]
        },
        {
          "long_name": "Hong Kong",
          "short_name": "HK",
          "types": [
            "country",
            "political"
          ]
        }
      ],
      "formatted_address": "Tung Hing Mansion, 41-55 Belcher's St, Kennedy Town, Hong Kong",
      "geometry": {
        "bounds": {
          "northeast": {
            "lat": 22.283383,
            "lng": 114.1299981
          },
          "southwest": {
            "lat": 22.2830621,
            "lng": 114.1296359
          }
        },
        "location": {
          "lat": 22.2832153,
          "lng": 114.1298383
        },
        "location_type": "ROOFTOP",
        "viewport": {
          "northeast": {
            "lat": 22.2845715302915,
            "lng": 114.1311659802915
          },
          "southwest": {
            "lat": 22.2818735697085,
            "lng": 114.1284680197085
          }
        }
      },
      "partial_match": true,
      "place_id": "ChIJkVtf7Zr_AzQR4iAruBZ6SYI",
      "types": [
        "premise"
      ]
    }
  ],
  "geocode_tc": [
    {
      "address_components": [
        {
          "long_name": "\u5730\u4e0bJ\u92ea 28",
          "short_name": "\u5730\u4e0bJ\u92ea 28",
          "types": [
            "subpremise"
          ]
        },
        {
          "long_name": "\u540c\u8208\u6a13",
          "short_name": "\u540c\u8208\u6a13",
          "types": [
            "premise"
          ]
        },
        {
          "long_name": "41-55",
          "short_name": "41-55",
          "types": [
            "street_number"
          ]
        },
        {
          "long_name": "\u5351\u8def\u4e4d\u8857",
          "short_name": "\u5351\u8def\u4e4d\u8857",
          "types": [
            "route"
          ]
        },
        {
          "long_name": "\u5805\u5c3c\u5730\u57ce",
          "short_name": "\u5805\u5c3c\u5730\u57ce",
          "types": [
            "neighborhood",
            "political"
          ]
        },
        {
          "long_name": "\u9999\u6e2f\u5cf6",
          "short_name": "\u9999\u6e2f\u5cf6",
          "types": [
            "administrative_area_level_1",
            "political"
          ]
        },
        {
          "long_name": "\u9999\u6e2f",
          "short_name": "HK",
          "types": [
            "country",
            "political"
          ]
        }
      ],
      "formatted_address": "\u9999\u6e2f\u5805\u5c3c\u5730\u57ce\u5351\u8def\u4e4d\u885741-55\u865f\u540c\u8208\u6a13\u5730\u4e0bJ\u92ea 28",
      "geometry": {
        "bounds": {
          "northeast": {
            "lat": 22.283383,
            "lng": 114.1299981
          },
          "southwest": {
            "lat": 22.2830621,
            "lng": 114.1296359
          }
        },
        "location": {
          "lat": 22.2832153,
          "lng": 114.1298383
        },
        "location_type": "ROOFTOP",
        "viewport": {
          "northeast": {
            "lat": 22.2845715302915,
            "lng": 114.1311659802915
          },
          "southwest": {
            "lat": 22.2818735697085,
            "lng": 114.1284680197085
          }
        }
      },
      "partial_match": true,
      "place_id": "Ek3lnLDkuItK6YuqIDI4LCBUdW5nIEhpbmcgTWFuc2lvbiwgNDEtNTUgQmVsY2hlcidzIFN0LCBLZW5uZWR5IFRvd24sIEhvbmcgS29uZyIpGicKFgoUChIJkVtf7Zr_AzQR4iAruBZ6SYISDeWcsOS4i0rpi6ogMjg",
      "types": [
        "subpremise"
      ]
    },
    {
      "address_components": [
        {
          "long_name": "\u9999\u6e2f",
          "short_name": "HK",
          "types": [
            "country",
            "political"
          ]
        }
      ],
      "formatted_address": "\u9999\u6e2f\u897f\u74b0\u5805\u5c3c\u5730\u57ce28\u865f\u5c71\u5e02\u8857\u5730\u4e0b",
      "geometry": {
        "location": {
          "lat": 22.2833386,
          "lng": 114.1299224
        },
        "location_type": "GEOMETRIC_CENTER",
        "viewport": {
          "northeast": {
            "lat": 22.2846875802915,
            "lng": 114.1312713802915
          },
          "southwest": {
            "lat": 22.2819896197085,
            "lng": 114.1285734197085
          }
        }
      },
      "partial_match": true,
      "place_id": "ChIJCfGzlJr_AzQRtQM9pcT8jFs",
      "plus_code": {
        "compound_code": "74MH+8X \u9999\u6e2f",
        "global_code": "7PJP74MH+8X"
      },
      "types": [
        "establishment",
        "food",
        "point_of_interest",
        "restaurant"
      ]
    }
  ],
  "licno": "3118807745",
  "timestamp": 1564975666,
  "version": "1564966095"
}
