{
  "adr_en": "Sun Wah Cafe, SHOP 39B-D, G/F, BLOCK 2, LUNG MUN OASIS, 43 LUNG MUN ROAD, TUEN MUN, NEW TERRITORIES",
  "adr_tc": "\u65b0\u754c\u5c6f\u9580\u9f8d\u9580\u8def43\u865f\u9f8d\u9580\u5c452\u5ea7\u5730\u4e0b39B-D\u92ea \u65b0\u83ef\u51b0\u5ba4",
  "geocode_en": [
    {
      "address_components": [
        {
          "long_name": "D, G/F, BLOCK",
          "short_name": "D, G/F, BLOCK",
          "types": [
            "subpremise"
          ]
        },
        {
          "long_name": "Lung Mun Oasis Block 13",
          "short_name": "Lung Mun Oasis Block 13",
          "types": [
            "premise"
          ]
        },
        {
          "long_name": "43",
          "short_name": "43",
          "types": [
            "street_number"
          ]
        },
        {
          "long_name": "Lung Mun Road",
          "short_name": "Lung Mun Rd",
          "types": [
            "route"
          ]
        },
        {
          "long_name": "Tuen Mun",
          "short_name": "Tuen Mun",
          "types": [
            "neighborhood",
            "political"
          ]
        },
        {
          "long_name": "New Territories",
          "short_name": "New Territories",
          "types": [
            "administrative_area_level_1",
            "political"
          ]
        },
        {
          "long_name": "Hong Kong",
          "short_name": "HK",
          "types": [
            "country",
            "political"
          ]
        }
      ],
      "formatted_address": "D, G/F, BLOCK, Lung Mun Oasis Block 13, 43 Lung Mun Rd, Tuen Mun, Hong Kong",
      "geometry": {
        "bounds": {
          "northeast": {
            "lat": 22.3854138,
            "lng": 113.9677567
          },
          "southwest": {
            "lat": 22.3850633,
            "lng": 113.9674224
          }
        },
        "location": {
          "lat": 22.3852961,
          "lng": 113.9675814
        },
        "location_type": "ROOFTOP",
        "viewport": {
          "northeast": {
            "lat": 22.3865875302915,
            "lng": 113.9689385302915
          },
          "southwest": {
            "lat": 22.3838895697085,
            "lng": 113.9662405697085
          }
        }
      },
      "partial_match": true,
      "place_id": "EktELCBHL0YsIEJMT0NLLCBMdW5nIE11biBPYXNpcyBCbG9jayAxMywgNDMgTHVuZyBNdW4gUmQsIFR1ZW4gTXVuLCBIb25nIEtvbmciKRonChYKFAoSCZUcTIhH-wM0EVrmkh8haT4jEg1ELCBHL0YsIEJMT0NL",
      "types": [
        "subpremise"
      ]
    }
  ],
  "geocode_tc": [
    {
      "address_components": [
        {
          "long_name": "\u9999\u6e2f",
          "short_name": "HK",
          "types": [
            "country",
            "political"
          ]
        }
      ],
      "formatted_address": "\u9999\u6e2f\u5c6f\u9580\u9f8d\u9580\u8def43\u865f\u9f8d\u9580\u5c45\u5730\u4e0b39\u865fB-G",
      "geometry": {
        "location": {
          "lat": 22.3850456,
          "lng": 113.9662363
        },
        "location_type": "GEOMETRIC_CENTER",
        "viewport": {
          "northeast": {
            "lat": 22.3863945802915,
            "lng": 113.9675852802915
          },
          "southwest": {
            "lat": 22.38369661970849,
            "lng": 113.9648873197085
          }
        }
      },
      "place_id": "ChIJ-3Tp5kf7AzQRMLwv3PoSkqI",
      "plus_code": {
        "compound_code": "9XP8+2F \u9999\u6e2f",
        "global_code": "7PJM9XP8+2F"
      },
      "types": [
        "establishment",
        "food",
        "point_of_interest",
        "restaurant"
      ]
    }
  ],
  "licno": "2293800532",
  "timestamp": 1564968756,
  "version": "1564966095"
}
