{
  "adr_en": "WHERE, UNIT A,B,C, 4/F, CENTURY HOUSE, 3-4 HANOI ROAD, TSIM SHA TSUI, KOWLOON",
  "adr_tc": "\u4e5d\u9f8d\u5c16\u6c99\u5480\u6cb3\u5167\u90533-4\u865f \u4e16\u7d00\u5546\u696d\u5927\u5ec84\u6a13A, B\u53caC\u865f\u8216 WHERE",
  "geocode_en": [
    {
      "address_components": [
        {
          "long_name": "Century House",
          "short_name": "Century House",
          "types": [
            "premise"
          ]
        },
        {
          "long_name": "3-4",
          "short_name": "3-4",
          "types": [
            "street_number"
          ]
        },
        {
          "long_name": "Hanoi Road",
          "short_name": "Hanoi Rd",
          "types": [
            "route"
          ]
        },
        {
          "long_name": "Tsim Sha Tsui",
          "short_name": "Tsim Sha Tsui",
          "types": [
            "neighborhood",
            "political"
          ]
        },
        {
          "long_name": "Kowloon",
          "short_name": "Kowloon",
          "types": [
            "administrative_area_level_1",
            "political"
          ]
        },
        {
          "long_name": "Hong Kong",
          "short_name": "HK",
          "types": [
            "country",
            "political"
          ]
        }
      ],
      "formatted_address": "Century House, 3-4 Hanoi Rd, Tsim Sha Tsui, Hong Kong",
      "geometry": {
        "bounds": {
          "northeast": {
            "lat": 22.298027,
            "lng": 114.1741609
          },
          "southwest": {
            "lat": 22.2977871,
            "lng": 114.1738801
          }
        },
        "location": {
          "lat": 22.297891,
          "lng": 114.1740092
        },
        "location_type": "ROOFTOP",
        "viewport": {
          "northeast": {
            "lat": 22.2992560302915,
            "lng": 114.1753694802915
          },
          "southwest": {
            "lat": 22.2965580697085,
            "lng": 114.1726715197085
          }
        }
      },
      "partial_match": true,
      "place_id": "ChIJ4Z21CO4ABDQRUl0MPCUz87c",
      "types": [
        "premise"
      ]
    }
  ],
  "geocode_tc": [
    {
      "address_components": [
        {
          "long_name": "\u6a13A, B\u53ca",
          "short_name": "\u6a13A, B\u53ca",
          "types": [
            "subpremise"
          ]
        },
        {
          "long_name": "\u4e16\u7d00\u5546\u696d\u5927\u5ec8",
          "short_name": "\u4e16\u7d00\u5546\u696d\u5927\u5ec8",
          "types": [
            "premise"
          ]
        },
        {
          "long_name": "3-4",
          "short_name": "3-4",
          "types": [
            "street_number"
          ]
        },
        {
          "long_name": "\u6cb3\u5167\u9053",
          "short_name": "\u6cb3\u5167\u9053",
          "types": [
            "route"
          ]
        },
        {
          "long_name": "\u5c16\u6c99\u5480",
          "short_name": "\u5c16\u6c99\u5480",
          "types": [
            "neighborhood",
            "political"
          ]
        },
        {
          "long_name": "\u4e5d\u9f8d",
          "short_name": "\u4e5d\u9f8d",
          "types": [
            "administrative_area_level_1",
            "political"
          ]
        },
        {
          "long_name": "\u9999\u6e2f",
          "short_name": "HK",
          "types": [
            "country",
            "political"
          ]
        }
      ],
      "formatted_address": "\u9999\u6e2f\u5c16\u6c99\u5480\u6cb3\u5167\u90533-4\u865f\u4e16\u7d00\u5546\u696d\u5927\u5ec8\u6a13A, B\u53ca",
      "geometry": {
        "bounds": {
          "northeast": {
            "lat": 22.298027,
            "lng": 114.1741609
          },
          "southwest": {
            "lat": 22.2977871,
            "lng": 114.1738801
          }
        },
        "location": {
          "lat": 22.297891,
          "lng": 114.1740092
        },
        "location_type": "ROOFTOP",
        "viewport": {
          "northeast": {
            "lat": 22.2992560302915,
            "lng": 114.1753694802915
          },
          "southwest": {
            "lat": 22.2965580697085,
            "lng": 114.1726715197085
          }
        }
      },
      "partial_match": true,
      "place_id": "EkHmqJNBLCBC5Y-KLCBDZW50dXJ5IEhvdXNlLCAzLTQgSGFub2kgUmQsIFRzaW0gU2hhIFRzdWksIEhvbmcgS29uZyImGiQKFgoUChIJ4Z21CO4ABDQRUl0MPCUz87cSCuaok0EsIELlj4o",
      "types": [
        "subpremise"
      ]
    }
  ],
  "licno": "3161801008",
  "timestamp": 1564975666,
  "version": "1564966095"
}
