{
  "adr_en": "Fairwood Fast Food, SHOP NOS. L206, L207 AND L208, LG2/F, FU YAN HOUSE, FU SHAN ESTATE, KOWLOON",
  "adr_tc": "\u4e5d\u9f8d\u6148\u96f2\u5c71\u5bcc\u5c71\u90a8\u5bcc\u4ec1\u6a13\u5730\u4e0b\u4e8c\u5c64L206,L207 \u53caL208\u865f\u8216 \u5927\u5feb\u6d3b\u5feb\u9910",
  "geocode_en": [
    {
      "address_components": [
        {
          "long_name": "Hong Kong",
          "short_name": "HK",
          "types": [
            "country",
            "political"
          ]
        }
      ],
      "formatted_address": "2 Fung Shing Street, Hong Kong",
      "geometry": {
        "location": {
          "lat": 22.342753,
          "lng": 114.208302
        },
        "location_type": "GEOMETRIC_CENTER",
        "viewport": {
          "northeast": {
            "lat": 22.3441019802915,
            "lng": 114.2096509802915
          },
          "southwest": {
            "lat": 22.3414040197085,
            "lng": 114.2069530197085
          }
        }
      },
      "partial_match": true,
      "place_id": "ChIJ3zRo7sMGBDQRm48dAgoYtKg",
      "plus_code": {
        "compound_code": "86V5+48 Hong Kong",
        "global_code": "7PJP86V5+48"
      },
      "types": [
        "establishment",
        "point_of_interest"
      ]
    }
  ],
  "geocode_tc": [
    {
      "address_components": [
        {
          "long_name": "\u6148\u96f2\u5c71",
          "short_name": "\u6148\u96f2\u5c71",
          "types": [
            "neighborhood",
            "political"
          ]
        },
        {
          "long_name": "\u4e5d\u9f8d",
          "short_name": "\u4e5d\u9f8d",
          "types": [
            "administrative_area_level_1",
            "political"
          ]
        },
        {
          "long_name": "\u9999\u6e2f",
          "short_name": "HK",
          "types": [
            "country",
            "political"
          ]
        }
      ],
      "formatted_address": "\u9999\u6e2f\u6148\u96f2\u5c71",
      "geometry": {
        "bounds": {
          "northeast": {
            "lat": 22.3549404,
            "lng": 114.206679
          },
          "southwest": {
            "lat": 22.3457332,
            "lng": 114.1973341
          }
        },
        "location": {
          "lat": 22.3515518,
          "lng": 114.200412
        },
        "location_type": "APPROXIMATE",
        "viewport": {
          "northeast": {
            "lat": 22.3549404,
            "lng": 114.206679
          },
          "southwest": {
            "lat": 22.3457332,
            "lng": 114.1973341
          }
        }
      },
      "partial_match": true,
      "place_id": "ChIJg8ZckdkGBDQR-HTy9TTDBd4",
      "types": [
        "neighborhood",
        "political"
      ]
    },
    {
      "address_components": [
        {
          "long_name": "\u5bcc\u5c71\u90a8\u5bcc\u4ec1\u6a13",
          "short_name": "\u5bcc\u5c71\u90a8\u5bcc\u4ec1\u6a13",
          "types": [
            "premise"
          ]
        },
        {
          "long_name": "2",
          "short_name": "2",
          "types": [
            "street_number"
          ]
        },
        {
          "long_name": "\u8c50\u76db\u8857",
          "short_name": "\u8c50\u76db\u8857",
          "types": [
            "route"
          ]
        },
        {
          "long_name": "\u65a7\u5c71",
          "short_name": "\u65a7\u5c71",
          "types": [
            "neighborhood",
            "political"
          ]
        },
        {
          "long_name": "\u4e5d\u9f8d",
          "short_name": "\u4e5d\u9f8d",
          "types": [
            "administrative_area_level_1",
            "political"
          ]
        },
        {
          "long_name": "\u9999\u6e2f",
          "short_name": "HK",
          "types": [
            "country",
            "political"
          ]
        }
      ],
      "formatted_address": "\u9999\u6e2f\u65a7\u5c71\u8c50\u76db\u88572\u865f\u5bcc\u5c71\u90a8\u5bcc\u4ec1\u6a13",
      "geometry": {
        "bounds": {
          "northeast": {
            "lat": 22.343165,
            "lng": 114.2085031
          },
          "southwest": {
            "lat": 22.342333,
            "lng": 114.2081
          }
        },
        "location": {
          "lat": 22.3427701,
          "lng": 114.2082606
        },
        "location_type": "ROOFTOP",
        "viewport": {
          "northeast": {
            "lat": 22.3440979802915,
            "lng": 114.2096505302915
          },
          "southwest": {
            "lat": 22.3414000197085,
            "lng": 114.2069525697085
          }
        }
      },
      "partial_match": true,
      "place_id": "ChIJacdp7sMGBDQR5IFkiR8LCuI",
      "types": [
        "premise"
      ]
    }
  ],
  "licno": "2253801977",
  "timestamp": 1564968756,
  "version": "1564966095"
}
