{
  "adr_en": "\u592a\u5c11\u71d2\u5473\u8336\u9910\u5ef3, SHOP NO. 1A, 2, 3, 4 & 6A, G/F, KAI TIN TOWERS, 51-67C KAI TIN ROAD, LAM TIN, KOWLOON",
  "adr_tc": "\u4e5d\u9f8d\u85cd\u7530\u555f\u7530\u905351-67C\u865f\u555f\u7530\u5927\u5ec8 \u5730\u4e0b1\u865fA\u30012\u30013\u30014\u53ca6\u865fA\u8216 \u592a\u5c11\u71d2\u5473\u8336\u9910\u5ef3",
  "geocode_en": [
    {
      "address_components": [
        {
          "long_name": "Kai Tin Road",
          "short_name": "Kai Tin Rd",
          "types": [
            "route"
          ]
        },
        {
          "long_name": "Lam Tin",
          "short_name": "Lam Tin",
          "types": [
            "neighborhood",
            "political"
          ]
        },
        {
          "long_name": "Hong Kong",
          "short_name": "HK",
          "types": [
            "country",
            "political"
          ]
        }
      ],
      "formatted_address": "Hong Kong, Lam Tin, Kai Tin Rd, 51-67C\u865f\u555f\u7530\u5927\u5ec8\u5730\u4e0b1A\u865f\u8216",
      "geometry": {
        "location": {
          "lat": 22.3083379,
          "lng": 114.2341738
        },
        "location_type": "GEOMETRIC_CENTER",
        "viewport": {
          "northeast": {
            "lat": 22.3096868802915,
            "lng": 114.2355227802915
          },
          "southwest": {
            "lat": 22.30698891970849,
            "lng": 114.2328248197085
          }
        }
      },
      "partial_match": true,
      "place_id": "ChIJZyx9xuIBBDQRbb-3WsrJd_8",
      "plus_code": {
        "compound_code": "865M+8M Hong Kong",
        "global_code": "7PJP865M+8M"
      },
      "types": [
        "establishment",
        "food",
        "point_of_interest",
        "restaurant"
      ]
    },
    {
      "address_components": [
        {
          "long_name": "SHOP NO. 1A, 2",
          "short_name": "SHOP NO. 1A, 2",
          "types": [
            "subpremise"
          ]
        },
        {
          "long_name": "Kai Tin Towers",
          "short_name": "Kai Tin Towers",
          "types": [
            "premise"
          ]
        },
        {
          "long_name": "49-67",
          "short_name": "49-67",
          "types": [
            "street_number"
          ]
        },
        {
          "long_name": "Kai Tin Road",
          "short_name": "Kai Tin Rd",
          "types": [
            "route"
          ]
        },
        {
          "long_name": "Lam Tin",
          "short_name": "Lam Tin",
          "types": [
            "neighborhood",
            "political"
          ]
        },
        {
          "long_name": "Kowloon",
          "short_name": "Kowloon",
          "types": [
            "administrative_area_level_1",
            "political"
          ]
        },
        {
          "long_name": "Hong Kong",
          "short_name": "HK",
          "types": [
            "country",
            "political"
          ]
        }
      ],
      "formatted_address": "SHOP NO. 1A, 2, Kai Tin Towers, 49-67 Kai Tin Rd, Lam Tin, Hong Kong",
      "geometry": {
        "bounds": {
          "northeast": {
            "lat": 22.308692,
            "lng": 114.2345539
          },
          "southwest": {
            "lat": 22.308114,
            "lng": 114.233796
          }
        },
        "location": {
          "lat": 22.3083379,
          "lng": 114.2341738
        },
        "location_type": "ROOFTOP",
        "viewport": {
          "northeast": {
            "lat": 22.3097519802915,
            "lng": 114.2355239302915
          },
          "southwest": {
            "lat": 22.3070540197085,
            "lng": 114.2328259697085
          }
        }
      },
      "partial_match": true,
      "place_id": "EkRTSE9QIE5PLiAxQSwgMiwgS2FpIFRpbiBUb3dlcnMsIDQ5LTY3IEthaSBUaW4gUmQsIExhbSBUaW4sIEhvbmcgS29uZyIqGigKFgoUChIJW_95k1kBBDQRej-oc5B70tsSDlNIT1AgTk8uIDFBLCAy",
      "types": [
        "subpremise"
      ]
    }
  ],
  "geocode_tc": [
    {
      "address_components": [
        {
          "long_name": "\u555f\u7530\u5927\u5ec8",
          "short_name": "\u555f\u7530\u5927\u5ec8",
          "types": [
            "premise"
          ]
        },
        {
          "long_name": "49-67",
          "short_name": "49-67",
          "types": [
            "street_number"
          ]
        },
        {
          "long_name": "\u5553\u7530\u9053",
          "short_name": "\u5553\u7530\u9053",
          "types": [
            "route"
          ]
        },
        {
          "long_name": "\u85cd\u7530",
          "short_name": "\u85cd\u7530",
          "types": [
            "neighborhood",
            "political"
          ]
        },
        {
          "long_name": "\u4e5d\u9f8d",
          "short_name": "\u4e5d\u9f8d",
          "types": [
            "administrative_area_level_1",
            "political"
          ]
        },
        {
          "long_name": "\u9999\u6e2f",
          "short_name": "HK",
          "types": [
            "country",
            "political"
          ]
        }
      ],
      "formatted_address": "\u9999\u6e2f\u85cd\u7530\u5553\u7530\u905349-67\u865f\u555f\u7530\u5927\u5ec8",
      "geometry": {
        "bounds": {
          "northeast": {
            "lat": 22.308692,
            "lng": 114.2345539
          },
          "southwest": {
            "lat": 22.308114,
            "lng": 114.233796
          }
        },
        "location": {
          "lat": 22.3083379,
          "lng": 114.2341738
        },
        "location_type": "ROOFTOP",
        "viewport": {
          "northeast": {
            "lat": 22.3097519802915,
            "lng": 114.2355239302915
          },
          "southwest": {
            "lat": 22.3070540197085,
            "lng": 114.2328259697085
          }
        }
      },
      "partial_match": true,
      "place_id": "ChIJW_95k1kBBDQRej-oc5B70ts",
      "types": [
        "premise"
      ]
    },
    {
      "address_components": [
        {
          "long_name": "\u5553\u7530\u9053",
          "short_name": "\u5553\u7530\u9053",
          "types": [
            "route"
          ]
        },
        {
          "long_name": "\u85cd\u7530",
          "short_name": "\u85cd\u7530",
          "types": [
            "neighborhood",
            "political"
          ]
        },
        {
          "long_name": "\u9999\u6e2f",
          "short_name": "HK",
          "types": [
            "country",
            "political"
          ]
        }
      ],
      "formatted_address": "\u9999\u6e2f\u85cd\u7530\u5553\u7530\u905351-67C\u865f\u555f\u7530\u5927\u5ec8\u5730\u4e0b1A\u865f\u8216",
      "geometry": {
        "location": {
          "lat": 22.3083379,
          "lng": 114.2341738
        },
        "location_type": "GEOMETRIC_CENTER",
        "viewport": {
          "northeast": {
            "lat": 22.3096868802915,
            "lng": 114.2355227802915
          },
          "southwest": {
            "lat": 22.30698891970849,
            "lng": 114.2328248197085
          }
        }
      },
      "partial_match": true,
      "place_id": "ChIJZyx9xuIBBDQRbb-3WsrJd_8",
      "plus_code": {
        "compound_code": "865M+8M \u9999\u6e2f",
        "global_code": "7PJP865M+8M"
      },
      "types": [
        "establishment",
        "food",
        "point_of_interest",
        "restaurant"
      ]
    }
  ],
  "licno": "3851807532",
  "timestamp": 1564975666,
  "version": "1564966095"
}
