{
  "adr_en": "\u5927\u57d4\u53cb, SHOP 6, G/F & COCKLOFT, 126 KWONG FUK ROAD , TAI PO, NEW TERRITORIES",
  "adr_tc": "\u65b0\u754c\u5927\u57d4\u5ee3\u798f\u9053126\u865f\u5730\u4e0b\u53ca\u95a3\u6a136\u865f\u92ea \u5927\u57d4\u53cb",
  "geocode_en": [
    {
      "address_components": [
        {
          "long_name": "103",
          "short_name": "103",
          "types": [
            "street_number"
          ]
        },
        {
          "long_name": "Kwong Fuk Road",
          "short_name": "Kwong Fuk Rd",
          "types": [
            "route"
          ]
        },
        {
          "long_name": "Tai Po",
          "short_name": "Tai Po",
          "types": [
            "neighborhood",
            "political"
          ]
        },
        {
          "long_name": "Hong Kong",
          "short_name": "HK",
          "types": [
            "country",
            "political"
          ]
        }
      ],
      "formatted_address": "Hong Kong, Tai Po, Kwong Fuk Rd, 103\u865fa\u3001",
      "geometry": {
        "location": {
          "lat": 22.448385,
          "lng": 114.1677587
        },
        "location_type": "ROOFTOP",
        "viewport": {
          "northeast": {
            "lat": 22.4497339802915,
            "lng": 114.1691076802915
          },
          "southwest": {
            "lat": 22.4470360197085,
            "lng": 114.1664097197085
          }
        }
      },
      "partial_match": true,
      "place_id": "ChIJ7Y2SVj8IBDQRaZ4haaaLx7k",
      "plus_code": {
        "compound_code": "C5X9+94 Hong Kong",
        "global_code": "7PJPC5X9+94"
      },
      "types": [
        "establishment",
        "food",
        "point_of_interest",
        "restaurant"
      ]
    }
  ],
  "geocode_tc": [
    {
      "address_components": [
        {
          "long_name": "\u91d1\u677e\u6a13",
          "short_name": "\u91d1\u677e\u6a13",
          "types": [
            "premise"
          ]
        },
        {
          "long_name": "126-138",
          "short_name": "126-138",
          "types": [
            "street_number"
          ]
        },
        {
          "long_name": "\u5ee3\u798f\u9053",
          "short_name": "\u5ee3\u798f\u9053",
          "types": [
            "route"
          ]
        },
        {
          "long_name": "\u5927\u57d4",
          "short_name": "\u5927\u57d4",
          "types": [
            "neighborhood",
            "political"
          ]
        },
        {
          "long_name": "\u65b0\u754c",
          "short_name": "\u65b0\u754c",
          "types": [
            "administrative_area_level_1",
            "political"
          ]
        },
        {
          "long_name": "\u9999\u6e2f",
          "short_name": "HK",
          "types": [
            "country",
            "political"
          ]
        }
      ],
      "formatted_address": "\u9999\u6e2f\u5927\u57d4\u5ee3\u798f\u9053126-138\u865f\u91d1\u677e\u6a13",
      "geometry": {
        "bounds": {
          "northeast": {
            "lat": 22.4479371,
            "lng": 114.168517
          },
          "southwest": {
            "lat": 22.447641,
            "lng": 114.1681781
          }
        },
        "location": {
          "lat": 22.4477859,
          "lng": 114.1683197
        },
        "location_type": "ROOFTOP",
        "viewport": {
          "northeast": {
            "lat": 22.4491380302915,
            "lng": 114.1696965302915
          },
          "southwest": {
            "lat": 22.4464400697085,
            "lng": 114.1669985697085
          }
        }
      },
      "partial_match": true,
      "place_id": "ChIJJ2nmpEAIBDQRDnLue-syxBE",
      "types": [
        "premise"
      ]
    },
    {
      "address_components": [
        {
          "long_name": "\u5730\u4e0b\u53ca",
          "short_name": "\u5730\u4e0b\u53ca",
          "types": [
            "subpremise"
          ]
        },
        {
          "long_name": "\u91d1\u677e\u6a13",
          "short_name": "\u91d1\u677e\u6a13",
          "types": [
            "premise"
          ]
        },
        {
          "long_name": "126-138",
          "short_name": "126-138",
          "types": [
            "street_number"
          ]
        },
        {
          "long_name": "\u5ee3\u798f\u9053",
          "short_name": "\u5ee3\u798f\u9053",
          "types": [
            "route"
          ]
        },
        {
          "long_name": "\u5927\u57d4",
          "short_name": "\u5927\u57d4",
          "types": [
            "neighborhood",
            "political"
          ]
        },
        {
          "long_name": "\u65b0\u754c",
          "short_name": "\u65b0\u754c",
          "types": [
            "administrative_area_level_1",
            "political"
          ]
        },
        {
          "long_name": "\u9999\u6e2f",
          "short_name": "HK",
          "types": [
            "country",
            "political"
          ]
        }
      ],
      "formatted_address": "\u9999\u6e2f\u5927\u57d4\u5ee3\u798f\u9053126-138\u865f\u91d1\u677e\u6a13\u5730\u4e0b\u53ca",
      "geometry": {
        "bounds": {
          "northeast": {
            "lat": 22.4479371,
            "lng": 114.168517
          },
          "southwest": {
            "lat": 22.447641,
            "lng": 114.1681781
          }
        },
        "location": {
          "lat": 22.4477859,
          "lng": 114.1683197
        },
        "location_type": "ROOFTOP",
        "viewport": {
          "northeast": {
            "lat": 22.4491380302915,
            "lng": 114.1696965302915
          },
          "southwest": {
            "lat": 22.4464400697085,
            "lng": 114.1669985697085
          }
        }
      },
      "partial_match": true,
      "place_id": "EkblnLDkuIvlj4osIEthbSBDaHVuZyBCdWlsZGluZywgMTI2LTEzOCBLd29uZyBGdWsgUmQsIFRhaSBQbywgSG9uZyBLb25nIiUaIwoWChQKEgknaeakQAgENBEOcu576zLEERIJ5Zyw5LiL5Y-K",
      "types": [
        "subpremise"
      ]
    },
    {
      "address_components": [
        {
          "long_name": "103",
          "short_name": "103",
          "types": [
            "street_number"
          ]
        },
        {
          "long_name": "\u5ee3\u798f\u9053",
          "short_name": "\u5ee3\u798f\u9053",
          "types": [
            "route"
          ]
        },
        {
          "long_name": "\u5927\u57d4",
          "short_name": "\u5927\u57d4",
          "types": [
            "neighborhood",
            "political"
          ]
        },
        {
          "long_name": "\u9999\u6e2f",
          "short_name": "HK",
          "types": [
            "country",
            "political"
          ]
        }
      ],
      "formatted_address": "\u9999\u6e2f\u5927\u57d4\u5ee3\u798f\u9053103\u865fa\u3001",
      "geometry": {
        "location": {
          "lat": 22.448385,
          "lng": 114.1677587
        },
        "location_type": "ROOFTOP",
        "viewport": {
          "northeast": {
            "lat": 22.4497339802915,
            "lng": 114.1691076802915
          },
          "southwest": {
            "lat": 22.4470360197085,
            "lng": 114.1664097197085
          }
        }
      },
      "partial_match": true,
      "place_id": "ChIJ7Y2SVj8IBDQRaZ4haaaLx7k",
      "plus_code": {
        "compound_code": "C5X9+94 \u9999\u6e2f",
        "global_code": "7PJPC5X9+94"
      },
      "types": [
        "establishment",
        "food",
        "point_of_interest",
        "restaurant"
      ]
    }
  ],
  "licno": "3195800446",
  "timestamp": 1564975666,
  "version": "1564966095"
}
