{
  "adr_en": "BARBECUE KING, G/F, 118A HIN TIN VILLAGE, TAI WAI, SHA TIN, NEW TERRITORIES",
  "adr_tc": "\u65b0\u754c\u6c99\u7530\u5927\u570d\u986f\u7530\u6751118A\u5730\u4e0b \u4e32\u5f97\u8d77\u4e32\u71d2\u5c08\u9580\u5e97",
  "geocode_en": [
    {
      "address_components": [
        {
          "long_name": "Hin Tin Village",
          "short_name": "Hin Tin Village",
          "types": [
            "establishment",
            "point_of_interest",
            "transit_station"
          ]
        },
        {
          "long_name": "Tai Wai",
          "short_name": "Tai Wai",
          "types": [
            "neighborhood",
            "political"
          ]
        },
        {
          "long_name": "New Territories",
          "short_name": "New Territories",
          "types": [
            "administrative_area_level_1",
            "political"
          ]
        },
        {
          "long_name": "Hong Kong",
          "short_name": "HK",
          "types": [
            "country",
            "political"
          ]
        }
      ],
      "formatted_address": "Hin Tin Village, Tai Wai, Hong Kong",
      "geometry": {
        "location": {
          "lat": 22.3628733,
          "lng": 114.1725093
        },
        "location_type": "GEOMETRIC_CENTER",
        "viewport": {
          "northeast": {
            "lat": 22.3642222802915,
            "lng": 114.1738582802915
          },
          "southwest": {
            "lat": 22.3615243197085,
            "lng": 114.1711603197085
          }
        }
      },
      "partial_match": true,
      "place_id": "ChIJCz3hPRIHBDQRkEuZ7Z-GcFc",
      "plus_code": {
        "compound_code": "957F+42 Hong Kong",
        "global_code": "7PJP957F+42"
      },
      "types": [
        "establishment",
        "point_of_interest",
        "transit_station"
      ]
    }
  ],
  "geocode_tc": [
    {
      "address_components": [
        {
          "long_name": "\u9999\u6e2f",
          "short_name": "HK",
          "types": [
            "country",
            "political"
          ]
        }
      ],
      "formatted_address": "\u9999\u6e2f\u5927\u570d\u986f\u7530\u90a8118\u865fA\u5730\u4e0b",
      "geometry": {
        "location": {
          "lat": 22.3632744,
          "lng": 114.1732439
        },
        "location_type": "GEOMETRIC_CENTER",
        "viewport": {
          "northeast": {
            "lat": 22.3646233802915,
            "lng": 114.1745928802915
          },
          "southwest": {
            "lat": 22.36192541970849,
            "lng": 114.1718949197085
          }
        }
      },
      "place_id": "ChIJ93xhHBIHBDQRCpcDu39Fuu4",
      "plus_code": {
        "compound_code": "957F+87 \u9999\u6e2f",
        "global_code": "7PJP957F+87"
      },
      "types": [
        "establishment",
        "food",
        "point_of_interest",
        "restaurant"
      ]
    }
  ],
  "licno": "3197800422",
  "timestamp": 1564975666,
  "version": "1564966095"
}
