{
  "adr_en": "\u96f2\u6e1d\u8ed2, SHOP J, G/F, TUNG FAT BUILDING, MA MIU ROAD, YLTL 119-81, YUEN LONG, NEW TERRITORIES",
  "adr_tc": "\u65b0\u754c\u5143\u6717YLTL119-81\u5abd\u5edf\u8def\u540c\u767c\u5927\u5ec8\u5730\u4e0bJ\u92ea \u96f2\u6e1d\u8ed2",
  "geocode_en": [
    {
      "address_components": [
        {
          "long_name": "Yuen Long",
          "short_name": "Yuen Long",
          "types": [
            "neighborhood",
            "political"
          ]
        },
        {
          "long_name": "New Territories",
          "short_name": "New Territories",
          "types": [
            "administrative_area_level_1",
            "political"
          ]
        },
        {
          "long_name": "Hong Kong",
          "short_name": "HK",
          "types": [
            "country",
            "political"
          ]
        }
      ],
      "formatted_address": "Yuen Long, Hong Kong",
      "geometry": {
        "location": {
          "lat": 22.4462227,
          "lng": 114.0221352
        },
        "location_type": "GEOMETRIC_CENTER",
        "viewport": {
          "northeast": {
            "lat": 22.4475716802915,
            "lng": 114.0234841802915
          },
          "southwest": {
            "lat": 22.4448737197085,
            "lng": 114.0207862197085
          }
        }
      },
      "partial_match": true,
      "place_id": "ChIJKybZrJ_wAzQR5FIxdW843yA",
      "plus_code": {
        "compound_code": "C2WC+FV Hong Kong",
        "global_code": "7PJPC2WC+FV"
      },
      "types": [
        "establishment",
        "food",
        "point_of_interest",
        "restaurant"
      ]
    },
    {
      "address_components": [
        {
          "long_name": "Tung Fat Building",
          "short_name": "Tung Fat Building",
          "types": [
            "premise"
          ]
        },
        {
          "long_name": "1B-1C",
          "short_name": "1B-1C",
          "types": [
            "street_number"
          ]
        },
        {
          "long_name": "New Praya Kennedy Town",
          "short_name": "New Praya Kennedy Town",
          "types": [
            "route"
          ]
        },
        {
          "long_name": "Sai Wan",
          "short_name": "Sai Wan",
          "types": [
            "neighborhood",
            "political"
          ]
        },
        {
          "long_name": "Hong Kong Island",
          "short_name": "Hong Kong Island",
          "types": [
            "administrative_area_level_1",
            "political"
          ]
        },
        {
          "long_name": "Hong Kong",
          "short_name": "HK",
          "types": [
            "country",
            "political"
          ]
        }
      ],
      "formatted_address": "Tung Fat Building, 1B-1C New Praya Kennedy Town, Sai Wan, Hong Kong",
      "geometry": {
        "bounds": {
          "northeast": {
            "lat": 22.2840731,
            "lng": 114.1290219
          },
          "southwest": {
            "lat": 22.283982,
            "lng": 114.128894
          }
        },
        "location": {
          "lat": 22.2840172,
          "lng": 114.1289674
        },
        "location_type": "ROOFTOP",
        "viewport": {
          "northeast": {
            "lat": 22.2853765302915,
            "lng": 114.1303069302915
          },
          "southwest": {
            "lat": 22.2826785697085,
            "lng": 114.1276089697085
          }
        }
      },
      "partial_match": true,
      "place_id": "ChIJ__qNV5r_AzQRcM-K6A0f9ic",
      "types": [
        "premise"
      ]
    }
  ],
  "geocode_tc": [
    {
      "address_components": [
        {
          "long_name": "\u5143\u6717",
          "short_name": "\u5143\u6717",
          "types": [
            "neighborhood",
            "political"
          ]
        },
        {
          "long_name": "\u65b0\u754c",
          "short_name": "\u65b0\u754c",
          "types": [
            "administrative_area_level_1",
            "political"
          ]
        },
        {
          "long_name": "\u9999\u6e2f",
          "short_name": "HK",
          "types": [
            "country",
            "political"
          ]
        }
      ],
      "formatted_address": "\u9999\u6e2f\u5143\u6717",
      "geometry": {
        "location": {
          "lat": 22.4462227,
          "lng": 114.0221352
        },
        "location_type": "GEOMETRIC_CENTER",
        "viewport": {
          "northeast": {
            "lat": 22.4475716802915,
            "lng": 114.0234841802915
          },
          "southwest": {
            "lat": 22.4448737197085,
            "lng": 114.0207862197085
          }
        }
      },
      "partial_match": true,
      "place_id": "ChIJKybZrJ_wAzQR5FIxdW843yA",
      "plus_code": {
        "compound_code": "C2WC+FV \u9999\u6e2f",
        "global_code": "7PJPC2WC+FV"
      },
      "types": [
        "establishment",
        "food",
        "point_of_interest",
        "restaurant"
      ]
    },
    {
      "address_components": [
        {
          "long_name": "81",
          "short_name": "81",
          "types": [
            "street_number"
          ]
        },
        {
          "long_name": "\u5abd\u5edf\u8def",
          "short_name": "\u5abd\u5edf\u8def",
          "types": [
            "route"
          ]
        },
        {
          "long_name": "\u5143\u6717",
          "short_name": "\u5143\u6717",
          "types": [
            "neighborhood",
            "political"
          ]
        },
        {
          "long_name": "\u65b0\u754c",
          "short_name": "\u65b0\u754c",
          "types": [
            "administrative_area_level_1",
            "political"
          ]
        },
        {
          "long_name": "\u9999\u6e2f",
          "short_name": "HK",
          "types": [
            "country",
            "political"
          ]
        }
      ],
      "formatted_address": "\u9999\u6e2f\u5143\u6717\u5abd\u5edf\u8def81\u865f",
      "geometry": {
        "location": {
          "lat": 22.4468671,
          "lng": 114.0209194
        },
        "location_type": "RANGE_INTERPOLATED",
        "viewport": {
          "northeast": {
            "lat": 22.4482160802915,
            "lng": 114.0222683802915
          },
          "southwest": {
            "lat": 22.4455181197085,
            "lng": 114.0195704197085
          }
        }
      },
      "partial_match": true,
      "place_id": "EiI4MSBNYSBNaXUgUmQsIFl1ZW4gTG9uZywgSG9uZyBLb25nIhoSGAoUChIJOQXM9Z7wAzQRsYANmGeuF50QUQ",
      "types": [
        "street_address"
      ]
    }
  ],
  "licno": "2294806926",
  "timestamp": 1564975666,
  "version": "1564966095"
}
