{
  "adr_en": "\u9d3b\u767c\u9999\u6e2f\u4ed4\u9b5a\u86cb\u7c89, SHOP 8, G/F, PO WAH BUILDING, 23 TAI MING LANE, TAI PO, NEW TERRITORIES",
  "adr_tc": "\u65b0\u754c\u5927\u57d4\u5927\u660e\u91cc23\u865f\u5bf6\u83ef\u6a13\u5730\u4e0b8\u865f\u92ea \u9d3b\u767c\u9999\u6e2f\u4ed4\u9b5a\u86cb\u7c89",
  "geocode_en": [
    {
      "address_components": [
        {
          "long_name": "Hong Kong",
          "short_name": "HK",
          "types": [
            "country",
            "political"
          ]
        }
      ],
      "formatted_address": "Hong Kong, \u5927\u57d4 \u5927\u660e\u91cc23\u865f\u5bf6\u83ef\u6a13\u5730\u4e0b8\u865f\u8216",
      "geometry": {
        "location": {
          "lat": 22.4476822,
          "lng": 114.1674605
        },
        "location_type": "GEOMETRIC_CENTER",
        "viewport": {
          "northeast": {
            "lat": 22.4490311802915,
            "lng": 114.1688094802915
          },
          "southwest": {
            "lat": 22.4463332197085,
            "lng": 114.1661115197085
          }
        }
      },
      "partial_match": true,
      "place_id": "ChIJxwdYXj8IBDQRJUh0VMOd_Qo",
      "plus_code": {
        "compound_code": "C5X8+3X Hong Kong",
        "global_code": "7PJPC5X8+3X"
      },
      "types": [
        "establishment",
        "food",
        "point_of_interest",
        "restaurant"
      ]
    },
    {
      "address_components": [
        {
          "long_name": "Po Wah Building",
          "short_name": "Po Wah Building",
          "types": [
            "premise"
          ]
        },
        {
          "long_name": "1",
          "short_name": "1",
          "types": [
            "street_number"
          ]
        },
        {
          "long_name": "Tai Ming Lane",
          "short_name": "Tai Ming Ln",
          "types": [
            "route"
          ]
        },
        {
          "long_name": "Tai Po",
          "short_name": "Tai Po",
          "types": [
            "neighborhood",
            "political"
          ]
        },
        {
          "long_name": "New Territories",
          "short_name": "New Territories",
          "types": [
            "administrative_area_level_1",
            "political"
          ]
        },
        {
          "long_name": "Hong Kong",
          "short_name": "HK",
          "types": [
            "country",
            "political"
          ]
        }
      ],
      "formatted_address": "Po Wah Building, 1 Tai Ming Ln, Tai Po, Hong Kong",
      "geometry": {
        "bounds": {
          "northeast": {
            "lat": 22.4477861,
            "lng": 114.167583
          },
          "southwest": {
            "lat": 22.4475701,
            "lng": 114.167372
          }
        },
        "location": {
          "lat": 22.4476822,
          "lng": 114.1674605
        },
        "location_type": "ROOFTOP",
        "viewport": {
          "northeast": {
            "lat": 22.4490270802915,
            "lng": 114.1688264802915
          },
          "southwest": {
            "lat": 22.4463291197085,
            "lng": 114.1661285197085
          }
        }
      },
      "partial_match": true,
      "place_id": "ChIJczbvXj8IBDQR1jQhewZhzO4",
      "types": [
        "premise"
      ]
    }
  ],
  "geocode_tc": [
    {
      "address_components": [
        {
          "long_name": "\u9999\u6e2f",
          "short_name": "HK",
          "types": [
            "country",
            "political"
          ]
        }
      ],
      "formatted_address": "\u9999\u6e2f\u5927\u57d4 \u5927\u660e\u91cc23\u865f\u5bf6\u83ef\u6a13\u5730\u4e0b8\u865f\u8216",
      "geometry": {
        "location": {
          "lat": 22.4476822,
          "lng": 114.1674605
        },
        "location_type": "GEOMETRIC_CENTER",
        "viewport": {
          "northeast": {
            "lat": 22.4490311802915,
            "lng": 114.1688094802915
          },
          "southwest": {
            "lat": 22.4463332197085,
            "lng": 114.1661115197085
          }
        }
      },
      "place_id": "ChIJxwdYXj8IBDQRJUh0VMOd_Qo",
      "plus_code": {
        "compound_code": "C5X8+3X \u9999\u6e2f",
        "global_code": "7PJPC5X8+3X"
      },
      "types": [
        "establishment",
        "food",
        "point_of_interest",
        "restaurant"
      ]
    }
  ],
  "licno": "2295801432",
  "timestamp": 1564975666,
  "version": "1564966095"
}
