{
  "adr_en": "(no record found), G/F, DD 103, LOT 216 SO SS1, BLOCK 11, 108 KO PO TSUEN, KAM TIN, YUEN LONG, NEW TERRITORIES",
  "adr_tc": "\u65b0\u754c\u5143\u6717\u9326\u7530\u9ad8\u57d4\u6751108\u865f11\u5ea7\u4e08\u91cf\u7d04\u4efd\u7b2c103\u7d04\u5730\u6bb5 \u7b2c216\u865fSO SS1\u9918\u6bb5\u5730\u4e0b (\u6c92\u6709\u8a18\u9304)",
  "geocode_en": [
    {
      "address_components": [
        {
          "long_name": "Ko Po Tsuen",
          "short_name": "Ko Po Tsuen",
          "types": [
            "establishment",
            "point_of_interest",
            "transit_station"
          ]
        },
        {
          "long_name": "Kam Tin",
          "short_name": "Kam Tin",
          "types": [
            "neighborhood",
            "political"
          ]
        },
        {
          "long_name": "New Territories",
          "short_name": "New Territories",
          "types": [
            "administrative_area_level_1",
            "political"
          ]
        },
        {
          "long_name": "Hong Kong",
          "short_name": "HK",
          "types": [
            "country",
            "political"
          ]
        }
      ],
      "formatted_address": "Ko Po Tsuen, Kam Tin, Hong Kong",
      "geometry": {
        "location": {
          "lat": 22.440662,
          "lng": 114.055623
        },
        "location_type": "GEOMETRIC_CENTER",
        "viewport": {
          "northeast": {
            "lat": 22.4420109802915,
            "lng": 114.0569719802915
          },
          "southwest": {
            "lat": 22.4393130197085,
            "lng": 114.0542740197085
          }
        }
      },
      "partial_match": true,
      "place_id": "ChIJPcmIb1b3AzQRy3NrUuvloQE",
      "plus_code": {
        "compound_code": "C3R4+76 Hong Kong",
        "global_code": "7PJPC3R4+76"
      },
      "types": [
        "establishment",
        "point_of_interest",
        "transit_station"
      ]
    }
  ],
  "geocode_tc": [
    {
      "address_components": [
        {
          "long_name": "\u5143\u6717",
          "short_name": "\u5143\u6717",
          "types": [
            "neighborhood",
            "political"
          ]
        },
        {
          "long_name": "\u65b0\u754c",
          "short_name": "\u65b0\u754c",
          "types": [
            "administrative_area_level_1",
            "political"
          ]
        },
        {
          "long_name": "\u9999\u6e2f",
          "short_name": "HK",
          "types": [
            "country",
            "political"
          ]
        }
      ],
      "formatted_address": "\u9999\u6e2f\u5143\u6717",
      "geometry": {
        "bounds": {
          "northeast": {
            "lat": 22.4785374,
            "lng": 114.0549088
          },
          "southwest": {
            "lat": 22.4130917,
            "lng": 114.008533
          }
        },
        "location": {
          "lat": 22.4445376,
          "lng": 114.0222076
        },
        "location_type": "APPROXIMATE",
        "viewport": {
          "northeast": {
            "lat": 22.4785374,
            "lng": 114.0549088
          },
          "southwest": {
            "lat": 22.4130917,
            "lng": 114.008533
          }
        }
      },
      "partial_match": true,
      "place_id": "ChIJuWZv9rvwAzQR5kO1teLKjTU",
      "types": [
        "neighborhood",
        "political"
      ]
    }
  ],
  "licno": "2294807318",
  "timestamp": 1564975666,
  "version": "1564966095"
}
