{
  "adr_en": "Perfect Carriage House, G/F, DD 104, LOT 2562 BRP, 390 CASTLE PEAK ROAD, TAM MI, YUEN LONG, NEW TERRITORIES",
  "adr_tc": "\u65b0\u754c\u5143\u6717\u6f6d\u5c3e 104\u7d042562\u865f\u5730\u6bb5B\u6bb5\u9918\u6bb5 \u9752\u5c71\u516c\u8def390\u865f\u5730\u4e0b \u6d6a\u6f2b\u6eff\u5c4b",
  "geocode_en": [
    {
      "address_components": [
        {
          "long_name": "104",
          "short_name": "104",
          "types": [
            "subpremise"
          ]
        },
        {
          "long_name": "390",
          "short_name": "390",
          "types": [
            "street_number"
          ]
        },
        {
          "long_name": "Castle Peak Road (Ting Kau)",
          "short_name": "Castle Peak Rd (Ting Kau)",
          "types": [
            "route"
          ]
        },
        {
          "long_name": "Ting Kau",
          "short_name": "Ting Kau",
          "types": [
            "neighborhood",
            "political"
          ]
        },
        {
          "long_name": "New Territories",
          "short_name": "New Territories",
          "types": [
            "administrative_area_level_1",
            "political"
          ]
        },
        {
          "long_name": "Hong Kong",
          "short_name": "HK",
          "types": [
            "country",
            "political"
          ]
        }
      ],
      "formatted_address": "104, 390 Castle Peak Rd (Ting Kau), Ting Kau, Hong Kong",
      "geometry": {
        "location": {
          "lat": 22.3665464,
          "lng": 114.0730612
        },
        "location_type": "RANGE_INTERPOLATED",
        "viewport": {
          "northeast": {
            "lat": 22.3678953802915,
            "lng": 114.0744101802915
          },
          "southwest": {
            "lat": 22.3651974197085,
            "lng": 114.0717122197085
          }
        }
      },
      "partial_match": true,
      "place_id": "EjcxMDQsIDM5MCBDYXN0bGUgUGVhayBSZCAoVGluZyBLYXUpLCBUaW5nIEthdSwgSG9uZyBLb25nIiQaIgobEhkKFAoSCTkz448_-QM0EdtXG6Ve8_phEIYDEgMxMDQ",
      "types": [
        "subpremise"
      ]
    },
    {
      "address_components": [
        {
          "long_name": "2562",
          "short_name": "2562",
          "types": [
            "subpremise"
          ]
        },
        {
          "long_name": "390",
          "short_name": "390",
          "types": [
            "street_number"
          ]
        },
        {
          "long_name": "Castle Peak Road (Ting Kau)",
          "short_name": "Castle Peak Rd (Ting Kau)",
          "types": [
            "route"
          ]
        },
        {
          "long_name": "Ting Kau",
          "short_name": "Ting Kau",
          "types": [
            "neighborhood",
            "political"
          ]
        },
        {
          "long_name": "New Territories",
          "short_name": "New Territories",
          "types": [
            "administrative_area_level_1",
            "political"
          ]
        },
        {
          "long_name": "Hong Kong",
          "short_name": "HK",
          "types": [
            "country",
            "political"
          ]
        }
      ],
      "formatted_address": "2562, 390 Castle Peak Rd (Ting Kau), Ting Kau, Hong Kong",
      "geometry": {
        "location": {
          "lat": 22.3665464,
          "lng": 114.0730612
        },
        "location_type": "RANGE_INTERPOLATED",
        "viewport": {
          "northeast": {
            "lat": 22.3678953802915,
            "lng": 114.0744101802915
          },
          "southwest": {
            "lat": 22.3651974197085,
            "lng": 114.0717122197085
          }
        }
      },
      "partial_match": true,
      "place_id": "EjgyNTYyLCAzOTAgQ2FzdGxlIFBlYWsgUmQgKFRpbmcgS2F1KSwgVGluZyBLYXUsIEhvbmcgS29uZyIlGiMKGxIZChQKEgk5M-OPP_kDNBHbVxulXvP6YRCGAxIEMjU2Mg",
      "types": [
        "subpremise"
      ]
    },
    {
      "address_components": [
        {
          "long_name": "San Tam Road",
          "short_name": "San Tam Rd",
          "types": [
            "route"
          ]
        },
        {
          "long_name": "Yuen Long",
          "short_name": "Yuen Long",
          "types": [
            "neighborhood",
            "political"
          ]
        },
        {
          "long_name": "New Territories",
          "short_name": "New Territories",
          "types": [
            "administrative_area_level_1",
            "political"
          ]
        },
        {
          "long_name": "Hong Kong",
          "short_name": "HK",
          "types": [
            "country",
            "political"
          ]
        }
      ],
      "formatted_address": "San Tam Rd, Yuen Long, Hong Kong",
      "geometry": {
        "bounds": {
          "northeast": {
            "lat": 22.4693495,
            "lng": 114.0553944
          },
          "southwest": {
            "lat": 22.4512,
            "lng": 114.0504333
          }
        },
        "location": {
          "lat": 22.459922,
          "lng": 114.052841
        },
        "location_type": "GEOMETRIC_CENTER",
        "viewport": {
          "northeast": {
            "lat": 22.4693495,
            "lng": 114.0553944
          },
          "southwest": {
            "lat": 22.4512,
            "lng": 114.0504333
          }
        }
      },
      "partial_match": true,
      "place_id": "EiBTYW4gVGFtIFJkLCBZdWVuIExvbmcsIEhvbmcgS29uZyIuKiwKFAoSCVl4d90x9wM0EaJ9YXaEwGgjEhQKEgm5Zm_2u_ADNBHmQ7W14sqNNQ",
      "types": [
        "route"
      ]
    }
  ],
  "geocode_tc": [
    {
      "address_components": [
        {
          "long_name": "\u865f\u5730\u4e0b",
          "short_name": "\u865f\u5730\u4e0b",
          "types": [
            "subpremise"
          ]
        },
        {
          "long_name": "390",
          "short_name": "390",
          "types": [
            "street_number"
          ]
        },
        {
          "long_name": "\u9752\u5c71\u516c\u8def\u6c40\u4e5d\u6bb5",
          "short_name": "\u9752\u5c71\u516c\u8def\u6c40\u4e5d\u6bb5",
          "types": [
            "route"
          ]
        },
        {
          "long_name": "\u6c40\u4e5d",
          "short_name": "\u6c40\u4e5d",
          "types": [
            "neighborhood",
            "political"
          ]
        },
        {
          "long_name": "\u65b0\u754c",
          "short_name": "\u65b0\u754c",
          "types": [
            "administrative_area_level_1",
            "political"
          ]
        },
        {
          "long_name": "\u9999\u6e2f",
          "short_name": "HK",
          "types": [
            "country",
            "political"
          ]
        }
      ],
      "formatted_address": "\u9999\u6e2f\u6c40\u4e5d\u9752\u5c71\u516c\u8def\u6c40\u4e5d\u6bb5390\u865f\u865f\u5730\u4e0b",
      "geometry": {
        "location": {
          "lat": 22.3665464,
          "lng": 114.0730612
        },
        "location_type": "RANGE_INTERPOLATED",
        "viewport": {
          "northeast": {
            "lat": 22.3678953802915,
            "lng": 114.0744101802915
          },
          "southwest": {
            "lat": 22.3651974197085,
            "lng": 114.0717122197085
          }
        }
      },
      "partial_match": true,
      "place_id": "Ej3omZ_lnLDkuIssIDM5MCBDYXN0bGUgUGVhayBSZCAoVGluZyBLYXUpLCBUaW5nIEthdSwgSG9uZyBLb25nIioaKAobEhkKFAoSCTkz448_-QM0EdtXG6Ve8_phEIYDEgnomZ_lnLDkuIs",
      "types": [
        "subpremise"
      ]
    },
    {
      "address_components": [
        {
          "long_name": "\u6f6d\u5c3e",
          "short_name": "\u6f6d\u5c3e",
          "types": [
            "neighborhood",
            "political"
          ]
        },
        {
          "long_name": "\u65b0\u754c",
          "short_name": "\u65b0\u754c",
          "types": [
            "administrative_area_level_1",
            "political"
          ]
        },
        {
          "long_name": "\u9999\u6e2f",
          "short_name": "HK",
          "types": [
            "country",
            "political"
          ]
        }
      ],
      "formatted_address": "\u9999\u6e2f\u6f6d\u5c3e",
      "geometry": {
        "bounds": {
          "northeast": {
            "lat": 22.4965731,
            "lng": 114.098066
          },
          "southwest": {
            "lat": 22.467705,
            "lng": 114.0510289
          }
        },
        "location": {
          "lat": 22.4773228,
          "lng": 114.0755593
        },
        "location_type": "APPROXIMATE",
        "viewport": {
          "northeast": {
            "lat": 22.4965731,
            "lng": 114.098066
          },
          "southwest": {
            "lat": 22.467705,
            "lng": 114.0510289
          }
        }
      },
      "partial_match": true,
      "place_id": "ChIJAVZCROD2AzQRoP0e7CE-R1M",
      "types": [
        "neighborhood",
        "political"
      ]
    }
  ],
  "licno": "2294002436",
  "timestamp": 1564975666,
  "version": "1564966095"
}
