{
  "adr_en": "FINE CHAIN FOOD & BEVERAGE, G/F, 100 FUK WING STREET, SHAM SHUI PO, KOWLOON",
  "adr_tc": "\u4e5d\u9f8d\u6df1\u6c34\u57d7\u798f\u69ae\u8857100\u865f\u5730\u4e0b \u6b63\u5b97\u4e0a\u6d77\u751f\u714e\u7687",
  "geocode_en": [
    {
      "address_components": [
        {
          "long_name": "G",
          "short_name": "G",
          "types": [
            "subpremise"
          ]
        },
        {
          "long_name": "100 Fuk Wing Street",
          "short_name": "100 Fuk Wing Street",
          "types": [
            "premise"
          ]
        },
        {
          "long_name": "100",
          "short_name": "100",
          "types": [
            "street_number"
          ]
        },
        {
          "long_name": "Fuk Wing Street",
          "short_name": "Fuk Wing St",
          "types": [
            "route"
          ]
        },
        {
          "long_name": "Un Chau",
          "short_name": "Un Chau",
          "types": [
            "neighborhood",
            "political"
          ]
        },
        {
          "long_name": "Kowloon",
          "short_name": "Kowloon",
          "types": [
            "administrative_area_level_1",
            "political"
          ]
        },
        {
          "long_name": "Hong Kong",
          "short_name": "HK",
          "types": [
            "country",
            "political"
          ]
        }
      ],
      "formatted_address": "G, 100 Fuk Wing Street, 100 Fuk Wing St, Un Chau, Hong Kong",
      "geometry": {
        "bounds": {
          "northeast": {
            "lat": 22.3324431,
            "lng": 114.1626961
          },
          "southwest": {
            "lat": 22.332215,
            "lng": 114.1624729
          }
        },
        "location": {
          "lat": 22.3323476,
          "lng": 114.1625837
        },
        "location_type": "ROOFTOP",
        "viewport": {
          "northeast": {
            "lat": 22.3336780302915,
            "lng": 114.1639334802915
          },
          "southwest": {
            "lat": 22.3309800697085,
            "lng": 114.1612355197085
          }
        }
      },
      "partial_match": true,
      "place_id": "EjtHLCAxMDAgRnVrIFdpbmcgU3RyZWV0LCAxMDAgRnVrIFdpbmcgU3QsIFVuIENoYXUsIEhvbmcgS29uZyIdGhsKFgoUChIJ-Qi-srQABDQR0p4uAum9aX4SAUc",
      "types": [
        "subpremise"
      ]
    },
    {
      "address_components": [
        {
          "long_name": "F",
          "short_name": "F",
          "types": [
            "subpremise"
          ]
        },
        {
          "long_name": "100 Fuk Wing Street",
          "short_name": "100 Fuk Wing Street",
          "types": [
            "premise"
          ]
        },
        {
          "long_name": "100",
          "short_name": "100",
          "types": [
            "street_number"
          ]
        },
        {
          "long_name": "Fuk Wing Street",
          "short_name": "Fuk Wing St",
          "types": [
            "route"
          ]
        },
        {
          "long_name": "Un Chau",
          "short_name": "Un Chau",
          "types": [
            "neighborhood",
            "political"
          ]
        },
        {
          "long_name": "Kowloon",
          "short_name": "Kowloon",
          "types": [
            "administrative_area_level_1",
            "political"
          ]
        },
        {
          "long_name": "Hong Kong",
          "short_name": "HK",
          "types": [
            "country",
            "political"
          ]
        }
      ],
      "formatted_address": "F, 100 Fuk Wing Street, 100 Fuk Wing St, Un Chau, Hong Kong",
      "geometry": {
        "bounds": {
          "northeast": {
            "lat": 22.3324431,
            "lng": 114.1626961
          },
          "southwest": {
            "lat": 22.332215,
            "lng": 114.1624729
          }
        },
        "location": {
          "lat": 22.3323476,
          "lng": 114.1625837
        },
        "location_type": "ROOFTOP",
        "viewport": {
          "northeast": {
            "lat": 22.3336780302915,
            "lng": 114.1639334802915
          },
          "southwest": {
            "lat": 22.3309800697085,
            "lng": 114.1612355197085
          }
        }
      },
      "partial_match": true,
      "place_id": "EjtGLCAxMDAgRnVrIFdpbmcgU3RyZWV0LCAxMDAgRnVrIFdpbmcgU3QsIFVuIENoYXUsIEhvbmcgS29uZyIdGhsKFgoUChIJ-Qi-srQABDQR0p4uAum9aX4SAUY",
      "types": [
        "subpremise"
      ]
    }
  ],
  "geocode_tc": [
    {
      "address_components": [
        {
          "long_name": "100",
          "short_name": "100",
          "types": [
            "street_number"
          ]
        },
        {
          "long_name": "\u798f\u69ae\u8857",
          "short_name": "\u798f\u69ae\u8857",
          "types": [
            "route"
          ]
        },
        {
          "long_name": "\u6df1\u6c34\u57d7",
          "short_name": "\u6df1\u6c34\u57d7",
          "types": [
            "neighborhood",
            "political"
          ]
        },
        {
          "long_name": "\u4e5d\u9f8d",
          "short_name": "\u4e5d\u9f8d",
          "types": [
            "administrative_area_level_1",
            "political"
          ]
        },
        {
          "long_name": "\u9999\u6e2f",
          "short_name": "HK",
          "types": [
            "country",
            "political"
          ]
        }
      ],
      "formatted_address": "\u9999\u6e2f\u6df1\u6c34\u57d7\u798f\u69ae\u8857100\u865f",
      "geometry": {
        "location": {
          "lat": 22.332288,
          "lng": 114.162541
        },
        "location_type": "ROOFTOP",
        "viewport": {
          "northeast": {
            "lat": 22.3336369802915,
            "lng": 114.1638899802915
          },
          "southwest": {
            "lat": 22.3309390197085,
            "lng": 114.1611920197085
          }
        }
      },
      "place_id": "ChIJt7OEsrQABDQRz76PRC-a_3o",
      "plus_code": {
        "compound_code": "85J7+W2 \u9999\u6e2f\u6df1\u6c34\u57d7",
        "global_code": "7PJP85J7+W2"
      },
      "types": [
        "establishment",
        "food",
        "point_of_interest",
        "restaurant"
      ]
    }
  ],
  "licno": "2263805121",
  "timestamp": 1564968756,
  "version": "1564966095"
}
