{
  "adr_en": "Tomita Japanese Restaurant, SHOP 102 + 103, 1/F, YAU LAI SHOPPING CENTRE, YAU LAI ESTATE, YAU TONG, KOWLOON",
  "adr_tc": "\u4e5d\u9f8d\u6cb9\u5858\u6cb9\u9e97\u90a8\u6cb9\u9e97\u5546\u58341\u6a13102 + 103\u865f\u8216 \u5bcc\u7530\u548c\u98df\u4ead",
  "geocode_en": [
    {
      "address_components": [
        {
          "long_name": "Hong Kong",
          "short_name": "HK",
          "types": [
            "country",
            "political"
          ]
        }
      ],
      "formatted_address": "Shop 102-103, 1/F, Yau Lai Shopping Centre, Yau Lai Estate, Yau Tong, Hong Kong",
      "geometry": {
        "location": {
          "lat": 22.298703,
          "lng": 114.2370844
        },
        "location_type": "GEOMETRIC_CENTER",
        "viewport": {
          "northeast": {
            "lat": 22.30005198029151,
            "lng": 114.2384333802915
          },
          "southwest": {
            "lat": 22.2973540197085,
            "lng": 114.2357354197085
          }
        }
      },
      "place_id": "ChIJ45ze218BBDQREFBiQBLCuTE",
      "plus_code": {
        "compound_code": "76XP+FR Hong Kong",
        "global_code": "7PJP76XP+FR"
      },
      "types": [
        "establishment",
        "food",
        "point_of_interest",
        "restaurant"
      ]
    }
  ],
  "geocode_tc": [
    {
      "address_components": [
        {
          "long_name": "\u9999\u6e2f",
          "short_name": "HK",
          "types": [
            "country",
            "political"
          ]
        }
      ],
      "formatted_address": "\u9999\u6e2f\u6cb9\u5858\u6cb9\u9e97\u90a8\u6cb9\u9e97\u5546\u58341\u6a13102-103\u865f\u8216",
      "geometry": {
        "location": {
          "lat": 22.2983694,
          "lng": 114.2372188
        },
        "location_type": "GEOMETRIC_CENTER",
        "viewport": {
          "northeast": {
            "lat": 22.2997183802915,
            "lng": 114.2385677802915
          },
          "southwest": {
            "lat": 22.2970204197085,
            "lng": 114.2358698197085
          }
        }
      },
      "place_id": "ChIJ45ze218BBDQRxK0RRYvSCEQ",
      "plus_code": {
        "compound_code": "76XP+8V \u9999\u6e2f",
        "global_code": "7PJP76XP+8V"
      },
      "types": [
        "establishment",
        "food",
        "point_of_interest",
        "restaurant"
      ]
    }
  ],
  "licno": "2251802879",
  "timestamp": 1564968756,
  "version": "1564966095"
}
