{
  "adr_en": "NAVA, FLAT 2, G/F, MEI HING MANSION, 1-17 YAN HING STREET, TAI PO, NEW TERRITORIES",
  "adr_tc": "\u65b0\u754c\u5927\u57d4\u4ec1\u8208\u88571-17\u865f\u7f8e\u99a8\u5927\u5ec8\u5730\u4e0b2\u865f\u55ae\u4f4d NAVA",
  "geocode_en": [
    {
      "address_components": [
        {
          "long_name": "Mei Hing Mansion",
          "short_name": "Mei Hing Mansion",
          "types": [
            "premise"
          ]
        },
        {
          "long_name": "1",
          "short_name": "1",
          "types": [
            "street_number"
          ]
        },
        {
          "long_name": "Yan Hing Street",
          "short_name": "Yan Hing St",
          "types": [
            "route"
          ]
        },
        {
          "long_name": "Tai Po",
          "short_name": "Tai Po",
          "types": [
            "neighborhood",
            "political"
          ]
        },
        {
          "long_name": "New Territories",
          "short_name": "New Territories",
          "types": [
            "administrative_area_level_1",
            "political"
          ]
        },
        {
          "long_name": "Hong Kong",
          "short_name": "HK",
          "types": [
            "country",
            "political"
          ]
        }
      ],
      "formatted_address": "Mei Hing Mansion, 1 Yan Hing St, Tai Po, Hong Kong",
      "geometry": {
        "bounds": {
          "northeast": {
            "lat": 22.448399,
            "lng": 114.164334
          },
          "southwest": {
            "lat": 22.4479009,
            "lng": 114.164078
          }
        },
        "location": {
          "lat": 22.4480844,
          "lng": 114.1642325
        },
        "location_type": "ROOFTOP",
        "viewport": {
          "northeast": {
            "lat": 22.4494989302915,
            "lng": 114.1655549802915
          },
          "southwest": {
            "lat": 22.44680096970849,
            "lng": 114.1628570197085
          }
        }
      },
      "partial_match": true,
      "place_id": "ChIJjRFU3D4IBDQRIngMhIHj4IA",
      "types": [
        "premise"
      ]
    }
  ],
  "geocode_tc": [
    {
      "address_components": [
        {
          "long_name": "\u7f8e\u99a8\u5927\u5ec8",
          "short_name": "\u7f8e\u99a8\u5927\u5ec8",
          "types": [
            "premise"
          ]
        },
        {
          "long_name": "1",
          "short_name": "1",
          "types": [
            "street_number"
          ]
        },
        {
          "long_name": "\u4ec1\u8208\u8857",
          "short_name": "\u4ec1\u8208\u8857",
          "types": [
            "route"
          ]
        },
        {
          "long_name": "\u5927\u57d4",
          "short_name": "\u5927\u57d4",
          "types": [
            "neighborhood",
            "political"
          ]
        },
        {
          "long_name": "\u65b0\u754c",
          "short_name": "\u65b0\u754c",
          "types": [
            "administrative_area_level_1",
            "political"
          ]
        },
        {
          "long_name": "\u9999\u6e2f",
          "short_name": "HK",
          "types": [
            "country",
            "political"
          ]
        }
      ],
      "formatted_address": "\u9999\u6e2f\u5927\u57d4\u4ec1\u8208\u88571\u865f\u7f8e\u99a8\u5927\u5ec8",
      "geometry": {
        "bounds": {
          "northeast": {
            "lat": 22.448399,
            "lng": 114.164334
          },
          "southwest": {
            "lat": 22.4479009,
            "lng": 114.164078
          }
        },
        "location": {
          "lat": 22.4480844,
          "lng": 114.1642325
        },
        "location_type": "ROOFTOP",
        "viewport": {
          "northeast": {
            "lat": 22.4494989302915,
            "lng": 114.1655549802915
          },
          "southwest": {
            "lat": 22.44680096970849,
            "lng": 114.1628570197085
          }
        }
      },
      "partial_match": true,
      "place_id": "ChIJjRFU3D4IBDQRIngMhIHj4IA",
      "types": [
        "premise"
      ]
    }
  ],
  "licno": "3195800242",
  "timestamp": 1564975666,
  "version": "1564966095"
}
