{
  "adr_en": "\u84b2\u9ede, SHOP 6, G/F, MAN PO MANSION, 28 YUK WAH CRESCENT, TSZ WAN SHAN, WONG TAI SIN, KOWLOON",
  "adr_tc": "\u4e5d\u9f8d\u6148\u96f2\u5c71\u6bd3\u83ef\u91cc28\u865f \u842c\u5bf6\u5927\u5ec8\u5730\u4e0b6\u865f\u8216 \u84b2\u9ede",
  "geocode_en": [
    {
      "address_components": [
        {
          "long_name": "\u9ede, SHOP",
          "short_name": "\u9ede, SHOP",
          "types": [
            "subpremise"
          ]
        },
        {
          "long_name": "Man Po Building",
          "short_name": "Man Po Building",
          "types": [
            "premise"
          ]
        },
        {
          "long_name": "28",
          "short_name": "28",
          "types": [
            "street_number"
          ]
        },
        {
          "long_name": "Yuk Wah Crescent",
          "short_name": "Yuk Wah Cres",
          "types": [
            "route"
          ]
        },
        {
          "long_name": "Tsz Wan Shan",
          "short_name": "Tsz Wan Shan",
          "types": [
            "neighborhood",
            "political"
          ]
        },
        {
          "long_name": "Kowloon",
          "short_name": "Kowloon",
          "types": [
            "administrative_area_level_1",
            "political"
          ]
        },
        {
          "long_name": "Hong Kong",
          "short_name": "HK",
          "types": [
            "country",
            "political"
          ]
        }
      ],
      "formatted_address": "\u9ede, SHOP, Man Po Building, 28 Yuk Wah Cres, Tsz Wan Shan, Hong Kong",
      "geometry": {
        "bounds": {
          "northeast": {
            "lat": 22.346966,
            "lng": 114.202926
          },
          "southwest": {
            "lat": 22.346832,
            "lng": 114.202711
          }
        },
        "location": {
          "lat": 22.3468801,
          "lng": 114.2028038
        },
        "location_type": "ROOFTOP",
        "viewport": {
          "northeast": {
            "lat": 22.3482479802915,
            "lng": 114.2041674802915
          },
          "southwest": {
            "lat": 22.3455500197085,
            "lng": 114.2014695197085
          }
        }
      },
      "partial_match": true,
      "place_id": "EkTpu54sIFNIT1AsIE1hbiBQbyBCdWlsZGluZywgMjggWXVrIFdhaCBDcmVzLCBUc3ogV2FuIFNoYW4sIEhvbmcgS29uZyIlGiMKFgoUChIJ22K1N90GBDQRPJ3i3qCRltwSCem7niwgU0hPUA",
      "types": [
        "subpremise"
      ]
    }
  ],
  "geocode_tc": [
    {
      "address_components": [
        {
          "long_name": "\u842c\u5bf6\u5927\u5ec8",
          "short_name": "\u842c\u5bf6\u5927\u5ec8",
          "types": [
            "premise"
          ]
        },
        {
          "long_name": "28",
          "short_name": "28",
          "types": [
            "street_number"
          ]
        },
        {
          "long_name": "\u6bd3\u83ef\u91cc",
          "short_name": "\u6bd3\u83ef\u91cc",
          "types": [
            "route"
          ]
        },
        {
          "long_name": "\u6148\u96f2\u5c71",
          "short_name": "\u6148\u96f2\u5c71",
          "types": [
            "neighborhood",
            "political"
          ]
        },
        {
          "long_name": "\u4e5d\u9f8d",
          "short_name": "\u4e5d\u9f8d",
          "types": [
            "administrative_area_level_1",
            "political"
          ]
        },
        {
          "long_name": "\u9999\u6e2f",
          "short_name": "HK",
          "types": [
            "country",
            "political"
          ]
        }
      ],
      "formatted_address": "\u9999\u6e2f\u6148\u96f2\u5c71\u6bd3\u83ef\u91cc28\u865f\u842c\u5bf6\u5927\u5ec8",
      "geometry": {
        "bounds": {
          "northeast": {
            "lat": 22.346966,
            "lng": 114.202926
          },
          "southwest": {
            "lat": 22.346832,
            "lng": 114.202711
          }
        },
        "location": {
          "lat": 22.3468801,
          "lng": 114.2028038
        },
        "location_type": "ROOFTOP",
        "viewport": {
          "northeast": {
            "lat": 22.3482479802915,
            "lng": 114.2041674802915
          },
          "southwest": {
            "lat": 22.3455500197085,
            "lng": 114.2014695197085
          }
        }
      },
      "partial_match": true,
      "place_id": "ChIJ22K1N90GBDQRPJ3i3qCRltw",
      "types": [
        "premise"
      ]
    }
  ],
  "licno": "3153211228",
  "timestamp": 1564975666,
  "version": "1564966095"
}
