{
  "adr_en": "Asia Pacific, CANTEEN, 2/F, HOSPITAL AUTHORITY BUILDING, 147B ARGYLE STREET, KOWLOON",
  "adr_tc": "\u4e5d\u9f8d\u4e9e\u7686\u8001\u8857147B\u91ab\u7ba1\u5c40\u5927\u6a132\u6a13\u98df\u5802 \u6cdb\u4e9e\u98f2\u98df",
  "geocode_en": [
    {
      "address_components": [
        {
          "long_name": "Hospital Authority Building",
          "short_name": "HA Building",
          "types": [
            "premise"
          ]
        },
        {
          "long_name": "147B",
          "short_name": "147B",
          "types": [
            "street_number"
          ]
        },
        {
          "long_name": "Argyle Street",
          "short_name": "Argyle St",
          "types": [
            "route"
          ]
        },
        {
          "long_name": "Ma Tau Wai",
          "short_name": "Ma Tau Wai",
          "types": [
            "neighborhood",
            "political"
          ]
        },
        {
          "long_name": "Kowloon",
          "short_name": "Kowloon",
          "types": [
            "administrative_area_level_1",
            "political"
          ]
        },
        {
          "long_name": "Hong Kong",
          "short_name": "HK",
          "types": [
            "country",
            "political"
          ]
        }
      ],
      "formatted_address": "Hospital Authority Building, 147B Argyle St, Ma Tau Wai, Hong Kong",
      "geometry": {
        "bounds": {
          "northeast": {
            "lat": 22.3245908,
            "lng": 114.1836759
          },
          "southwest": {
            "lat": 22.3240158,
            "lng": 114.1827315
          }
        },
        "location": {
          "lat": 22.3243596,
          "lng": 114.1832191
        },
        "location_type": "ROOFTOP",
        "viewport": {
          "northeast": {
            "lat": 22.3256522802915,
            "lng": 114.1845526802915
          },
          "southwest": {
            "lat": 22.3229543197085,
            "lng": 114.1818547197085
          }
        }
      },
      "partial_match": true,
      "place_id": "ChIJy4Xdz9MABDQR1HRgydJdtvw",
      "types": [
        "premise"
      ]
    }
  ],
  "geocode_tc": [
    {
      "address_components": [
        {
          "long_name": "147B",
          "short_name": "147B",
          "types": [
            "street_number"
          ]
        },
        {
          "long_name": "\u4e9e\u7686\u8001\u8857",
          "short_name": "\u4e9e\u7686\u8001\u8857",
          "types": [
            "route"
          ]
        },
        {
          "long_name": "\u65fa\u89d2",
          "short_name": "\u65fa\u89d2",
          "types": [
            "neighborhood",
            "political"
          ]
        },
        {
          "long_name": "\u4e5d\u9f8d",
          "short_name": "\u4e5d\u9f8d",
          "types": [
            "administrative_area_level_1",
            "political"
          ]
        },
        {
          "long_name": "\u9999\u6e2f",
          "short_name": "HK",
          "types": [
            "country",
            "political"
          ]
        }
      ],
      "formatted_address": "\u9999\u6e2f\u65fa\u89d2\u4e9e\u7686\u8001\u8857147B\u865f",
      "geometry": {
        "location": {
          "lat": 22.3242766,
          "lng": 114.1829356
        },
        "location_type": "ROOFTOP",
        "viewport": {
          "northeast": {
            "lat": 22.3256255802915,
            "lng": 114.1842845802915
          },
          "southwest": {
            "lat": 22.32292761970849,
            "lng": 114.1815866197085
          }
        }
      },
      "place_id": "ChIJ_YLdz9MABDQRrgev2cRSGao",
      "plus_code": {
        "compound_code": "85FM+P5 \u9999\u6e2f",
        "global_code": "7PJP85FM+P5"
      },
      "types": [
        "establishment",
        "food",
        "point_of_interest",
        "restaurant"
      ]
    },
    {
      "address_components": [
        {
          "long_name": "147B",
          "short_name": "147B",
          "types": [
            "street_number"
          ]
        },
        {
          "long_name": "\u4e9e\u7686\u8001\u8857",
          "short_name": "\u4e9e\u7686\u8001\u8857",
          "types": [
            "route"
          ]
        },
        {
          "long_name": "\u99ac\u982d\u570d",
          "short_name": "\u99ac\u982d\u570d",
          "types": [
            "neighborhood",
            "political"
          ]
        },
        {
          "long_name": "\u9999\u6e2f",
          "short_name": "HK",
          "types": [
            "country",
            "political"
          ]
        }
      ],
      "formatted_address": "\u9999\u6e2f\u99ac\u982d\u570d\u4e9e\u7686\u8001\u8857147B\u865f\u865f",
      "geometry": {
        "location": {
          "lat": 22.3243594,
          "lng": 114.1832262
        },
        "location_type": "ROOFTOP",
        "viewport": {
          "northeast": {
            "lat": 22.3257083802915,
            "lng": 114.1845751802915
          },
          "southwest": {
            "lat": 22.3230104197085,
            "lng": 114.1818772197085
          }
        }
      },
      "place_id": "ChIJSwTAz9MABDQRn-vFckTGAPQ",
      "plus_code": {
        "compound_code": "85FM+P7 \u9999\u6e2f",
        "global_code": "7PJP85FM+P7"
      },
      "types": [
        "establishment",
        "point_of_interest"
      ]
    }
  ],
  "licno": "2252802450",
  "timestamp": 1564968756,
  "version": "1564966095"
}
