{
  "adr_en": "TAI FUNG LAU PEKING RESTAURANT, SHOP 9 G/F, M/F, ROOM 2-7, 29-31 CHATHAM ROAD, TSIM SHA TSUI, KOWLOON",
  "adr_tc": "\u4e5d\u9f8d\u5c16\u6c99\u5480\u6f06\u54b8\u905329-31\u865f \u5730\u4e0b9\u865f\u8216\u53ca \u95a3\u6a132\u81f37\u5ba4 \u6cf0\u8c50\u5ed4",
  "geocode_en": [
    {
      "address_components": [
        {
          "long_name": "Windsor Mansion",
          "short_name": "Windsor Mansion",
          "types": [
            "premise"
          ]
        },
        {
          "long_name": "29-31\u865f",
          "short_name": "29-31\u865f",
          "types": [
            "street_number"
          ]
        },
        {
          "long_name": "Chatham Road South",
          "short_name": "Chatham Rd S",
          "types": [
            "route"
          ]
        },
        {
          "long_name": "Tsim Sha Tsui",
          "short_name": "Tsim Sha Tsui",
          "types": [
            "neighborhood",
            "political"
          ]
        },
        {
          "long_name": "Kowloon",
          "short_name": "Kowloon",
          "types": [
            "administrative_area_level_1",
            "political"
          ]
        },
        {
          "long_name": "Hong Kong",
          "short_name": "HK",
          "types": [
            "country",
            "political"
          ]
        }
      ],
      "formatted_address": "Windsor Mansion, 29-31\u865f Chatham Rd S, Tsim Sha Tsui, Hong Kong",
      "geometry": {
        "location": {
          "lat": 22.297905,
          "lng": 114.175339
        },
        "location_type": "ROOFTOP",
        "viewport": {
          "northeast": {
            "lat": 22.2992539802915,
            "lng": 114.1766879802915
          },
          "southwest": {
            "lat": 22.2965560197085,
            "lng": 114.1739900197085
          }
        }
      },
      "partial_match": true,
      "place_id": "ChIJNxUzPO4ABDQRlFZdyJwEjxU",
      "plus_code": {
        "compound_code": "75XG+54 Hong Kong",
        "global_code": "7PJP75XG+54"
      },
      "types": [
        "establishment",
        "food",
        "point_of_interest",
        "restaurant"
      ]
    },
    {
      "address_components": [
        {
          "long_name": "Chatham Road North",
          "short_name": "Chatham Rd N",
          "types": [
            "route"
          ]
        },
        {
          "long_name": "Kowloon",
          "short_name": "Kowloon",
          "types": [
            "administrative_area_level_1",
            "political"
          ]
        },
        {
          "long_name": "Hong Kong",
          "short_name": "HK",
          "types": [
            "country",
            "political"
          ]
        }
      ],
      "formatted_address": "Chatham Rd N, Hong Kong",
      "geometry": {
        "bounds": {
          "northeast": {
            "lat": 22.314605,
            "lng": 114.1877797
          },
          "southwest": {
            "lat": 22.3057773,
            "lng": 114.1796057
          }
        },
        "location": {
          "lat": 22.3095972,
          "lng": 114.1842974
        },
        "location_type": "GEOMETRIC_CENTER",
        "viewport": {
          "northeast": {
            "lat": 22.314605,
            "lng": 114.1877797
          },
          "southwest": {
            "lat": 22.3057773,
            "lng": 114.1796057
          }
        }
      },
      "partial_match": true,
      "place_id": "ChIJNebgU9wABDQR3qkMUj8Nzr8",
      "types": [
        "route"
      ]
    }
  ],
  "geocode_tc": [
    {
      "address_components": [
        {
          "long_name": "\u5730\u4e0b9\u865f\u8216",
          "short_name": "\u5730\u4e0b9\u865f\u8216",
          "types": [
            "subpremise"
          ]
        },
        {
          "long_name": "\u6eab\u838e\u5927\u5ec8",
          "short_name": "\u6eab\u838e\u5927\u5ec8",
          "types": [
            "premise"
          ]
        },
        {
          "long_name": "29-31",
          "short_name": "29-31",
          "types": [
            "street_number"
          ]
        },
        {
          "long_name": "\u6f06\u54b8\u9053\u5357",
          "short_name": "\u6f06\u54b8\u9053\u5357",
          "types": [
            "route"
          ]
        },
        {
          "long_name": "\u5c16\u6c99\u5480",
          "short_name": "\u5c16\u6c99\u5480",
          "types": [
            "neighborhood",
            "political"
          ]
        },
        {
          "long_name": "\u4e5d\u9f8d",
          "short_name": "\u4e5d\u9f8d",
          "types": [
            "administrative_area_level_1",
            "political"
          ]
        },
        {
          "long_name": "\u9999\u6e2f",
          "short_name": "HK",
          "types": [
            "country",
            "political"
          ]
        }
      ],
      "formatted_address": "\u9999\u6e2f\u5c16\u6c99\u5480\u6f06\u54b8\u9053\u535729-31\u865f\u6eab\u838e\u5927\u5ec8\u5730\u4e0b9\u865f\u8216",
      "geometry": {
        "bounds": {
          "northeast": {
            "lat": 22.297982,
            "lng": 114.175447
          },
          "southwest": {
            "lat": 22.2978251,
            "lng": 114.175137
          }
        },
        "location": {
          "lat": 22.2979041,
          "lng": 114.1753096
        },
        "location_type": "ROOFTOP",
        "viewport": {
          "northeast": {
            "lat": 22.2992525302915,
            "lng": 114.1766409802915
          },
          "southwest": {
            "lat": 22.29655456970849,
            "lng": 114.1739430197085
          }
        }
      },
      "partial_match": true,
      "place_id": "EkzlnLDkuIs56Jmf6IiWLCBXaW5kc29yIE1hbnNpb24sIDI5LTMxIENoYXRoYW0gUmQgUywgVHNpbSBTaGEgVHN1aSwgSG9uZyBLb25nIikaJwoWChQKEgljuMg97gAENBEYwKKvfKO4zBIN5Zyw5LiLOeiZn-iIlg",
      "types": [
        "subpremise"
      ]
    },
    {
      "address_components": [
        {
          "long_name": "\u6eab\u838e\u5927\u5ec8",
          "short_name": "\u6eab\u838e\u5927\u5ec8",
          "types": [
            "premise"
          ]
        },
        {
          "long_name": "29-31\u865f",
          "short_name": "29-31\u865f",
          "types": [
            "street_number"
          ]
        },
        {
          "long_name": "\u6f06\u54b8\u9053\u5357",
          "short_name": "\u6f06\u54b8\u9053\u5357",
          "types": [
            "route"
          ]
        },
        {
          "long_name": "\u5c16\u6c99\u5480",
          "short_name": "\u5c16\u6c99\u5480",
          "types": [
            "neighborhood",
            "political"
          ]
        },
        {
          "long_name": "\u4e5d\u9f8d",
          "short_name": "\u4e5d\u9f8d",
          "types": [
            "administrative_area_level_1",
            "political"
          ]
        },
        {
          "long_name": "\u9999\u6e2f",
          "short_name": "HK",
          "types": [
            "country",
            "political"
          ]
        }
      ],
      "formatted_address": "\u9999\u6e2f\u5c16\u6c99\u5480\u6f06\u54b8\u9053\u535729-31\u865f\u6eab\u838e\u5927\u5ec8",
      "geometry": {
        "location": {
          "lat": 22.297905,
          "lng": 114.175339
        },
        "location_type": "ROOFTOP",
        "viewport": {
          "northeast": {
            "lat": 22.2992539802915,
            "lng": 114.1766879802915
          },
          "southwest": {
            "lat": 22.2965560197085,
            "lng": 114.1739900197085
          }
        }
      },
      "partial_match": true,
      "place_id": "ChIJNxUzPO4ABDQRlFZdyJwEjxU",
      "plus_code": {
        "compound_code": "75XG+54 \u9999\u6e2f",
        "global_code": "7PJP75XG+54"
      },
      "types": [
        "establishment",
        "food",
        "point_of_interest",
        "restaurant"
      ]
    }
  ],
  "licno": "2261802429",
  "timestamp": 1564968756,
  "version": "1564966095"
}
