{
  "adr_en": "EL BALCONhttps://lmis.fehd.hksarg:8899/LMISPRD/maincontroller#, PORTION OF 11/F. AND FLAT ROOF, LOKE YEW BUILDING, 50-52 QUEEN'S ROAD CENTRAL, CENTRAL, HONG KONG",
  "adr_tc": "\u9999\u6e2f\u4e2d\u74b0\u7687\u540e\u5927\u9053\u4e2d50-52\u865f \u9678\u4f51\u884c\u90e8\u4efd11\u6a13\u53ca\u5e73\u53f0 EL BALCON",
  "geocode_en": [
    {
      "address_components": [
        {
          "long_name": "Loke Yew Building",
          "short_name": "Loke Yew Building",
          "types": [
            "premise"
          ]
        },
        {
          "long_name": "50-52",
          "short_name": "50-52",
          "types": [
            "street_number"
          ]
        },
        {
          "long_name": "Queen's Road Central",
          "short_name": "Queen's Road Central",
          "types": [
            "route"
          ]
        },
        {
          "long_name": "Central",
          "short_name": "Central",
          "types": [
            "neighborhood",
            "political"
          ]
        },
        {
          "long_name": "Hong Kong Island",
          "short_name": "Hong Kong Island",
          "types": [
            "administrative_area_level_1",
            "political"
          ]
        },
        {
          "long_name": "Hong Kong",
          "short_name": "HK",
          "types": [
            "country",
            "political"
          ]
        }
      ],
      "formatted_address": "Loke Yew Building, 50-52 Queen's Road Central, Central, Hong Kong",
      "geometry": {
        "bounds": {
          "northeast": {
            "lat": 22.2822461,
            "lng": 114.156169
          },
          "southwest": {
            "lat": 22.281985,
            "lng": 114.1558711
          }
        },
        "location": {
          "lat": 22.2821043,
          "lng": 114.1560348
        },
        "location_type": "ROOFTOP",
        "viewport": {
          "northeast": {
            "lat": 22.2834645302915,
            "lng": 114.1573690302915
          },
          "southwest": {
            "lat": 22.2807665697085,
            "lng": 114.1546710697085
          }
        }
      },
      "partial_match": true,
      "place_id": "ChIJYVpitGQABDQRxqQIRjNL-jY",
      "types": [
        "premise"
      ]
    }
  ],
  "geocode_tc": [
    {
      "address_components": [
        {
          "long_name": "\u9678\u4f51\u884c",
          "short_name": "\u9678\u4f51\u884c",
          "types": [
            "premise"
          ]
        },
        {
          "long_name": "50-52",
          "short_name": "50-52",
          "types": [
            "street_number"
          ]
        },
        {
          "long_name": "\u7687\u540e\u5927\u9053\u4e2d",
          "short_name": "\u7687\u540e\u5927\u9053\u4e2d",
          "types": [
            "route"
          ]
        },
        {
          "long_name": "\u4e2d\u74b0",
          "short_name": "\u4e2d\u74b0",
          "types": [
            "neighborhood",
            "political"
          ]
        },
        {
          "long_name": "\u9999\u6e2f\u5cf6",
          "short_name": "\u9999\u6e2f\u5cf6",
          "types": [
            "administrative_area_level_1",
            "political"
          ]
        },
        {
          "long_name": "\u9999\u6e2f",
          "short_name": "HK",
          "types": [
            "country",
            "political"
          ]
        }
      ],
      "formatted_address": "\u9999\u6e2f\u4e2d\u74b0\u7687\u540e\u5927\u9053\u4e2d50-52\u865f\u9678\u4f51\u884c",
      "geometry": {
        "bounds": {
          "northeast": {
            "lat": 22.2822461,
            "lng": 114.156169
          },
          "southwest": {
            "lat": 22.281985,
            "lng": 114.1558711
          }
        },
        "location": {
          "lat": 22.2821043,
          "lng": 114.1560348
        },
        "location_type": "ROOFTOP",
        "viewport": {
          "northeast": {
            "lat": 22.2834645302915,
            "lng": 114.1573690302915
          },
          "southwest": {
            "lat": 22.2807665697085,
            "lng": 114.1546710697085
          }
        }
      },
      "partial_match": true,
      "place_id": "ChIJYVpitGQABDQRxqQIRjNL-jY",
      "types": [
        "premise"
      ]
    }
  ],
  "licno": "3918809101",
  "timestamp": 1564975666,
  "version": "1564966095"
}
