{
  "adr_en": "CAFE 100%, SHOP 123 & 124, G/F, BLOCK 6, PO KAN HOUSE, PO LAM ESTATE, 18 PO LAM ROAD NORTH, TSEUNG KWAN O, SAI KUNG, NEW TERRITORIES",
  "adr_tc": "\u65b0\u754c\u897f\u8ca2\u5c07\u8ecd\u6fb3\u5bf6\u6797\u5317\u8def18\u865f\u5bf6\u6797\u90a8\u5bf6\u52e4\u6a136\u5ea7\u5730\u4e0b 123\u53ca124\u92ea \u767e\u4efd\u767e\u9910\u5ef3",
  "geocode_en": [
    {
      "address_components": [
        {
          "long_name": "124, G/F, BLOCK",
          "short_name": "124, G/F, BLOCK",
          "types": [
            "subpremise"
          ]
        },
        {
          "long_name": "Po Lam Estate Po Kim House",
          "short_name": "Po Lam Estate Po Kim House",
          "types": [
            "premise"
          ]
        },
        {
          "long_name": "18",
          "short_name": "18",
          "types": [
            "street_number"
          ]
        },
        {
          "long_name": "Po Lam Road North",
          "short_name": "Po Lam Rd N",
          "types": [
            "route"
          ]
        },
        {
          "long_name": "Yau Yue Wan",
          "short_name": "Yau Yue Wan",
          "types": [
            "neighborhood",
            "political"
          ]
        },
        {
          "long_name": "New Territories",
          "short_name": "New Territories",
          "types": [
            "administrative_area_level_1",
            "political"
          ]
        },
        {
          "long_name": "Hong Kong",
          "short_name": "HK",
          "types": [
            "country",
            "political"
          ]
        }
      ],
      "formatted_address": "124, G/F, BLOCK, Po Lam Estate Po Kim House, 18 Po Lam Rd N, Yau Yue Wan, Hong Kong",
      "geometry": {
        "bounds": {
          "northeast": {
            "lat": 22.3248001,
            "lng": 114.2569299
          },
          "southwest": {
            "lat": 22.3240369,
            "lng": 114.255995
          }
        },
        "location": {
          "lat": 22.3243972,
          "lng": 114.2564867
        },
        "location_type": "ROOFTOP",
        "viewport": {
          "northeast": {
            "lat": 22.3257674802915,
            "lng": 114.2578114302915
          },
          "southwest": {
            "lat": 22.3230695197085,
            "lng": 114.2551134697085
          }
        }
      },
      "partial_match": true,
      "place_id": "ElMxMjQsIEcvRiwgQkxPQ0ssIFBvIExhbSBFc3RhdGUgUG8gS2ltIEhvdXNlLCAxOCBQbyBMYW0gUmQgTiwgWWF1IFl1ZSBXYW4sIEhvbmcgS29uZyIrGikKFgoUChIJkR4wog4EBDQRPA_LZipzxlISDzEyNCwgRy9GLCBCTE9DSw",
      "types": [
        "subpremise"
      ]
    },
    {
      "address_components": [
        {
          "long_name": "Po Lam Estate Block 2 Po Tai House",
          "short_name": "Po Lam Estate Block 2 Po Tai House",
          "types": [
            "premise"
          ]
        },
        {
          "long_name": "18",
          "short_name": "18",
          "types": [
            "street_number"
          ]
        },
        {
          "long_name": "Po Lam Road North",
          "short_name": "Po Lam Rd N",
          "types": [
            "route"
          ]
        },
        {
          "long_name": "Yau Yue Wan",
          "short_name": "Yau Yue Wan",
          "types": [
            "neighborhood",
            "political"
          ]
        },
        {
          "long_name": "New Territories",
          "short_name": "New Territories",
          "types": [
            "administrative_area_level_1",
            "political"
          ]
        },
        {
          "long_name": "Hong Kong",
          "short_name": "HK",
          "types": [
            "country",
            "political"
          ]
        }
      ],
      "formatted_address": "Po Lam Estate Block 2 Po Tai House, 18 Po Lam Rd N, Yau Yue Wan, Hong Kong",
      "geometry": {
        "bounds": {
          "northeast": {
            "lat": 22.3260819,
            "lng": 114.2539591
          },
          "southwest": {
            "lat": 22.325472,
            "lng": 114.2533252
          }
        },
        "location": {
          "lat": 22.3258021,
          "lng": 114.2536398
        },
        "location_type": "ROOFTOP",
        "viewport": {
          "northeast": {
            "lat": 22.3271259302915,
            "lng": 114.2549911302915
          },
          "southwest": {
            "lat": 22.3244279697085,
            "lng": 114.2522931697085
          }
        }
      },
      "partial_match": true,
      "place_id": "ChIJZ0prAw8EBDQRELfKqxT-wss",
      "types": [
        "premise"
      ]
    }
  ],
  "geocode_tc": [
    {
      "address_components": [
        {
          "long_name": "\u5bf6\u6797\u90a8\u5bf6\u5109\u6a13",
          "short_name": "\u5bf6\u6797\u90a8\u5bf6\u5109\u6a13",
          "types": [
            "premise"
          ]
        },
        {
          "long_name": "18",
          "short_name": "18",
          "types": [
            "street_number"
          ]
        },
        {
          "long_name": "\u5bf6\u7433\u5317\u8def",
          "short_name": "\u5bf6\u7433\u5317\u8def",
          "types": [
            "route"
          ]
        },
        {
          "long_name": "\u9b77\u9b5a\u7063",
          "short_name": "\u9b77\u9b5a\u7063",
          "types": [
            "neighborhood",
            "political"
          ]
        },
        {
          "long_name": "\u65b0\u754c",
          "short_name": "\u65b0\u754c",
          "types": [
            "administrative_area_level_1",
            "political"
          ]
        },
        {
          "long_name": "\u9999\u6e2f",
          "short_name": "HK",
          "types": [
            "country",
            "political"
          ]
        }
      ],
      "formatted_address": "\u9999\u6e2f\u9b77\u9b5a\u7063\u5bf6\u7433\u5317\u8def18\u865f\u5bf6\u6797\u90a8\u5bf6\u5109\u6a13",
      "geometry": {
        "bounds": {
          "northeast": {
            "lat": 22.3248001,
            "lng": 114.2569299
          },
          "southwest": {
            "lat": 22.3240369,
            "lng": 114.255995
          }
        },
        "location": {
          "lat": 22.3243972,
          "lng": 114.2564867
        },
        "location_type": "ROOFTOP",
        "viewport": {
          "northeast": {
            "lat": 22.3257674802915,
            "lng": 114.2578114302915
          },
          "southwest": {
            "lat": 22.3230695197085,
            "lng": 114.2551134697085
          }
        }
      },
      "partial_match": true,
      "place_id": "ChIJkR4wog4EBDQRPA_LZipzxlI",
      "types": [
        "premise"
      ]
    }
  ],
  "licno": "2298803068",
  "timestamp": 1564975666,
  "version": "1564966095"
}
