{
  "adr_en": "PHD, SHOP 204, SECOND FLOOR, LEK YUEN COMMERCIAL COMPLEX, LEK YUEN ESTATE, SHA TIN, NEW TERRITORIES",
  "adr_tc": "\u65b0\u754c\u6c99\u7530\u701d\u6e90\u90a8\u701d\u6e90\u5546\u58342\u6a13204\u865f\u92ea PHD",
  "geocode_en": [
    {
      "address_components": [
        {
          "long_name": "Lek Yuen Street",
          "short_name": "Lek Yuen St",
          "types": [
            "route"
          ]
        },
        {
          "long_name": "Lek Yuen Estate",
          "short_name": "Lek Yuen Estate",
          "types": [
            "neighborhood",
            "political"
          ]
        },
        {
          "long_name": "New Territories",
          "short_name": "New Territories",
          "types": [
            "administrative_area_level_1",
            "political"
          ]
        },
        {
          "long_name": "Hong Kong",
          "short_name": "HK",
          "types": [
            "country",
            "political"
          ]
        }
      ],
      "formatted_address": "Lek Yuen St, Lek Yuen Estate, Hong Kong",
      "geometry": {
        "bounds": {
          "northeast": {
            "lat": 22.3871381,
            "lng": 114.1935386
          },
          "southwest": {
            "lat": 22.3835331,
            "lng": 114.190009
          }
        },
        "location": {
          "lat": 22.3853703,
          "lng": 114.1919698
        },
        "location_type": "GEOMETRIC_CENTER",
        "viewport": {
          "northeast": {
            "lat": 22.3871381,
            "lng": 114.1935386
          },
          "southwest": {
            "lat": 22.3835331,
            "lng": 114.190009
          }
        }
      },
      "partial_match": true,
      "place_id": "ChIJSSWmNk0GBDQRC43bK4fLTbI",
      "types": [
        "route"
      ]
    }
  ],
  "geocode_tc": [
    {
      "address_components": [
        {
          "long_name": "\u9999\u6e2f",
          "short_name": "HK",
          "types": [
            "country",
            "political"
          ]
        }
      ],
      "formatted_address": "\u65b0\u754c \u701d \u6e90 \u90a8 \u701d \u6e90 \u5ee3\u5834 2 \u6a13 204 \u865f \u8216, \u9999\u6e2f",
      "geometry": {
        "location": {
          "lat": 22.3848725,
          "lng": 114.191742
        },
        "location_type": "GEOMETRIC_CENTER",
        "viewport": {
          "northeast": {
            "lat": 22.3862214802915,
            "lng": 114.1930909802915
          },
          "southwest": {
            "lat": 22.3835235197085,
            "lng": 114.1903930197085
          }
        }
      },
      "place_id": "ChIJ0W9PSk0GBDQRE409MDO7IBA",
      "plus_code": {
        "compound_code": "95MR+WM \u9999\u6e2f",
        "global_code": "7PJP95MR+WM"
      },
      "types": [
        "establishment",
        "food",
        "point_of_interest",
        "restaurant"
      ]
    }
  ],
  "licno": "2297802059",
  "timestamp": 1564975666,
  "version": "1564966095"
}
