{
  "adr_en": "\u6b63, SHOP 5 , UG/F, LAI BO GARDEN, 38 CHEUNG WAH STREET, 383 PO ON ROAD, SHAM SHUI PO, KOWLOON",
  "adr_tc": "\u4e5d\u9f8d\u6df1\u6c34\u57d7\u4fdd\u5b89\u9053383\u865f\u660c\u83ef\u885738\u865f\u9e97\u5bf6\u82b1\u5712 \u5730\u4e0b\u9ad8\u5c645\u865f\u92ea \u6b63",
  "geocode_en": [
    {
      "address_components": [
        {
          "long_name": "\u6b63, SHOP",
          "short_name": "\u6b63, SHOP",
          "types": [
            "subpremise"
          ]
        },
        {
          "long_name": "Lai Bo Garden",
          "short_name": "Lai Bo Garden",
          "types": [
            "premise"
          ]
        },
        {
          "long_name": "38",
          "short_name": "38",
          "types": [
            "street_number"
          ]
        },
        {
          "long_name": "Cheung Wah Street",
          "short_name": "Cheung Wah St",
          "types": [
            "route"
          ]
        },
        {
          "long_name": "So Uk",
          "short_name": "So Uk",
          "types": [
            "neighborhood",
            "political"
          ]
        },
        {
          "long_name": "Kowloon",
          "short_name": "Kowloon",
          "types": [
            "administrative_area_level_1",
            "political"
          ]
        },
        {
          "long_name": "Hong Kong",
          "short_name": "HK",
          "types": [
            "country",
            "political"
          ]
        }
      ],
      "formatted_address": "\u6b63, SHOP, Lai Bo Garden, 38 Cheung Wah St, So Uk, Hong Kong",
      "geometry": {
        "bounds": {
          "northeast": {
            "lat": 22.3405661,
            "lng": 114.155219
          },
          "southwest": {
            "lat": 22.3403279,
            "lng": 114.154973
          }
        },
        "location": {
          "lat": 22.3404338,
          "lng": 114.1551291
        },
        "location_type": "ROOFTOP",
        "viewport": {
          "northeast": {
            "lat": 22.3417959802915,
            "lng": 114.1564449802915
          },
          "southwest": {
            "lat": 22.3390980197085,
            "lng": 114.1537470197085
          }
        }
      },
      "partial_match": true,
      "place_id": "EjzmraMsIFNIT1AsIExhaSBCbyBHYXJkZW4sIDM4IENoZXVuZyBXYWggU3QsIFNvIFVrLCBIb25nIEtvbmciJRojChYKFAoSCemx2edRBwQ0EaLk_mvPzDUVEgnmraMsIFNIT1A",
      "types": [
        "subpremise"
      ]
    }
  ],
  "geocode_tc": [
    {
      "address_components": [
        {
          "long_name": "\u865f\u92ea",
          "short_name": "\u865f\u92ea",
          "types": [
            "subpremise"
          ]
        },
        {
          "long_name": "\u9e97\u5bf6\u82b1\u5712",
          "short_name": "\u9e97\u5bf6\u82b1\u5712",
          "types": [
            "premise"
          ]
        },
        {
          "long_name": "38",
          "short_name": "38",
          "types": [
            "street_number"
          ]
        },
        {
          "long_name": "\u660c\u83ef\u8857",
          "short_name": "\u660c\u83ef\u8857",
          "types": [
            "route"
          ]
        },
        {
          "long_name": "\u8607\u5c4b",
          "short_name": "\u8607\u5c4b",
          "types": [
            "neighborhood",
            "political"
          ]
        },
        {
          "long_name": "\u4e5d\u9f8d",
          "short_name": "\u4e5d\u9f8d",
          "types": [
            "administrative_area_level_1",
            "political"
          ]
        },
        {
          "long_name": "\u9999\u6e2f",
          "short_name": "HK",
          "types": [
            "country",
            "political"
          ]
        }
      ],
      "formatted_address": "\u9999\u6e2f\u8607\u5c4b\u660c\u83ef\u885738\u865f\u9e97\u5bf6\u82b1\u5712\u865f\u92ea",
      "geometry": {
        "bounds": {
          "northeast": {
            "lat": 22.3405661,
            "lng": 114.155219
          },
          "southwest": {
            "lat": 22.3403279,
            "lng": 114.154973
          }
        },
        "location": {
          "lat": 22.3404338,
          "lng": 114.1551291
        },
        "location_type": "ROOFTOP",
        "viewport": {
          "northeast": {
            "lat": 22.3417959802915,
            "lng": 114.1564449802915
          },
          "southwest": {
            "lat": 22.3390980197085,
            "lng": 114.1537470197085
          }
        }
      },
      "partial_match": true,
      "place_id": "EjnomZ_pi6osIExhaSBCbyBHYXJkZW4sIDM4IENoZXVuZyBXYWggU3QsIFNvIFVrLCBIb25nIEtvbmciIhogChYKFAoSCemx2edRBwQ0EaLk_mvPzDUVEgbomZ_pi6o",
      "types": [
        "subpremise"
      ]
    }
  ],
  "licno": "3163801950",
  "timestamp": 1564975666,
  "version": "1564966095"
}
