{
  "adr_en": "ROYAL CHINA AQUAGARDEN, DD27, YIM TIN TSAI, TAI TAM ROAD, NORTH DISTRICT, TAI PO, NEW TERRITORIES",
  "adr_tc": "\u65b0\u754c\u5927\u57d4\u5317\u5340\u5927\u6f6d\u9053DD27 \u865f\u9e7d\u7530\u4ed4 \u7687\u671d\u6f01\u82d1",
  "geocode_en": [
    {
      "address_components": [
        {
          "long_name": "Sam Mun Tsai Road",
          "short_name": "Sam Mun Tsai Rd",
          "types": [
            "route"
          ]
        },
        {
          "long_name": "Tai Po",
          "short_name": "Tai Po",
          "types": [
            "neighborhood",
            "political"
          ]
        },
        {
          "long_name": "New Territories",
          "short_name": "New Territories",
          "types": [
            "administrative_area_level_1",
            "political"
          ]
        },
        {
          "long_name": "Hong Kong",
          "short_name": "HK",
          "types": [
            "country",
            "political"
          ]
        }
      ],
      "formatted_address": "Sam Mun Tsai Rd, Tai Po, Hong Kong",
      "geometry": {
        "location": {
          "lat": 22.456627,
          "lng": 114.2140992
        },
        "location_type": "GEOMETRIC_CENTER",
        "viewport": {
          "northeast": {
            "lat": 22.4579759802915,
            "lng": 114.2154481802915
          },
          "southwest": {
            "lat": 22.4552780197085,
            "lng": 114.2127502197085
          }
        }
      },
      "partial_match": true,
      "place_id": "ChIJGfbePuAIBDQRPaNMYHnU21Q",
      "plus_code": {
        "compound_code": "F647+MJ Hong Kong",
        "global_code": "7PJPF647+MJ"
      },
      "types": [
        "establishment",
        "food",
        "point_of_interest",
        "restaurant"
      ]
    },
    {
      "address_components": [
        {
          "long_name": "Yim Tin Tsai",
          "short_name": "Yim Tin Tsai",
          "types": [
            "establishment",
            "natural_feature"
          ]
        },
        {
          "long_name": "Hong Kong",
          "short_name": "HK",
          "types": [
            "country",
            "political"
          ]
        }
      ],
      "formatted_address": "Yim Tin Tsai, Hong Kong",
      "geometry": {
        "location": {
          "lat": 22.3833333,
          "lng": 114.3
        },
        "location_type": "APPROXIMATE",
        "viewport": {
          "northeast": {
            "lat": 22.3936502,
            "lng": 114.3160074
          },
          "southwest": {
            "lat": 22.3730156,
            "lng": 114.2839926
          }
        }
      },
      "partial_match": true,
      "place_id": "ChIJcUgpdW4FBDQRdYTI1fCsDt4",
      "types": [
        "establishment",
        "natural_feature"
      ]
    },
    {
      "address_components": [
        {
          "long_name": "Tai Tam Road",
          "short_name": "Tai Tam Rd",
          "types": [
            "route"
          ]
        },
        {
          "long_name": "Hong Kong Island",
          "short_name": "Hong Kong Island",
          "types": [
            "administrative_area_level_1",
            "political"
          ]
        },
        {
          "long_name": "Hong Kong",
          "short_name": "HK",
          "types": [
            "country",
            "political"
          ]
        }
      ],
      "formatted_address": "Tai Tam Rd, Hong Kong",
      "geometry": {
        "bounds": {
          "northeast": {
            "lat": 22.272007,
            "lng": 114.2360778
          },
          "southwest": {
            "lat": 22.2227339,
            "lng": 114.2123009
          }
        },
        "location": {
          "lat": 22.2482564,
          "lng": 114.2231037
        },
        "location_type": "GEOMETRIC_CENTER",
        "viewport": {
          "northeast": {
            "lat": 22.272007,
            "lng": 114.2360778
          },
          "southwest": {
            "lat": 22.2227339,
            "lng": 114.2123009
          }
        }
      },
      "partial_match": true,
      "place_id": "ChIJ4z8p-O4BBDQRuA11JgJP9Gk",
      "types": [
        "route"
      ]
    }
  ],
  "geocode_tc": [
    {
      "address_components": [
        {
          "long_name": "\u5317\u5340",
          "short_name": "\u5317\u5340",
          "types": [
            "administrative_area_level_2",
            "political"
          ]
        },
        {
          "long_name": "\u65b0\u754c",
          "short_name": "\u65b0\u754c",
          "types": [
            "administrative_area_level_1",
            "political"
          ]
        },
        {
          "long_name": "\u9999\u6e2f",
          "short_name": "HK",
          "types": [
            "country",
            "political"
          ]
        }
      ],
      "formatted_address": "\u9999\u6e2f\u5317\u5340",
      "geometry": {
        "bounds": {
          "northeast": {
            "lat": 22.561969,
            "lng": 114.2277081
          },
          "southwest": {
            "lat": 22.4628761,
            "lng": 114.078589
          }
        },
        "location": {
          "lat": 22.5009081,
          "lng": 114.1558258
        },
        "location_type": "APPROXIMATE",
        "viewport": {
          "northeast": {
            "lat": 22.561969,
            "lng": 114.2277081
          },
          "southwest": {
            "lat": 22.4628761,
            "lng": 114.078589
          }
        }
      },
      "partial_match": true,
      "place_id": "ChIJky0XX9v1AzQR2MQ-BegIC-I",
      "types": [
        "administrative_area_level_2",
        "political"
      ]
    },
    {
      "address_components": [
        {
          "long_name": "\u4e09\u9580\u4ed4\u8def",
          "short_name": "\u4e09\u9580\u4ed4\u8def",
          "types": [
            "route"
          ]
        },
        {
          "long_name": "\u5927\u57d4",
          "short_name": "\u5927\u57d4",
          "types": [
            "neighborhood",
            "political"
          ]
        },
        {
          "long_name": "\u65b0\u754c",
          "short_name": "\u65b0\u754c",
          "types": [
            "administrative_area_level_1",
            "political"
          ]
        },
        {
          "long_name": "\u9999\u6e2f",
          "short_name": "HK",
          "types": [
            "country",
            "political"
          ]
        }
      ],
      "formatted_address": "\u9999\u6e2f\u5927\u57d4\u4e09\u9580\u4ed4\u8def",
      "geometry": {
        "location": {
          "lat": 22.456627,
          "lng": 114.2140992
        },
        "location_type": "GEOMETRIC_CENTER",
        "viewport": {
          "northeast": {
            "lat": 22.4579759802915,
            "lng": 114.2154481802915
          },
          "southwest": {
            "lat": 22.4552780197085,
            "lng": 114.2127502197085
          }
        }
      },
      "partial_match": true,
      "place_id": "ChIJGfbePuAIBDQRPaNMYHnU21Q",
      "plus_code": {
        "compound_code": "F647+MJ \u9999\u6e2f",
        "global_code": "7PJPF647+MJ"
      },
      "types": [
        "establishment",
        "food",
        "point_of_interest",
        "restaurant"
      ]
    },
    {
      "address_components": [
        {
          "long_name": "\u5927\u6f6d\u9053",
          "short_name": "\u5927\u6f6d\u9053",
          "types": [
            "route"
          ]
        },
        {
          "long_name": "\u9999\u6e2f\u5cf6",
          "short_name": "\u9999\u6e2f\u5cf6",
          "types": [
            "administrative_area_level_1",
            "political"
          ]
        },
        {
          "long_name": "\u9999\u6e2f",
          "short_name": "HK",
          "types": [
            "country",
            "political"
          ]
        }
      ],
      "formatted_address": "\u9999\u6e2f\u5927\u6f6d\u9053",
      "geometry": {
        "bounds": {
          "northeast": {
            "lat": 22.272007,
            "lng": 114.2360778
          },
          "southwest": {
            "lat": 22.2227339,
            "lng": 114.2123009
          }
        },
        "location": {
          "lat": 22.2482564,
          "lng": 114.2231037
        },
        "location_type": "GEOMETRIC_CENTER",
        "viewport": {
          "northeast": {
            "lat": 22.272007,
            "lng": 114.2360778
          },
          "southwest": {
            "lat": 22.2227339,
            "lng": 114.2123009
          }
        }
      },
      "partial_match": true,
      "place_id": "ChIJ4z8p-O4BBDQRuA11JgJP9Gk",
      "types": [
        "route"
      ]
    },
    {
      "address_components": [
        {
          "long_name": "\u9e7d\u7530\u4ed4",
          "short_name": "\u9e7d\u7530\u4ed4",
          "types": [
            "establishment",
            "natural_feature"
          ]
        },
        {
          "long_name": "\u9999\u6e2f",
          "short_name": "HK",
          "types": [
            "country",
            "political"
          ]
        }
      ],
      "formatted_address": "\u9999\u6e2f\u9e7d\u7530\u4ed4",
      "geometry": {
        "location": {
          "lat": 22.3833333,
          "lng": 114.3
        },
        "location_type": "APPROXIMATE",
        "viewport": {
          "northeast": {
            "lat": 22.3936502,
            "lng": 114.3160074
          },
          "southwest": {
            "lat": 22.3730156,
            "lng": 114.2839926
          }
        }
      },
      "partial_match": true,
      "place_id": "ChIJcUgpdW4FBDQRdYTI1fCsDt4",
      "types": [
        "establishment",
        "natural_feature"
      ]
    }
  ],
  "licno": "2295001652",
  "timestamp": 1564975666,
  "version": "1564966095"
}
