{
  "adr_en": "Flame Bar, SHOP 2, G/F, THE LEADER COMMERCIAL BUILDING, 54 HILLWOOD ROAD, KOWLOON",
  "adr_tc": "\u4e5d\u9f8d\u5c16\u6c99\u5480\u5c71\u6797\u905354\u865f \u5229\u96c5\u5546\u696d\u5927\u5ec8\u5730\u4e0b2\u865f\u8216 Flame Bar",
  "geocode_en": [
    {
      "address_components": [
        {
          "long_name": "Hillwood Road",
          "short_name": "Hillwood Rd",
          "types": [
            "route"
          ]
        },
        {
          "long_name": "Tsim Sha Tsui",
          "short_name": "Tsim Sha Tsui",
          "types": [
            "neighborhood",
            "political"
          ]
        },
        {
          "long_name": "Hong Kong",
          "short_name": "HK",
          "types": [
            "country",
            "political"
          ]
        }
      ],
      "formatted_address": "Hong Kong, Tsim Sha Tsui, Hillwood Rd, Shop 2 athe Leader Comm Bldg Tsimshatsui \u74b0\u6d77\u5927\u5ec8",
      "geometry": {
        "location": {
          "lat": 22.3021881,
          "lng": 114.1748219
        },
        "location_type": "GEOMETRIC_CENTER",
        "viewport": {
          "northeast": {
            "lat": 22.3035370802915,
            "lng": 114.1761708802915
          },
          "southwest": {
            "lat": 22.3008391197085,
            "lng": 114.1734729197085
          }
        }
      },
      "partial_match": true,
      "place_id": "ChIJ__-vtu4ABDQRT7xobaRRLVg",
      "plus_code": {
        "compound_code": "852F+VW Hong Kong",
        "global_code": "7PJP852F+VW"
      },
      "types": [
        "establishment",
        "food",
        "point_of_interest",
        "restaurant"
      ]
    },
    {
      "address_components": [
        {
          "long_name": "The Leader Commercial Building",
          "short_name": "The Leader Commercial Building",
          "types": [
            "premise"
          ]
        },
        {
          "long_name": "54-56",
          "short_name": "54-56",
          "types": [
            "street_number"
          ]
        },
        {
          "long_name": "Hillwood Road",
          "short_name": "Hillwood Rd",
          "types": [
            "route"
          ]
        },
        {
          "long_name": "Tsim Sha Tsui",
          "short_name": "Tsim Sha Tsui",
          "types": [
            "neighborhood",
            "political"
          ]
        },
        {
          "long_name": "Kowloon",
          "short_name": "Kowloon",
          "types": [
            "administrative_area_level_1",
            "political"
          ]
        },
        {
          "long_name": "Hong Kong",
          "short_name": "HK",
          "types": [
            "country",
            "political"
          ]
        }
      ],
      "formatted_address": "The Leader Commercial Building, 54-56 Hillwood Rd, Tsim Sha Tsui, Hong Kong",
      "geometry": {
        "bounds": {
          "northeast": {
            "lat": 22.302813,
            "lng": 114.1747819
          },
          "southwest": {
            "lat": 22.3026159,
            "lng": 114.174566
          }
        },
        "location": {
          "lat": 22.3027151,
          "lng": 114.1746594
        },
        "location_type": "ROOFTOP",
        "viewport": {
          "northeast": {
            "lat": 22.3040634302915,
            "lng": 114.1760229302915
          },
          "southwest": {
            "lat": 22.3013654697085,
            "lng": 114.1733249697085
          }
        }
      },
      "partial_match": true,
      "place_id": "ChIJN5vsTOkABDQRmopxZXUBgoc",
      "types": [
        "premise"
      ]
    }
  ],
  "geocode_tc": [
    {
      "address_components": [
        {
          "long_name": "\u865f\u8216",
          "short_name": "\u865f\u8216",
          "types": [
            "subpremise"
          ]
        },
        {
          "long_name": "\u5229\u96c5\u5546\u696d\u5927\u5ec8",
          "short_name": "\u5229\u96c5\u5546\u696d\u5927\u5ec8",
          "types": [
            "premise"
          ]
        },
        {
          "long_name": "54-56",
          "short_name": "54-56",
          "types": [
            "street_number"
          ]
        },
        {
          "long_name": "\u5c71\u6797\u9053",
          "short_name": "\u5c71\u6797\u9053",
          "types": [
            "route"
          ]
        },
        {
          "long_name": "\u5c16\u6c99\u5480",
          "short_name": "\u5c16\u6c99\u5480",
          "types": [
            "neighborhood",
            "political"
          ]
        },
        {
          "long_name": "\u4e5d\u9f8d",
          "short_name": "\u4e5d\u9f8d",
          "types": [
            "administrative_area_level_1",
            "political"
          ]
        },
        {
          "long_name": "\u9999\u6e2f",
          "short_name": "HK",
          "types": [
            "country",
            "political"
          ]
        }
      ],
      "formatted_address": "\u9999\u6e2f\u5c16\u6c99\u5480\u5c71\u6797\u905354-56\u865f\u5229\u96c5\u5546\u696d\u5927\u5ec8\u865f\u8216",
      "geometry": {
        "bounds": {
          "northeast": {
            "lat": 22.302813,
            "lng": 114.1747819
          },
          "southwest": {
            "lat": 22.3026159,
            "lng": 114.174566
          }
        },
        "location": {
          "lat": 22.3027151,
          "lng": 114.1746594
        },
        "location_type": "ROOFTOP",
        "viewport": {
          "northeast": {
            "lat": 22.3040634302915,
            "lng": 114.1760229302915
          },
          "southwest": {
            "lat": 22.3013654697085,
            "lng": 114.1733249697085
          }
        }
      },
      "partial_match": true,
      "place_id": "ElPomZ_oiJYsIFRoZSBMZWFkZXIgQ29tbWVyY2lhbCBCdWlsZGluZywgNTQtNTYgSGlsbHdvb2QgUmQsIFRzaW0gU2hhIFRzdWksIEhvbmcgS29uZyIiGiAKFgoUChIJN5vsTOkABDQRmopxZXUBgocSBuiZn-iIlg",
      "types": [
        "subpremise"
      ]
    },
    {
      "address_components": [
        {
          "long_name": "\u5c71\u6797\u9053",
          "short_name": "\u5c71\u6797\u9053",
          "types": [
            "route"
          ]
        },
        {
          "long_name": "\u5c16\u6c99\u5480",
          "short_name": "\u5c16\u6c99\u5480",
          "types": [
            "neighborhood",
            "political"
          ]
        },
        {
          "long_name": "\u9999\u6e2f",
          "short_name": "HK",
          "types": [
            "country",
            "political"
          ]
        }
      ],
      "formatted_address": "\u9999\u6e2f\u5c16\u6c99\u5480\u5c71\u6797\u9053Shop 2 athe Leader Comm Bldg Tsimshatsui \u74b0\u6d77\u5927\u5ec8",
      "geometry": {
        "location": {
          "lat": 22.3021881,
          "lng": 114.1748219
        },
        "location_type": "GEOMETRIC_CENTER",
        "viewport": {
          "northeast": {
            "lat": 22.3035370802915,
            "lng": 114.1761708802915
          },
          "southwest": {
            "lat": 22.3008391197085,
            "lng": 114.1734729197085
          }
        }
      },
      "partial_match": true,
      "place_id": "ChIJ__-vtu4ABDQRT7xobaRRLVg",
      "plus_code": {
        "compound_code": "852F+VW \u9999\u6e2f",
        "global_code": "7PJP852F+VW"
      },
      "types": [
        "establishment",
        "food",
        "point_of_interest",
        "restaurant"
      ]
    }
  ],
  "licno": "2261802438",
  "timestamp": 1564968756,
  "version": "1564966095"
}
