{
  "adr_en": "SHAMROCK HOTEL, G/F (PTN) M/F & 10/F, 223 NATHAN ROAD, JORDAN, KOWLOON",
  "adr_tc": "\u4e5d\u9f8d\u5f4c\u6566\u9053223\u865f\u5730\u4e0b(\u90e8\u4efd) M\u6a13\u53ca10\u6a13\u90e8\u4efd \u65b0\u6a02\u9152\u5e97",
  "geocode_en": [
    {
      "address_components": [
        {
          "long_name": "223",
          "short_name": "223",
          "types": [
            "street_number"
          ]
        },
        {
          "long_name": "Nathan Road",
          "short_name": "Nathan Rd",
          "types": [
            "route"
          ]
        },
        {
          "long_name": "Jordan",
          "short_name": "Jordan",
          "types": [
            "neighborhood",
            "political"
          ]
        },
        {
          "long_name": "Kowloon",
          "short_name": "Kowloon",
          "types": [
            "administrative_area_level_1",
            "political"
          ]
        },
        {
          "long_name": "Hong Kong",
          "short_name": "HK",
          "types": [
            "country",
            "political"
          ]
        }
      ],
      "formatted_address": "223 Nathan Rd, Jordan, Hong Kong",
      "geometry": {
        "location": {
          "lat": 22.3042215,
          "lng": 114.1715614
        },
        "location_type": "ROOFTOP",
        "viewport": {
          "northeast": {
            "lat": 22.3055704802915,
            "lng": 114.1729103802915
          },
          "southwest": {
            "lat": 22.3028725197085,
            "lng": 114.1702124197085
          }
        }
      },
      "partial_match": true,
      "place_id": "ChIJsw09l-sABDQRa8Tg5WPdBqA",
      "plus_code": {
        "compound_code": "853C+MJ Hong Kong",
        "global_code": "7PJP853C+MJ"
      },
      "types": [
        "establishment",
        "lodging",
        "point_of_interest"
      ]
    },
    {
      "address_components": [
        {
          "long_name": "M",
          "short_name": "M",
          "types": [
            "subpremise"
          ]
        },
        {
          "long_name": "223",
          "short_name": "223",
          "types": [
            "street_number"
          ]
        },
        {
          "long_name": "Nathan Road",
          "short_name": "Nathan Rd",
          "types": [
            "route"
          ]
        },
        {
          "long_name": "Yau Ma Tei",
          "short_name": "Yau Ma Tei",
          "types": [
            "neighborhood",
            "political"
          ]
        },
        {
          "long_name": "Kowloon",
          "short_name": "Kowloon",
          "types": [
            "administrative_area_level_1",
            "political"
          ]
        },
        {
          "long_name": "Hong Kong",
          "short_name": "HK",
          "types": [
            "country",
            "political"
          ]
        }
      ],
      "formatted_address": "M, 223 Nathan Rd, Yau Ma Tei, Hong Kong",
      "geometry": {
        "bounds": {
          "northeast": {
            "lat": 22.304321,
            "lng": 114.171601
          },
          "southwest": {
            "lat": 22.3039761,
            "lng": 114.1713311
          }
        },
        "location": {
          "lat": 22.3041102,
          "lng": 114.1714779
        },
        "location_type": "ROOFTOP",
        "viewport": {
          "northeast": {
            "lat": 22.3054975302915,
            "lng": 114.1728150302915
          },
          "southwest": {
            "lat": 22.3027995697085,
            "lng": 114.1701170697085
          }
        }
      },
      "partial_match": true,
      "place_id": "EidNLCAyMjMgTmF0aGFuIFJkLCBZYXUgTWEgVGVpLCBIb25nIEtvbmciHRobChYKFAoSCWvirJDrAAQ0EZSml-76YIh8EgFN",
      "types": [
        "subpremise"
      ]
    },
    {
      "address_components": [
        {
          "long_name": "F",
          "short_name": "F",
          "types": [
            "subpremise"
          ]
        },
        {
          "long_name": "223",
          "short_name": "223",
          "types": [
            "street_number"
          ]
        },
        {
          "long_name": "Nathan Road",
          "short_name": "Nathan Rd",
          "types": [
            "route"
          ]
        },
        {
          "long_name": "Yau Ma Tei",
          "short_name": "Yau Ma Tei",
          "types": [
            "neighborhood",
            "political"
          ]
        },
        {
          "long_name": "Kowloon",
          "short_name": "Kowloon",
          "types": [
            "administrative_area_level_1",
            "political"
          ]
        },
        {
          "long_name": "Hong Kong",
          "short_name": "HK",
          "types": [
            "country",
            "political"
          ]
        }
      ],
      "formatted_address": "F, 223 Nathan Rd, Yau Ma Tei, Hong Kong",
      "geometry": {
        "bounds": {
          "northeast": {
            "lat": 22.304321,
            "lng": 114.171601
          },
          "southwest": {
            "lat": 22.3039761,
            "lng": 114.1713311
          }
        },
        "location": {
          "lat": 22.3041102,
          "lng": 114.1714779
        },
        "location_type": "ROOFTOP",
        "viewport": {
          "northeast": {
            "lat": 22.3054975302915,
            "lng": 114.1728150302915
          },
          "southwest": {
            "lat": 22.3027995697085,
            "lng": 114.1701170697085
          }
        }
      },
      "partial_match": true,
      "place_id": "EidGLCAyMjMgTmF0aGFuIFJkLCBZYXUgTWEgVGVpLCBIb25nIEtvbmciHRobChYKFAoSCWvirJDrAAQ0EZSml-76YIh8EgFG",
      "types": [
        "subpremise"
      ]
    },
    {
      "address_components": [
        {
          "long_name": "10",
          "short_name": "10",
          "types": [
            "subpremise"
          ]
        },
        {
          "long_name": "223",
          "short_name": "223",
          "types": [
            "street_number"
          ]
        },
        {
          "long_name": "Nathan Road",
          "short_name": "Nathan Rd",
          "types": [
            "route"
          ]
        },
        {
          "long_name": "Yau Ma Tei",
          "short_name": "Yau Ma Tei",
          "types": [
            "neighborhood",
            "political"
          ]
        },
        {
          "long_name": "Kowloon",
          "short_name": "Kowloon",
          "types": [
            "administrative_area_level_1",
            "political"
          ]
        },
        {
          "long_name": "Hong Kong",
          "short_name": "HK",
          "types": [
            "country",
            "political"
          ]
        }
      ],
      "formatted_address": "10, 223 Nathan Rd, Yau Ma Tei, Hong Kong",
      "geometry": {
        "bounds": {
          "northeast": {
            "lat": 22.304321,
            "lng": 114.171601
          },
          "southwest": {
            "lat": 22.3039761,
            "lng": 114.1713311
          }
        },
        "location": {
          "lat": 22.3041102,
          "lng": 114.1714779
        },
        "location_type": "ROOFTOP",
        "viewport": {
          "northeast": {
            "lat": 22.3054975302915,
            "lng": 114.1728150302915
          },
          "southwest": {
            "lat": 22.3027995697085,
            "lng": 114.1701170697085
          }
        }
      },
      "partial_match": true,
      "place_id": "EigxMCwgMjIzIE5hdGhhbiBSZCwgWWF1IE1hIFRlaSwgSG9uZyBLb25nIh4aHAoWChQKEglr4qyQ6wAENBGUppfu-mCIfBICMTA",
      "types": [
        "subpremise"
      ]
    },
    {
      "address_components": [
        {
          "long_name": "F",
          "short_name": "F",
          "types": [
            "subpremise"
          ]
        },
        {
          "long_name": "223",
          "short_name": "223",
          "types": [
            "street_number"
          ]
        },
        {
          "long_name": "Nathan Road",
          "short_name": "Nathan Rd",
          "types": [
            "route"
          ]
        },
        {
          "long_name": "Yau Ma Tei",
          "short_name": "Yau Ma Tei",
          "types": [
            "neighborhood",
            "political"
          ]
        },
        {
          "long_name": "Kowloon",
          "short_name": "Kowloon",
          "types": [
            "administrative_area_level_1",
            "political"
          ]
        },
        {
          "long_name": "Hong Kong",
          "short_name": "HK",
          "types": [
            "country",
            "political"
          ]
        }
      ],
      "formatted_address": "F, 223 Nathan Rd, Yau Ma Tei, Hong Kong",
      "geometry": {
        "bounds": {
          "northeast": {
            "lat": 22.304321,
            "lng": 114.171601
          },
          "southwest": {
            "lat": 22.3039761,
            "lng": 114.1713311
          }
        },
        "location": {
          "lat": 22.3041102,
          "lng": 114.1714779
        },
        "location_type": "ROOFTOP",
        "viewport": {
          "northeast": {
            "lat": 22.3054975302915,
            "lng": 114.1728150302915
          },
          "southwest": {
            "lat": 22.3027995697085,
            "lng": 114.1701170697085
          }
        }
      },
      "partial_match": true,
      "place_id": "EidGLCAyMjMgTmF0aGFuIFJkLCBZYXUgTWEgVGVpLCBIb25nIEtvbmciHRobChYKFAoSCWvirJDrAAQ0EZSml-76YIh8EgFG",
      "types": [
        "subpremise"
      ]
    }
  ],
  "geocode_tc": [
    {
      "address_components": [
        {
          "long_name": "\u65b0\u6a02\u9152\u5e97\u95a3\u6a13",
          "short_name": "\u65b0\u6a02\u9152\u5e97\u95a3\u6a13",
          "types": [
            "establishment",
            "point_of_interest"
          ]
        },
        {
          "long_name": "223\u865f",
          "short_name": "223\u865f",
          "types": [
            "street_number"
          ]
        },
        {
          "long_name": "\u5f4c\u6566\u9053",
          "short_name": "\u5f4c\u6566\u9053",
          "types": [
            "route"
          ]
        },
        {
          "long_name": "\u4f50\u6566",
          "short_name": "\u4f50\u6566",
          "types": [
            "neighborhood",
            "political"
          ]
        },
        {
          "long_name": "\u4e5d\u9f8d",
          "short_name": "\u4e5d\u9f8d",
          "types": [
            "administrative_area_level_1",
            "political"
          ]
        },
        {
          "long_name": "\u9999\u6e2f",
          "short_name": "HK",
          "types": [
            "country",
            "political"
          ]
        }
      ],
      "formatted_address": "\u9999\u6e2f\u4f50\u6566\u5f4c\u6566\u9053223\u865f\u65b0\u6a02\u9152\u5e97\u95a3\u6a13",
      "geometry": {
        "location": {
          "lat": 22.304213,
          "lng": 114.17148
        },
        "location_type": "ROOFTOP",
        "viewport": {
          "northeast": {
            "lat": 22.3055619802915,
            "lng": 114.1728289802915
          },
          "southwest": {
            "lat": 22.3028640197085,
            "lng": 114.1701310197085
          }
        }
      },
      "place_id": "ChIJsclEl-sABDQRfYl4E4AL4Ss",
      "plus_code": {
        "compound_code": "853C+MH \u9999\u6e2f",
        "global_code": "7PJP853C+MH"
      },
      "types": [
        "establishment",
        "food",
        "point_of_interest",
        "restaurant"
      ]
    }
  ],
  "licno": "2261049963",
  "timestamp": 1564968756,
  "version": "1564966095"
}
