{
  "adr_en": "Delicious Sweet Cart Noodle, SHOP G3-G5, G/F, TAK TAI BUILDING, 23 TAI HA STREET, KWAI CHUNG, NEW TERRITORIES",
  "adr_tc": "\u65b0\u754c\u8475\u6d8c\u5927\u5ec8\u885723\u865f\u5fb7\u6cf0\u5927\u5ec8\u5730\u4e0bG3-G5\u865f\u8216 \u7f8e\u5473\u8eca\u4ed4\u9eb5",
  "geocode_en": [
    {
      "address_components": [
        {
          "long_name": "SHOP G3",
          "short_name": "SHOP G3",
          "types": [
            "subpremise"
          ]
        },
        {
          "long_name": "Tak Tai Building",
          "short_name": "Tak Tai Building",
          "types": [
            "premise"
          ]
        },
        {
          "long_name": "19",
          "short_name": "19",
          "types": [
            "street_number"
          ]
        },
        {
          "long_name": "Tai Ha Street",
          "short_name": "Tai Ha St",
          "types": [
            "route"
          ]
        },
        {
          "long_name": "Kwai Chung",
          "short_name": "Kwai Chung",
          "types": [
            "neighborhood",
            "political"
          ]
        },
        {
          "long_name": "New Territories",
          "short_name": "New Territories",
          "types": [
            "administrative_area_level_1",
            "political"
          ]
        },
        {
          "long_name": "Hong Kong",
          "short_name": "HK",
          "types": [
            "country",
            "political"
          ]
        }
      ],
      "formatted_address": "SHOP G3, Tak Tai Building, 19 Tai Ha St, Kwai Chung, Hong Kong",
      "geometry": {
        "bounds": {
          "northeast": {
            "lat": 22.369272,
            "lng": 114.1233201
          },
          "southwest": {
            "lat": 22.368867,
            "lng": 114.122885
          }
        },
        "location": {
          "lat": 22.3690331,
          "lng": 114.1230799
        },
        "location_type": "ROOFTOP",
        "viewport": {
          "northeast": {
            "lat": 22.3704184802915,
            "lng": 114.1244515302915
          },
          "southwest": {
            "lat": 22.3677205197085,
            "lng": 114.1217535697085
          }
        }
      },
      "partial_match": true,
      "place_id": "Ej5TSE9QIEczLCBUYWsgVGFpIEJ1aWxkaW5nLCAxOSBUYWkgSGEgU3QsIEt3YWkgQ2h1bmcsIEhvbmcgS29uZyIjGiEKFgoUChIJtR2iAJP4AzQRwCVP-zkfS5sSB1NIT1AgRzM",
      "types": [
        "subpremise"
      ]
    }
  ],
  "geocode_tc": [
    {
      "address_components": [
        {
          "long_name": "\u5730\u4e0bG3-G5\u865f",
          "short_name": "\u5730\u4e0bG3-G5\u865f",
          "types": [
            "subpremise"
          ]
        },
        {
          "long_name": "\u5fb7\u6cf0\u5927\u5ec8",
          "short_name": "\u5fb7\u6cf0\u5927\u5ec8",
          "types": [
            "premise"
          ]
        },
        {
          "long_name": "19",
          "short_name": "19",
          "types": [
            "street_number"
          ]
        },
        {
          "long_name": "\u5927\u5ec8\u8857",
          "short_name": "\u5927\u5ec8\u8857",
          "types": [
            "route"
          ]
        },
        {
          "long_name": "\u8475\u6d8c",
          "short_name": "\u8475\u6d8c",
          "types": [
            "neighborhood",
            "political"
          ]
        },
        {
          "long_name": "\u65b0\u754c",
          "short_name": "\u65b0\u754c",
          "types": [
            "administrative_area_level_1",
            "political"
          ]
        },
        {
          "long_name": "\u9999\u6e2f",
          "short_name": "HK",
          "types": [
            "country",
            "political"
          ]
        }
      ],
      "formatted_address": "\u9999\u6e2f\u8475\u6d8c\u5927\u5ec8\u885719\u865f\u5fb7\u6cf0\u5927\u5ec8\u5730\u4e0bG3-G5\u865f",
      "geometry": {
        "bounds": {
          "northeast": {
            "lat": 22.369272,
            "lng": 114.1233201
          },
          "southwest": {
            "lat": 22.368867,
            "lng": 114.122885
          }
        },
        "location": {
          "lat": 22.3690331,
          "lng": 114.1230799
        },
        "location_type": "ROOFTOP",
        "viewport": {
          "northeast": {
            "lat": 22.3704184802915,
            "lng": 114.1244515302915
          },
          "southwest": {
            "lat": 22.3677205197085,
            "lng": 114.1217535697085
          }
        }
      },
      "partial_match": true,
      "place_id": "EkXlnLDkuItHMy1HNeiZnywgVGFrIFRhaSBCdWlsZGluZywgMTkgVGFpIEhhIFN0LCBLd2FpIENodW5nLCBIb25nIEtvbmciKhooChYKFAoSCbUdogCT-AM0EcAlT_s5H0ubEg7lnLDkuItHMy1HNeiZnw",
      "types": [
        "subpremise"
      ]
    }
  ],
  "licno": "3191801423",
  "timestamp": 1564975666,
  "version": "1564966095"
}
