{
  "adr_en": "Gourmet Kitchen Restaurant, G/F, AND OPEN SPACE IN FRONT OF NO. 64A, LUNG MEI TSUEN, DD 28, LOT 888, TAI MEI TUK, TAI PO, NEW TERRITORIES",
  "adr_tc": "\u65b0\u754c\u5927\u57d4\u5927\u7f8e\u7763\u7b2c28\u7d04\u7b2c888\u5730\u6bb5\u9f8d\u5c3e\u675164\u865fA\u5730\u4e0b\u53ca\u8216\u524d \u9762\u4e4b\u7a7a\u5730 Gourmet Kitchen Restaurant",
  "geocode_en": [
    {
      "address_components": [
        {
          "long_name": "Lung Mei",
          "short_name": "Lung Mei",
          "types": [
            "establishment",
            "point_of_interest",
            "transit_station"
          ]
        },
        {
          "long_name": "Tai Mei Tuk Tsuen",
          "short_name": "Tai Mei Tuk Tsuen",
          "types": [
            "neighborhood",
            "political"
          ]
        },
        {
          "long_name": "New Territories",
          "short_name": "New Territories",
          "types": [
            "administrative_area_level_1",
            "political"
          ]
        },
        {
          "long_name": "Hong Kong",
          "short_name": "HK",
          "types": [
            "country",
            "political"
          ]
        }
      ],
      "formatted_address": "Lung Mei, Tai Mei Tuk Tsuen, Hong Kong",
      "geometry": {
        "location": {
          "lat": 22.472497,
          "lng": 114.231843
        },
        "location_type": "GEOMETRIC_CENTER",
        "viewport": {
          "northeast": {
            "lat": 22.47384598029151,
            "lng": 114.2331919802915
          },
          "southwest": {
            "lat": 22.4711480197085,
            "lng": 114.2304940197085
          }
        }
      },
      "partial_match": true,
      "place_id": "ChIJQYudtjYJBDQRYUZv4yIIKK4",
      "plus_code": {
        "compound_code": "F6CJ+XP Hong Kong",
        "global_code": "7PJPF6CJ+XP"
      },
      "types": [
        "establishment",
        "point_of_interest",
        "transit_station"
      ]
    }
  ],
  "geocode_tc": [
    {
      "address_components": [
        {
          "long_name": "\u5927\u5c3e\u7be4\u6751",
          "short_name": "\u5927\u5c3e\u7be4\u6751",
          "types": [
            "neighborhood",
            "political"
          ]
        },
        {
          "long_name": "\u65b0\u754c",
          "short_name": "\u65b0\u754c",
          "types": [
            "administrative_area_level_1",
            "political"
          ]
        },
        {
          "long_name": "\u9999\u6e2f",
          "short_name": "HK",
          "types": [
            "country",
            "political"
          ]
        }
      ],
      "formatted_address": "\u9999\u6e2f\u5927\u5c3e\u7be4\u6751",
      "geometry": {
        "bounds": {
          "northeast": {
            "lat": 22.4792788,
            "lng": 114.2404658
          },
          "southwest": {
            "lat": 22.467597,
            "lng": 114.2308793
          }
        },
        "location": {
          "lat": 22.4728367,
          "lng": 114.232961
        },
        "location_type": "APPROXIMATE",
        "viewport": {
          "northeast": {
            "lat": 22.4792788,
            "lng": 114.2404658
          },
          "southwest": {
            "lat": 22.467597,
            "lng": 114.2308793
          }
        }
      },
      "partial_match": true,
      "place_id": "ChIJe9sINjQJBDQRwr6oKiZ6scQ",
      "types": [
        "neighborhood",
        "political"
      ]
    },
    {
      "address_components": [
        {
          "long_name": "\u9f8d\u5c3e\u6751",
          "short_name": "\u9f8d\u5c3e\u6751",
          "types": [
            "neighborhood",
            "political"
          ]
        },
        {
          "long_name": "\u65b0\u754c",
          "short_name": "\u65b0\u754c",
          "types": [
            "administrative_area_level_1",
            "political"
          ]
        },
        {
          "long_name": "\u9999\u6e2f",
          "short_name": "HK",
          "types": [
            "country",
            "political"
          ]
        }
      ],
      "formatted_address": "\u9999\u6e2f\u9f8d\u5c3e\u6751",
      "geometry": {
        "location": {
          "lat": 22.47291,
          "lng": 114.228474
        },
        "location_type": "APPROXIMATE",
        "viewport": {
          "northeast": {
            "lat": 22.4832203,
            "lng": 114.2444814
          },
          "southwest": {
            "lat": 22.462599,
            "lng": 114.2124666
          }
        }
      },
      "partial_match": true,
      "place_id": "ChIJj1c0SjcJBDQRftLG1dhkFJI",
      "types": [
        "neighborhood",
        "political"
      ]
    }
  ],
  "licno": "2295001935",
  "timestamp": 1564975666,
  "version": "1564966095"
}
