{
  "adr_en": "Fairwood Fast Food, SHOP NO. 111, 1/F, THE LANE, HANG HAU, TSEUNG KWAN O, SAI KUNG, NEW TERRITORIES",
  "adr_tc": "\u65b0\u754c\u897f\u8ca2\u5c07\u8ecd\u6fb3\u5751\u53e3\u9023\u7406\u88571\u6a13111\u865f\u92ea \u5927\u5feb\u6d3b\u5feb\u9910",
  "geocode_en": [
    {
      "address_components": [
        {
          "long_name": "111",
          "short_name": "111",
          "types": [
            "street_number"
          ]
        },
        {
          "long_name": "1",
          "short_name": "1",
          "types": [
            "route"
          ]
        },
        {
          "long_name": "Kadoorie Hill",
          "short_name": "Kadoorie Hill",
          "types": [
            "neighborhood",
            "political"
          ]
        },
        {
          "long_name": "Kowloon",
          "short_name": "Kowloon",
          "types": [
            "administrative_area_level_1",
            "political"
          ]
        },
        {
          "long_name": "Hong Kong",
          "short_name": "HK",
          "types": [
            "country",
            "political"
          ]
        }
      ],
      "formatted_address": "111 1, Kadoorie Hill, Hong Kong",
      "geometry": {
        "location": {
          "lat": 22.3243214,
          "lng": 114.1783504
        },
        "location_type": "RANGE_INTERPOLATED",
        "viewport": {
          "northeast": {
            "lat": 22.3256703802915,
            "lng": 114.1796993802915
          },
          "southwest": {
            "lat": 22.3229724197085,
            "lng": 114.1770014197085
          }
        }
      },
      "partial_match": true,
      "place_id": "EhAxMTEgMSwgSG9uZyBLb25nIhoSGAoUChIJWz_b4c0ABDQRUvn0b2CB2RcQbw",
      "types": [
        "street_address"
      ]
    },
    {
      "address_components": [
        {
          "long_name": "Hang Hau",
          "short_name": "Hang Hau",
          "types": [
            "neighborhood",
            "political"
          ]
        },
        {
          "long_name": "New Territories",
          "short_name": "New Territories",
          "types": [
            "administrative_area_level_1",
            "political"
          ]
        },
        {
          "long_name": "Hong Kong",
          "short_name": "HK",
          "types": [
            "country",
            "political"
          ]
        }
      ],
      "formatted_address": "Hang Hau, Hong Kong",
      "geometry": {
        "bounds": {
          "northeast": {
            "lat": 22.3241102,
            "lng": 114.2719157
          },
          "southwest": {
            "lat": 22.3086926,
            "lng": 114.2590785
          }
        },
        "location": {
          "lat": 22.3172623,
          "lng": 114.2672828
        },
        "location_type": "APPROXIMATE",
        "viewport": {
          "northeast": {
            "lat": 22.3241102,
            "lng": 114.2719157
          },
          "southwest": {
            "lat": 22.3086926,
            "lng": 114.2590785
          }
        }
      },
      "partial_match": true,
      "place_id": "ChIJfwRKeHUEBDQRSr3TiFu1E_E",
      "types": [
        "neighborhood",
        "political"
      ]
    }
  ],
  "geocode_tc": [
    {
      "address_components": [
        {
          "long_name": "\u9999\u6e2f",
          "short_name": "HK",
          "types": [
            "country",
            "political"
          ]
        }
      ],
      "formatted_address": "\u9999\u6e2f\u5c07\u8ecd\u6fb3\u5751\u53e3\u57f9\u6210\u8def\u9023\u7406\u8857",
      "geometry": {
        "location": {
          "lat": 22.3158812,
          "lng": 114.2647081
        },
        "location_type": "GEOMETRIC_CENTER",
        "viewport": {
          "northeast": {
            "lat": 22.3172301802915,
            "lng": 114.2660570802915
          },
          "southwest": {
            "lat": 22.3145322197085,
            "lng": 114.2633591197085
          }
        }
      },
      "place_id": "ChIJB80ofIoDBDQRZ8JKtlwTnqg",
      "plus_code": {
        "compound_code": "8787+9V \u9999\u6e2f",
        "global_code": "7PJP8787+9V"
      },
      "types": [
        "establishment",
        "food",
        "point_of_interest",
        "restaurant"
      ]
    }
  ],
  "licno": "2298801576",
  "timestamp": 1564975666,
  "version": "1564966095"
}
