{
  "adr_en": "\u6709\u904b\u71d2\u5473\u98ef\u5e97, G/F., SHOP F6, CHUNG HING MANSION, 981F KING'S ROAD, HONG KONG",
  "adr_tc": "\u9999\u6e2f\u82f1\u7687\u9053981F\u865f\u4e2d\u8208\u5927\u5ec8\u5730\u4e0bF6\u92ea \u6709\u904b\u71d2\u5473\u98ef\u5e97",
  "geocode_en": [
    {
      "address_components": [
        {
          "long_name": "Hong Kong",
          "short_name": "HK",
          "types": [
            "country",
            "political"
          ]
        }
      ],
      "formatted_address": "Hong Kong, \u9c02\u9b5a\u6d8c\u82f1\u7687\u9053985\u865f\u5730\u4e0b",
      "geometry": {
        "location": {
          "lat": 22.2864778,
          "lng": 114.2108698
        },
        "location_type": "GEOMETRIC_CENTER",
        "viewport": {
          "northeast": {
            "lat": 22.2878267802915,
            "lng": 114.2122187802915
          },
          "southwest": {
            "lat": 22.2851288197085,
            "lng": 114.2095208197085
          }
        }
      },
      "partial_match": true,
      "place_id": "ChIJS2-JcwwBBDQRtdbiqDjvWto",
      "plus_code": {
        "compound_code": "76P6+H8 Hong Kong",
        "global_code": "7PJP76P6+H8"
      },
      "types": [
        "establishment",
        "food",
        "point_of_interest",
        "restaurant"
      ]
    },
    {
      "address_components": [
        {
          "long_name": "Chung Hing Mansion",
          "short_name": "Chung Hing Mansion",
          "types": [
            "premise"
          ]
        },
        {
          "long_name": "981A-981F",
          "short_name": "981A-981F",
          "types": [
            "street_number"
          ]
        },
        {
          "long_name": "King's Road",
          "short_name": "King's Rd",
          "types": [
            "route"
          ]
        },
        {
          "long_name": "Quarry Bay",
          "short_name": "Quarry Bay",
          "types": [
            "neighborhood",
            "political"
          ]
        },
        {
          "long_name": "Hong Kong Island",
          "short_name": "Hong Kong Island",
          "types": [
            "administrative_area_level_1",
            "political"
          ]
        },
        {
          "long_name": "Hong Kong",
          "short_name": "HK",
          "types": [
            "country",
            "political"
          ]
        }
      ],
      "formatted_address": "Chung Hing Mansion, 981A-981F King's Rd, Quarry Bay, Hong Kong",
      "geometry": {
        "bounds": {
          "northeast": {
            "lat": 22.2867317,
            "lng": 114.2112313
          },
          "southwest": {
            "lat": 22.286437,
            "lng": 114.2107465
          }
        },
        "location": {
          "lat": 22.2865621,
          "lng": 114.2109912
        },
        "location_type": "ROOFTOP",
        "viewport": {
          "northeast": {
            "lat": 22.2879333302915,
            "lng": 114.2123378802915
          },
          "southwest": {
            "lat": 22.2852353697085,
            "lng": 114.2096399197085
          }
        }
      },
      "partial_match": true,
      "place_id": "ChIJ4zz-bAwBBDQRjL6KBEhj4g8",
      "types": [
        "premise"
      ]
    }
  ],
  "geocode_tc": [
    {
      "address_components": [
        {
          "long_name": "\u9999\u6e2f",
          "short_name": "HK",
          "types": [
            "country",
            "political"
          ]
        }
      ],
      "formatted_address": "\u9999\u6e2f\u9c02\u9b5a\u6d8c\u82f1\u7687\u9053985\u865f\u5730\u4e0b",
      "geometry": {
        "location": {
          "lat": 22.2864778,
          "lng": 114.2108698
        },
        "location_type": "GEOMETRIC_CENTER",
        "viewport": {
          "northeast": {
            "lat": 22.2878267802915,
            "lng": 114.2122187802915
          },
          "southwest": {
            "lat": 22.2851288197085,
            "lng": 114.2095208197085
          }
        }
      },
      "place_id": "ChIJS2-JcwwBBDQRtdbiqDjvWto",
      "plus_code": {
        "compound_code": "76P6+H8 \u9999\u6e2f",
        "global_code": "7PJP76P6+H8"
      },
      "types": [
        "establishment",
        "food",
        "point_of_interest",
        "restaurant"
      ]
    }
  ],
  "licno": "2211801272",
  "timestamp": 1564966180,
  "version": "1564966095"
}
