{
  "adr_en": "\u805a, 8/F, THE WAVE BLDG, 184 NATHAN RD, KOWLOON",
  "adr_tc": "\u4e5d\u9f8d\u5f4c\u6566\u9053184\u865fTHE WAVE BUILDING 8\u5b57\u6a13 \u805a",
  "geocode_en": [
    {
      "address_components": [
        {
          "long_name": "4",
          "short_name": "4",
          "types": [
            "street_number"
          ]
        },
        {
          "long_name": "Hing Yip Street",
          "short_name": "Hing Yip St",
          "types": [
            "route"
          ]
        },
        {
          "long_name": "Kwun Tong",
          "short_name": "Kwun Tong",
          "types": [
            "neighborhood",
            "political"
          ]
        },
        {
          "long_name": "Kowloon",
          "short_name": "Kowloon",
          "types": [
            "administrative_area_level_1",
            "political"
          ]
        },
        {
          "long_name": "Hong Kong",
          "short_name": "HK",
          "types": [
            "country",
            "political"
          ]
        }
      ],
      "formatted_address": "The Wave, 4 Hing Yip St, Kwun Tong, Hong Kong",
      "geometry": {
        "location": {
          "lat": 22.30964,
          "lng": 114.2244856
        },
        "location_type": "ROOFTOP",
        "viewport": {
          "northeast": {
            "lat": 22.3109889802915,
            "lng": 114.2258345802915
          },
          "southwest": {
            "lat": 22.30829101970849,
            "lng": 114.2231366197085
          }
        }
      },
      "partial_match": true,
      "place_id": "ChIJ4d8-CUUBBDQRuIBnRuR5oH0",
      "plus_code": {
        "compound_code": "865F+VQ Kwun Tong, Hong Kong",
        "global_code": "7PJP865F+VQ"
      },
      "types": [
        "establishment",
        "point_of_interest"
      ]
    },
    {
      "address_components": [
        {
          "long_name": "184",
          "short_name": "184",
          "types": [
            "street_number"
          ]
        },
        {
          "long_name": "Nathan Road",
          "short_name": "Nathan Rd",
          "types": [
            "route"
          ]
        },
        {
          "long_name": "Tsim Sha Tsui",
          "short_name": "Tsim Sha Tsui",
          "types": [
            "neighborhood",
            "political"
          ]
        },
        {
          "long_name": "Kowloon",
          "short_name": "Kowloon",
          "types": [
            "administrative_area_level_1",
            "political"
          ]
        },
        {
          "long_name": "Hong Kong",
          "short_name": "HK",
          "types": [
            "country",
            "political"
          ]
        }
      ],
      "formatted_address": "184 Nathan Rd, Tsim Sha Tsui, Hong Kong",
      "geometry": {
        "bounds": {
          "northeast": {
            "lat": 22.30308,
            "lng": 114.172215
          },
          "southwest": {
            "lat": 22.3029681,
            "lng": 114.171902
          }
        },
        "location": {
          "lat": 22.3030378,
          "lng": 114.1720585
        },
        "location_type": "ROOFTOP",
        "viewport": {
          "northeast": {
            "lat": 22.3043730302915,
            "lng": 114.1734074802915
          },
          "southwest": {
            "lat": 22.3016750697085,
            "lng": 114.1707095197085
          }
        }
      },
      "partial_match": true,
      "place_id": "ChIJ_XeeiusABDQRSLVxAKWCcvo",
      "types": [
        "premise"
      ]
    }
  ],
  "geocode_tc": [
    {
      "address_components": [
        {
          "long_name": "184",
          "short_name": "184",
          "types": [
            "street_number"
          ]
        },
        {
          "long_name": "\u5f4c\u6566\u9053",
          "short_name": "\u5f4c\u6566\u9053",
          "types": [
            "route"
          ]
        },
        {
          "long_name": "\u5c16\u6c99\u5480",
          "short_name": "\u5c16\u6c99\u5480",
          "types": [
            "neighborhood",
            "political"
          ]
        },
        {
          "long_name": "\u4e5d\u9f8d",
          "short_name": "\u4e5d\u9f8d",
          "types": [
            "administrative_area_level_1",
            "political"
          ]
        },
        {
          "long_name": "\u9999\u6e2f",
          "short_name": "HK",
          "types": [
            "country",
            "political"
          ]
        }
      ],
      "formatted_address": "\u9999\u6e2f\u5c16\u6c99\u5480\u5f4c\u6566\u9053184\u865f",
      "geometry": {
        "bounds": {
          "northeast": {
            "lat": 22.30308,
            "lng": 114.172215
          },
          "southwest": {
            "lat": 22.3029681,
            "lng": 114.171902
          }
        },
        "location": {
          "lat": 22.3030378,
          "lng": 114.1720585
        },
        "location_type": "ROOFTOP",
        "viewport": {
          "northeast": {
            "lat": 22.3043730302915,
            "lng": 114.1734074802915
          },
          "southwest": {
            "lat": 22.3016750697085,
            "lng": 114.1707095197085
          }
        }
      },
      "partial_match": true,
      "place_id": "ChIJ_XeeiusABDQRSLVxAKWCcvo",
      "types": [
        "premise"
      ]
    },
    {
      "address_components": [
        {
          "long_name": "4",
          "short_name": "4",
          "types": [
            "street_number"
          ]
        },
        {
          "long_name": "Hing Yip Street",
          "short_name": "Hing Yip St",
          "types": [
            "route"
          ]
        },
        {
          "long_name": "Kwun Tong",
          "short_name": "Kwun Tong",
          "types": [
            "neighborhood",
            "political"
          ]
        },
        {
          "long_name": "Kowloon",
          "short_name": "Kowloon",
          "types": [
            "administrative_area_level_1",
            "political"
          ]
        },
        {
          "long_name": "\u9999\u6e2f",
          "short_name": "HK",
          "types": [
            "country",
            "political"
          ]
        }
      ],
      "formatted_address": "The Wave, 4 Hing Yip St, Kwun Tong, \u9999\u6e2f",
      "geometry": {
        "location": {
          "lat": 22.30964,
          "lng": 114.2244856
        },
        "location_type": "ROOFTOP",
        "viewport": {
          "northeast": {
            "lat": 22.3109889802915,
            "lng": 114.2258345802915
          },
          "southwest": {
            "lat": 22.30829101970849,
            "lng": 114.2231366197085
          }
        }
      },
      "partial_match": true,
      "place_id": "ChIJ4d8-CUUBBDQRuIBnRuR5oH0",
      "plus_code": {
        "compound_code": "865F+VQ \u9999\u6e2f\u89c0\u5858",
        "global_code": "7PJP865F+VQ"
      },
      "types": [
        "establishment",
        "point_of_interest"
      ]
    }
  ],
  "licno": "3161802083",
  "timestamp": 1564975666,
  "version": "1564966095"
}
