{
  "adr_en": "\u82b1\u59d0\u5eda\u623f, SHOP NO. 4, G/F, CHEONG ON BUILDING, TSUEN CHEONG CENTRE, 186-200 SAI LAU KOK ROAD, TSUEN WAN, NEW TERRITORIES",
  "adr_tc": "\u65b0\u754c\u8343\u7063\u897f\u6a13\u89d2\u8def186\u81f3200\u865f \u8343\u660c\u4e2d\u5fc3\u660c\u5b89\u5927\u53a6\u5730\u4e0b4\u865f\u8216 \u82b1\u59d0\u5eda\u623f",
  "geocode_en": [
    {
      "address_components": [
        {
          "long_name": "Hong Kong",
          "short_name": "HK",
          "types": [
            "country",
            "political"
          ]
        }
      ],
      "formatted_address": "\u8343\u7063 \u8343 \u660c \u4e2d\u5fc3 \u660c \u5b89 \u5546\u5834 \u5730\u4e0b 4 \u865f \u8216, Hong Kong",
      "geometry": {
        "location": {
          "lat": 22.3714127,
          "lng": 114.1199681
        },
        "location_type": "GEOMETRIC_CENTER",
        "viewport": {
          "northeast": {
            "lat": 22.3727616802915,
            "lng": 114.1213170802915
          },
          "southwest": {
            "lat": 22.3700637197085,
            "lng": 114.1186191197085
          }
        }
      },
      "partial_match": true,
      "place_id": "ChIJR50AS-34AzQRIJxSchKgYlw",
      "plus_code": {
        "compound_code": "94C9+HX Hong Kong",
        "global_code": "7PJP94C9+HX"
      },
      "types": [
        "establishment",
        "food",
        "point_of_interest",
        "restaurant"
      ]
    },
    {
      "address_components": [
        {
          "long_name": "Tsuen Cheong Centre Cheong On Building",
          "short_name": "Tsuen Cheong Centre Cheong On Building",
          "types": [
            "premise"
          ]
        },
        {
          "long_name": "202-216",
          "short_name": "202-216",
          "types": [
            "street_number"
          ]
        },
        {
          "long_name": "Sai Lau Kok Road",
          "short_name": "Sai Lau Kok Rd",
          "types": [
            "route"
          ]
        },
        {
          "long_name": "Tsuen Wan",
          "short_name": "Tsuen Wan",
          "types": [
            "neighborhood",
            "political"
          ]
        },
        {
          "long_name": "New Territories",
          "short_name": "New Territories",
          "types": [
            "administrative_area_level_1",
            "political"
          ]
        },
        {
          "long_name": "Hong Kong",
          "short_name": "HK",
          "types": [
            "country",
            "political"
          ]
        }
      ],
      "formatted_address": "Tsuen Cheong Centre Cheong On Building, 202-216 Sai Lau Kok Rd, Tsuen Wan, Hong Kong",
      "geometry": {
        "bounds": {
          "northeast": {
            "lat": 22.371469,
            "lng": 114.120055
          },
          "southwest": {
            "lat": 22.371245,
            "lng": 114.119806
          }
        },
        "location": {
          "lat": 22.3713625,
          "lng": 114.1199213
        },
        "location_type": "ROOFTOP",
        "viewport": {
          "northeast": {
            "lat": 22.3727059802915,
            "lng": 114.1212794802915
          },
          "southwest": {
            "lat": 22.3700080197085,
            "lng": 114.1185815197085
          }
        }
      },
      "partial_match": true,
      "place_id": "ChIJ2Y1aSu34AzQR_AokHiooPvE",
      "types": [
        "premise"
      ]
    }
  ],
  "geocode_tc": [
    {
      "address_components": [
        {
          "long_name": "186-200\u865f",
          "short_name": "186-200\u865f",
          "types": [
            "street_number"
          ]
        },
        {
          "long_name": "\u897f\u6a13\u89d2\u8def",
          "short_name": "\u897f\u6a13\u89d2\u8def",
          "types": [
            "route"
          ]
        },
        {
          "long_name": "\u8343\u7063",
          "short_name": "\u8343\u7063",
          "types": [
            "neighborhood",
            "political"
          ]
        },
        {
          "long_name": "\u65b0\u754c",
          "short_name": "\u65b0\u754c",
          "types": [
            "administrative_area_level_1",
            "political"
          ]
        },
        {
          "long_name": "\u9999\u6e2f",
          "short_name": "HK",
          "types": [
            "country",
            "political"
          ]
        }
      ],
      "formatted_address": "\u9999\u6e2f\u8343\u7063\u897f\u6a13\u89d2\u8def186-200\u865f",
      "geometry": {
        "location": {
          "lat": 22.37141,
          "lng": 114.119939
        },
        "location_type": "ROOFTOP",
        "viewport": {
          "northeast": {
            "lat": 22.3727589802915,
            "lng": 114.1212879802915
          },
          "southwest": {
            "lat": 22.37006101970849,
            "lng": 114.1185900197085
          }
        }
      },
      "place_id": "ChIJu5SsS-34AzQRM2WeQAClXBA",
      "plus_code": {
        "compound_code": "94C9+HX \u9999\u6e2f",
        "global_code": "7PJP94C9+HX"
      },
      "types": [
        "establishment",
        "lodging",
        "point_of_interest"
      ]
    }
  ],
  "licno": "3192000267",
  "timestamp": 1564975666,
  "version": "1564966095"
}
