{
  "adr_en": "Gold Coast Chinese & Vietnomese Cuisine, SHOP M1, 1/F, PODIUM D, RIVIERA MARKET, RIVIERA GARDEN, TSUEN WAN, NEW TERRITORIES",
  "adr_tc": "\u65b0\u754c\u8343\u7063\u6d77\u6ff1\u82b1\u5712\u6d77\u6ff1\u8857\u5e02D\u5e73\u53f01\u6a13M1\u92ea \u91d1\u6d77\u6ff1\u8d8a\u7cb5\u5c0f\u7092",
  "geocode_en": [
    {
      "address_components": [
        {
          "long_name": "Gold Coast",
          "short_name": "Gold Coast",
          "types": [
            "colloquial_area",
            "locality",
            "political"
          ]
        },
        {
          "long_name": "City of Gold Coast",
          "short_name": "Gold Coast",
          "types": [
            "administrative_area_level_2",
            "political"
          ]
        },
        {
          "long_name": "Queensland",
          "short_name": "QLD",
          "types": [
            "administrative_area_level_1",
            "political"
          ]
        },
        {
          "long_name": "Australia",
          "short_name": "AU",
          "types": [
            "country",
            "political"
          ]
        }
      ],
      "formatted_address": "Gold Coast QLD, Australia",
      "geometry": {
        "bounds": {
          "northeast": {
            "lat": -27.7081262,
            "lng": 153.5521711
          },
          "southwest": {
            "lat": -28.200317,
            "lng": 153.1865517
          }
        },
        "location": {
          "lat": -28.016667,
          "lng": 153.4
        },
        "location_type": "APPROXIMATE",
        "viewport": {
          "northeast": {
            "lat": -27.7081262,
            "lng": 153.5521711
          },
          "southwest": {
            "lat": -28.200317,
            "lng": 153.1865517
          }
        }
      },
      "partial_match": true,
      "place_id": "ChIJt2BdK0cakWsRcK_e81qjAgM",
      "types": [
        "colloquial_area",
        "locality",
        "political"
      ]
    },
    {
      "address_components": [
        {
          "long_name": "28\u865f",
          "short_name": "28\u865f",
          "types": [
            "premise"
          ]
        },
        {
          "long_name": "\u6c38\u9806\u8857",
          "short_name": "\u6c38\u9806\u8857",
          "types": [
            "route"
          ]
        },
        {
          "long_name": "\u8343\u7063",
          "short_name": "\u8343\u7063",
          "types": [
            "neighborhood",
            "political"
          ]
        },
        {
          "long_name": "\u65b0\u754c",
          "short_name": "\u65b0\u754c",
          "types": [
            "administrative_area_level_1",
            "political"
          ]
        },
        {
          "long_name": "Hong Kong",
          "short_name": "HK",
          "types": [
            "country",
            "political"
          ]
        }
      ],
      "formatted_address": "Hong Kong, \u8343\u7063\u6c38\u9806\u885728\u865f",
      "geometry": {
        "location": {
          "lat": 22.3629588,
          "lng": 114.1143008
        },
        "location_type": "ROOFTOP",
        "viewport": {
          "northeast": {
            "lat": 22.3643077802915,
            "lng": 114.1156497802915
          },
          "southwest": {
            "lat": 22.3616098197085,
            "lng": 114.1129518197085
          }
        }
      },
      "partial_match": true,
      "place_id": "ChIJ6c_kAur4AzQRRhqb28mg2j0",
      "plus_code": {
        "compound_code": "9477+5P Tsuen Wan, Hong Kong",
        "global_code": "7PJP9477+5P"
      },
      "types": [
        "establishment",
        "point_of_interest"
      ]
    }
  ],
  "geocode_tc": [
    {
      "address_components": [
        {
          "long_name": "\u8343\u7063",
          "short_name": "\u8343\u7063",
          "types": [
            "neighborhood",
            "political"
          ]
        },
        {
          "long_name": "\u65b0\u754c",
          "short_name": "\u65b0\u754c",
          "types": [
            "administrative_area_level_1",
            "political"
          ]
        },
        {
          "long_name": "\u9999\u6e2f",
          "short_name": "HK",
          "types": [
            "country",
            "political"
          ]
        }
      ],
      "formatted_address": "\u9999\u6e2f\u8343\u7063\u8343\u7063\u6d77\u6ff1\u82b1\u5712\u6d77\u6ff1\u8857\u5e02M1\u865f\u8216",
      "geometry": {
        "location": {
          "lat": 22.3620723,
          "lng": 114.1135824
        },
        "location_type": "GEOMETRIC_CENTER",
        "viewport": {
          "northeast": {
            "lat": 22.3634212802915,
            "lng": 114.1149313802915
          },
          "southwest": {
            "lat": 22.3607233197085,
            "lng": 114.1122334197085
          }
        }
      },
      "place_id": "ChIJLVrbBcL4AzQREeHoQLkbFvE",
      "plus_code": {
        "compound_code": "9467+RC \u9999\u6e2f",
        "global_code": "7PJP9467+RC"
      },
      "types": [
        "establishment",
        "food",
        "point_of_interest",
        "restaurant"
      ]
    }
  ],
  "licno": "2292806232",
  "timestamp": 1564968756,
  "version": "1564966095"
}
