{
  "adr_en": "The Bay, DD 7, LOT 485, 7 MO TAT WAN, SOK KWU WAN, LAMMA ISLAND, NEW TERRITORIES",
  "adr_tc": "\u5357\u4e2b\u5cf6\u7d22\u7f5f\u7063\u6a21\u9054\u70637\u865f7\u7d04485\u5730\u6bb5 The Bay",
  "geocode_en": [
    {
      "address_components": [
        {
          "long_name": "Mo Tat Wan",
          "short_name": "Mo Tat Wan",
          "types": [
            "neighborhood",
            "political"
          ]
        },
        {
          "long_name": "New Territories",
          "short_name": "New Territories",
          "types": [
            "administrative_area_level_1",
            "political"
          ]
        },
        {
          "long_name": "Hong Kong",
          "short_name": "HK",
          "types": [
            "country",
            "political"
          ]
        }
      ],
      "formatted_address": "Mo Tat Wan, Hong Kong",
      "geometry": {
        "location": {
          "lat": 22.207637,
          "lng": 114.145398
        },
        "location_type": "APPROXIMATE",
        "viewport": {
          "northeast": {
            "lat": 22.2179669,
            "lng": 114.1614054
          },
          "southwest": {
            "lat": 22.1973063,
            "lng": 114.1293906
          }
        }
      },
      "partial_match": true,
      "place_id": "ChIJPSd8QtOqBjQR0OMCu3vuddM",
      "types": [
        "neighborhood",
        "political"
      ]
    }
  ],
  "geocode_tc": [
    {
      "address_components": [
        {
          "long_name": "\u6a21\u9054\u7063",
          "short_name": "\u6a21\u9054\u7063",
          "types": [
            "neighborhood",
            "political"
          ]
        },
        {
          "long_name": "\u9999\u6e2f",
          "short_name": "HK",
          "types": [
            "country",
            "political"
          ]
        }
      ],
      "formatted_address": "\u9999\u6e2f\u6a21\u9054\u7063",
      "geometry": {
        "location": {
          "lat": 22.2078697,
          "lng": 114.1454072
        },
        "location_type": "GEOMETRIC_CENTER",
        "viewport": {
          "northeast": {
            "lat": 22.2092186802915,
            "lng": 114.1467561802915
          },
          "southwest": {
            "lat": 22.2065207197085,
            "lng": 114.1440582197085
          }
        }
      },
      "partial_match": true,
      "place_id": "ChIJJzr6OtKqBjQR68BAiAPAMuo",
      "plus_code": {
        "compound_code": "645W+45 \u9999\u6e2f",
        "global_code": "7PJP645W+45"
      },
      "types": [
        "establishment",
        "food",
        "point_of_interest",
        "restaurant"
      ]
    }
  ],
  "licno": "2217001360",
  "timestamp": 1564968756,
  "version": "1564966095"
}
