{
  "adr_en": "ELEGANT SEAFOOD RESTAURANT, G/F & 1/F, RESTAURANT PODIUM FLOOR, CHEUNG CHING COMMERCIAL CENTRE, CHEUNG CHING ESTATE, TSING YI, NEW TERRITORIES",
  "adr_tc": "\u65b0\u754c\u9752\u8863\u9577\u9752\u90a8 \u9577\u9752\u5546\u5834\u5e73\u53f0\u5730\u4e0b\u53ca1\u6a13 \u96c5\u6bbf\u6d77\u9bae\u9152\u5bb6",
  "geocode_en": [
    {
      "address_components": [
        {
          "long_name": "Ching Hong Road",
          "short_name": "Ching Hong Rd",
          "types": [
            "route"
          ]
        },
        {
          "long_name": "Tsing Yi",
          "short_name": "Tsing Yi",
          "types": [
            "neighborhood",
            "political"
          ]
        },
        {
          "long_name": "Hong Kong",
          "short_name": "HK",
          "types": [
            "country",
            "political"
          ]
        }
      ],
      "formatted_address": "Chueng Ching Commerical Complex, Ching Hong Rd, Tsing Yi, Hong Kong",
      "geometry": {
        "location": {
          "lat": 22.3450975,
          "lng": 114.1090652
        },
        "location_type": "GEOMETRIC_CENTER",
        "viewport": {
          "northeast": {
            "lat": 22.3464464802915,
            "lng": 114.1104141802915
          },
          "southwest": {
            "lat": 22.34374851970849,
            "lng": 114.1077162197085
          }
        }
      },
      "partial_match": true,
      "place_id": "ChIJp_ABoH35AzQRW0Lp1pHjxr4",
      "plus_code": {
        "compound_code": "84W5+2J Hong Kong",
        "global_code": "7PJP84W5+2J"
      },
      "types": [
        "establishment",
        "food",
        "point_of_interest",
        "restaurant"
      ]
    },
    {
      "address_components": [
        {
          "long_name": "Ching Hong Road",
          "short_name": "Ching Hong Rd",
          "types": [
            "route"
          ]
        },
        {
          "long_name": "Tsing Yi",
          "short_name": "Tsing Yi",
          "types": [
            "neighborhood",
            "political"
          ]
        },
        {
          "long_name": "New Territories",
          "short_name": "New Territories",
          "types": [
            "administrative_area_level_1",
            "political"
          ]
        },
        {
          "long_name": "Hong Kong",
          "short_name": "HK",
          "types": [
            "country",
            "political"
          ]
        }
      ],
      "formatted_address": "Ching Hong Rd, Tsing Yi, Hong Kong",
      "geometry": {
        "location": {
          "lat": 22.349684,
          "lng": 114.106805
        },
        "location_type": "GEOMETRIC_CENTER",
        "viewport": {
          "northeast": {
            "lat": 22.3510329802915,
            "lng": 114.1081539802915
          },
          "southwest": {
            "lat": 22.3483350197085,
            "lng": 114.1054560197085
          }
        }
      },
      "partial_match": true,
      "place_id": "ChIJsyJkNdD4AzQRC-FkLqpIjb0",
      "plus_code": {
        "compound_code": "84X4+VP Hong Kong",
        "global_code": "7PJP84X4+VP"
      },
      "types": [
        "establishment",
        "point_of_interest"
      ]
    }
  ],
  "geocode_tc": [
    {
      "address_components": [
        {
          "long_name": "\u9999\u6e2f",
          "short_name": "HK",
          "types": [
            "country",
            "political"
          ]
        }
      ],
      "formatted_address": "\u9999\u6e2f\u9752\u8863\u9577\u9752\u90a8 \u9577\u9752\u5546\u5834\u5e73\u53f0\u5730\u4e0b, 1\u6a13\u53ca2\u6a13",
      "geometry": {
        "location": {
          "lat": 22.345167,
          "lng": 114.10929
        },
        "location_type": "GEOMETRIC_CENTER",
        "viewport": {
          "northeast": {
            "lat": 22.34651598029151,
            "lng": 114.1106389802915
          },
          "southwest": {
            "lat": 22.3438180197085,
            "lng": 114.1079410197085
          }
        }
      },
      "place_id": "ChIJn5iK7M34AzQRM8Ifmx0skb4",
      "plus_code": {
        "compound_code": "84W5+3P \u9999\u6e2f",
        "global_code": "7PJP84W5+3P"
      },
      "types": [
        "establishment",
        "food",
        "point_of_interest",
        "restaurant"
      ]
    }
  ],
  "licno": "2291001414",
  "timestamp": 1564968756,
  "version": "1564966095"
}
