{
  "adr_en": "\u9db4\u4e80, SHOP L, G/F, HANYEE BUILDING, NOS. 19-21 HANKOW ROAD, TSIM SHA TSUI, KOWLOON",
  "adr_tc": "\u4e5d\u9f8d\u5c16\u6c99\u5480\u6f22\u53e3\u905319-21\u865f\u6f22\u5b9c\u5927\u5ec8\u5730\u4e0bL\u865f\u92ea \u9db4\u4e80",
  "geocode_en": [
    {
      "address_components": [
        {
          "long_name": "Hanyee Building",
          "short_name": "Hanyee Building",
          "types": [
            "premise"
          ]
        },
        {
          "long_name": "Ichang Street",
          "short_name": "Ichang St",
          "types": [
            "route"
          ]
        },
        {
          "long_name": "Tsim Sha Tsui",
          "short_name": "Tsim Sha Tsui",
          "types": [
            "neighborhood",
            "political"
          ]
        },
        {
          "long_name": "Kowloon",
          "short_name": "Kowloon",
          "types": [
            "administrative_area_level_1",
            "political"
          ]
        },
        {
          "long_name": "Hong Kong",
          "short_name": "HK",
          "types": [
            "country",
            "political"
          ]
        }
      ],
      "formatted_address": "Hong Kong, Tsim Sha Tsui, Ichang St, Hanyee Building, L\u92ea",
      "geometry": {
        "location": {
          "lat": 22.296931,
          "lng": 114.170934
        },
        "location_type": "ROOFTOP",
        "viewport": {
          "northeast": {
            "lat": 22.2982799802915,
            "lng": 114.1722829802915
          },
          "southwest": {
            "lat": 22.2955820197085,
            "lng": 114.1695850197085
          }
        }
      },
      "partial_match": true,
      "place_id": "ChIJlUnMfPIABDQRgX_xRdrF90I",
      "plus_code": {
        "compound_code": "75WC+Q9 Hong Kong",
        "global_code": "7PJP75WC+Q9"
      },
      "types": [
        "establishment",
        "food",
        "point_of_interest",
        "restaurant"
      ]
    },
    {
      "address_components": [
        {
          "long_name": "Hanyee Building",
          "short_name": "Hanyee Building",
          "types": [
            "premise"
          ]
        },
        {
          "long_name": "19-21",
          "short_name": "19-21",
          "types": [
            "street_number"
          ]
        },
        {
          "long_name": "Hankow Road",
          "short_name": "Hankow Rd",
          "types": [
            "route"
          ]
        },
        {
          "long_name": "Tsim Sha Tsui",
          "short_name": "Tsim Sha Tsui",
          "types": [
            "neighborhood",
            "political"
          ]
        },
        {
          "long_name": "Kowloon",
          "short_name": "Kowloon",
          "types": [
            "administrative_area_level_1",
            "political"
          ]
        },
        {
          "long_name": "Hong Kong",
          "short_name": "HK",
          "types": [
            "country",
            "political"
          ]
        }
      ],
      "formatted_address": "Hanyee Building, 19-21 Hankow Rd, Tsim Sha Tsui, Hong Kong",
      "geometry": {
        "bounds": {
          "northeast": {
            "lat": 22.296911,
            "lng": 114.171041
          },
          "southwest": {
            "lat": 22.2966921,
            "lng": 114.170859
          }
        },
        "location": {
          "lat": 22.2968045,
          "lng": 114.1709438
        },
        "location_type": "ROOFTOP",
        "viewport": {
          "northeast": {
            "lat": 22.2981505302915,
            "lng": 114.1722989802915
          },
          "southwest": {
            "lat": 22.29545256970849,
            "lng": 114.1696010197085
          }
        }
      },
      "partial_match": true,
      "place_id": "ChIJ4YwTY_IABDQRTAIYt_rRwJM",
      "types": [
        "premise"
      ]
    }
  ],
  "geocode_tc": [
    {
      "address_components": [
        {
          "long_name": "\u6f22\u5b9c\u5927\u5ec8",
          "short_name": "\u6f22\u5b9c\u5927\u5ec8",
          "types": [
            "premise"
          ]
        },
        {
          "long_name": "19-21",
          "short_name": "19-21",
          "types": [
            "street_number"
          ]
        },
        {
          "long_name": "\u6f22\u53e3\u9053",
          "short_name": "\u6f22\u53e3\u9053",
          "types": [
            "route"
          ]
        },
        {
          "long_name": "\u5c16\u6c99\u5480",
          "short_name": "\u5c16\u6c99\u5480",
          "types": [
            "neighborhood",
            "political"
          ]
        },
        {
          "long_name": "\u4e5d\u9f8d",
          "short_name": "\u4e5d\u9f8d",
          "types": [
            "administrative_area_level_1",
            "political"
          ]
        },
        {
          "long_name": "\u9999\u6e2f",
          "short_name": "HK",
          "types": [
            "country",
            "political"
          ]
        }
      ],
      "formatted_address": "\u9999\u6e2f\u5c16\u6c99\u5480\u6f22\u53e3\u905319-21\u865f\u6f22\u5b9c\u5927\u5ec8",
      "geometry": {
        "bounds": {
          "northeast": {
            "lat": 22.296911,
            "lng": 114.171041
          },
          "southwest": {
            "lat": 22.2966921,
            "lng": 114.170859
          }
        },
        "location": {
          "lat": 22.2968045,
          "lng": 114.1709438
        },
        "location_type": "ROOFTOP",
        "viewport": {
          "northeast": {
            "lat": 22.2981505302915,
            "lng": 114.1722989802915
          },
          "southwest": {
            "lat": 22.29545256970849,
            "lng": 114.1696010197085
          }
        }
      },
      "partial_match": true,
      "place_id": "ChIJ4YwTY_IABDQRTAIYt_rRwJM",
      "types": [
        "premise"
      ]
    },
    {
      "address_components": [
        {
          "long_name": "\u6f22\u5b9c\u5927\u5ec8",
          "short_name": "\u6f22\u5b9c\u5927\u5ec8",
          "types": [
            "premise"
          ]
        },
        {
          "long_name": "\u5b9c\u660c\u8857",
          "short_name": "\u5b9c\u660c\u8857",
          "types": [
            "route"
          ]
        },
        {
          "long_name": "\u5c16\u6c99\u5480",
          "short_name": "\u5c16\u6c99\u5480",
          "types": [
            "neighborhood",
            "political"
          ]
        },
        {
          "long_name": "\u4e5d\u9f8d",
          "short_name": "\u4e5d\u9f8d",
          "types": [
            "administrative_area_level_1",
            "political"
          ]
        },
        {
          "long_name": "\u9999\u6e2f",
          "short_name": "HK",
          "types": [
            "country",
            "political"
          ]
        }
      ],
      "formatted_address": "\u9999\u6e2f\u5c16\u6c99\u5480\u5b9c\u660c\u8857\u6f22\u5b9c\u5927\u5ec8L\u92ea",
      "geometry": {
        "location": {
          "lat": 22.296931,
          "lng": 114.170934
        },
        "location_type": "ROOFTOP",
        "viewport": {
          "northeast": {
            "lat": 22.2982799802915,
            "lng": 114.1722829802915
          },
          "southwest": {
            "lat": 22.2955820197085,
            "lng": 114.1695850197085
          }
        }
      },
      "partial_match": true,
      "place_id": "ChIJlUnMfPIABDQRgX_xRdrF90I",
      "plus_code": {
        "compound_code": "75WC+Q9 \u9999\u6e2f",
        "global_code": "7PJP75WC+Q9"
      },
      "types": [
        "establishment",
        "food",
        "point_of_interest",
        "restaurant"
      ]
    }
  ],
  "licno": "3161807802",
  "timestamp": 1564975666,
  "version": "1564966095"
}
