{
  "adr_en": "GOOGE KING, G/F, 119 FUK WING STREET, SHAM SHUI PO, KOWLOON",
  "adr_tc": "\u4e5d\u9f8d\u798f\u69ae\u8857 119 \u865f\u5730\u4e0b \u71d2\u9d5d\u5927\u7687",
  "geocode_en": [
    {
      "address_components": [
        {
          "long_name": "119",
          "short_name": "119",
          "types": [
            "street_number"
          ]
        },
        {
          "long_name": "Fuk Wing Street",
          "short_name": "Fuk Wing St",
          "types": [
            "route"
          ]
        },
        {
          "long_name": "Un Chau",
          "short_name": "Un Chau",
          "types": [
            "neighborhood",
            "political"
          ]
        },
        {
          "long_name": "Kowloon",
          "short_name": "Kowloon",
          "types": [
            "administrative_area_level_1",
            "political"
          ]
        },
        {
          "long_name": "Hong Kong",
          "short_name": "HK",
          "types": [
            "country",
            "political"
          ]
        }
      ],
      "formatted_address": "119 Fuk Wing St, Un Chau, Hong Kong",
      "geometry": {
        "location": {
          "lat": 22.331755,
          "lng": 114.162735
        },
        "location_type": "ROOFTOP",
        "viewport": {
          "northeast": {
            "lat": 22.3331039802915,
            "lng": 114.1640839802915
          },
          "southwest": {
            "lat": 22.33040601970849,
            "lng": 114.1613860197085
          }
        }
      },
      "place_id": "ChIJo32OsLQABDQRm-9pMEJQmo8",
      "plus_code": {
        "compound_code": "85J7+P3 Hong Kong",
        "global_code": "7PJP85J7+P3"
      },
      "types": [
        "establishment",
        "food",
        "point_of_interest",
        "restaurant"
      ]
    }
  ],
  "geocode_tc": [
    {
      "address_components": [
        {
          "long_name": "\u9999\u6e2f",
          "short_name": "HK",
          "types": [
            "country",
            "political"
          ]
        }
      ],
      "formatted_address": "\u9999\u6e2f\u6df1\u6c34\u57d7\u798f\u69ae\u8857119\u865f\u5730\u4e0b",
      "geometry": {
        "location": {
          "lat": 22.3317997,
          "lng": 114.1628302
        },
        "location_type": "GEOMETRIC_CENTER",
        "viewport": {
          "northeast": {
            "lat": 22.3331486802915,
            "lng": 114.1641791802915
          },
          "southwest": {
            "lat": 22.33045071970849,
            "lng": 114.1614812197085
          }
        }
      },
      "place_id": "ChIJ3znUtrQABDQRZg9c8lwlZXQ",
      "plus_code": {
        "compound_code": "85J7+P4 \u9999\u6e2f",
        "global_code": "7PJP85J7+P4"
      },
      "types": [
        "establishment",
        "food",
        "point_of_interest",
        "restaurant"
      ]
    }
  ],
  "licno": "2263222023",
  "timestamp": 1564968756,
  "version": "1564966095"
}
