{
  "adr_en": "\u5c71\u65e5\u5c4b, SHOP 82, LEVEL 3, BLOCK 5, MAYFAIR GARDENS, 2-16 SAI SHAN ROAD, TSING YI, NEW TERRITORIES",
  "adr_tc": "\u65b0\u754c\u9752\u8863\u7d30\u5c71\u8def2-16\u865f\u7f8e\u666f\u82b1\u57125\u5ea73\u6a1382\u865f\u92ea \u5c71\u65e5\u5c4b",
  "geocode_en": [
    {
      "address_components": [
        {
          "long_name": "\u5c4b, SHOP 82, LEVEL",
          "short_name": "\u5c4b, SHOP 82, LEVEL",
          "types": [
            "subpremise"
          ]
        },
        {
          "long_name": "Mayfair Gardens Block 5",
          "short_name": "Mayfair Gardens Block 5",
          "types": [
            "premise"
          ]
        },
        {
          "long_name": "2-16",
          "short_name": "2-16",
          "types": [
            "street_number"
          ]
        },
        {
          "long_name": "Sai Shan Road",
          "short_name": "Sai Shan Rd",
          "types": [
            "route"
          ]
        },
        {
          "long_name": "Sai Shan",
          "short_name": "Sai Shan",
          "types": [
            "neighborhood",
            "political"
          ]
        },
        {
          "long_name": "New Territories",
          "short_name": "New Territories",
          "types": [
            "administrative_area_level_1",
            "political"
          ]
        },
        {
          "long_name": "Hong Kong",
          "short_name": "HK",
          "types": [
            "country",
            "political"
          ]
        }
      ],
      "formatted_address": "\u5c4b, SHOP 82, LEVEL, Mayfair Gardens Block 5, 2-16 Sai Shan Rd, Sai Shan, Hong Kong",
      "geometry": {
        "bounds": {
          "northeast": {
            "lat": 22.344423,
            "lng": 114.1078669
          },
          "southwest": {
            "lat": 22.344194,
            "lng": 114.1076211
          }
        },
        "location": {
          "lat": 22.3443024,
          "lng": 114.107728
        },
        "location_type": "ROOFTOP",
        "viewport": {
          "northeast": {
            "lat": 22.3456574802915,
            "lng": 114.1090929802915
          },
          "southwest": {
            "lat": 22.3429595197085,
            "lng": 114.1063950197085
          }
        }
      },
      "partial_match": true,
      "place_id": "ElPlsYssIFNIT1AgODIsIExFVkVMLCBNYXlmYWlyIEdhcmRlbnMgQmxvY2sgNSwgMi0xNiBTYWkgU2hhbiBSZCwgU2FpIFNoYW4sIEhvbmcgS29uZyIvGi0KFgoUChIJd-ake9L4AzQRXmkk4c0vM78SE-WxiywgU0hPUCA4MiwgTEVWRUw",
      "types": [
        "subpremise"
      ]
    }
  ],
  "geocode_tc": [
    {
      "address_components": [
        {
          "long_name": "\u9999\u6e2f",
          "short_name": "HK",
          "types": [
            "country",
            "political"
          ]
        }
      ],
      "formatted_address": "\u9999\u6e2f\u9752\u8863 \u7d30\u5c71\u8def2-16\u865f\u7f8e\u666f\u82b1\u57125\u5ea73\u6a1382\u865f\u92ea",
      "geometry": {
        "location": {
          "lat": 22.3443741,
          "lng": 114.1078458
        },
        "location_type": "GEOMETRIC_CENTER",
        "viewport": {
          "northeast": {
            "lat": 22.3457230802915,
            "lng": 114.1091947802915
          },
          "southwest": {
            "lat": 22.3430251197085,
            "lng": 114.1064968197085
          }
        }
      },
      "place_id": "ChIJqfiqe9L4AzQROHijBBxEjrI",
      "plus_code": {
        "compound_code": "84V5+P4 \u9999\u6e2f",
        "global_code": "7PJP84V5+P4"
      },
      "types": [
        "establishment",
        "food",
        "point_of_interest",
        "restaurant"
      ]
    }
  ],
  "licno": "3191800527",
  "timestamp": 1564975666,
  "version": "1564966095"
}
