{
  "adr_en": "\u5609\u7f8e, SHOP B & C, G/F, PO ON LAU, 165-167 BULKELEY STREET, HUNG HOM, KOWLOON",
  "adr_tc": "\u4e5d\u9f8d\u7d05\u78e1\u5bf6\u5176\u5229\u8857165-167\u865f\u5bf6\u5b89\u6a13\u5730\u4e0bB\u53caC\u92ea \u5609\u7f8e",
  "geocode_en": [
    {
      "address_components": [
        {
          "long_name": "Po On Lau",
          "short_name": "Po On Lau",
          "types": [
            "premise"
          ]
        },
        {
          "long_name": "165-167",
          "short_name": "165-167",
          "types": [
            "street_number"
          ]
        },
        {
          "long_name": "Bulkeley Street",
          "short_name": "Bulkeley St",
          "types": [
            "route"
          ]
        },
        {
          "long_name": "Hung Hom",
          "short_name": "Hung Hom",
          "types": [
            "neighborhood",
            "political"
          ]
        },
        {
          "long_name": "Kowloon",
          "short_name": "Kowloon",
          "types": [
            "administrative_area_level_1",
            "political"
          ]
        },
        {
          "long_name": "Hong Kong",
          "short_name": "HK",
          "types": [
            "country",
            "political"
          ]
        }
      ],
      "formatted_address": "Po On Lau, 165-167 Bulkeley St, Hung Hom, Hong Kong",
      "geometry": {
        "bounds": {
          "northeast": {
            "lat": 22.308283,
            "lng": 114.1838601
          },
          "southwest": {
            "lat": 22.308157,
            "lng": 114.1837331
          }
        },
        "location": {
          "lat": 22.3082171,
          "lng": 114.1837972
        },
        "location_type": "ROOFTOP",
        "viewport": {
          "northeast": {
            "lat": 22.3095689802915,
            "lng": 114.1851455802915
          },
          "southwest": {
            "lat": 22.3068710197085,
            "lng": 114.1824476197085
          }
        }
      },
      "partial_match": true,
      "place_id": "ChIJ1ac_vt0ABDQRvqPcB6n-ytg",
      "types": [
        "premise"
      ]
    }
  ],
  "geocode_tc": [
    {
      "address_components": [
        {
          "long_name": "\u5730\u4e0bB\u53caC",
          "short_name": "\u5730\u4e0bB\u53caC",
          "types": [
            "subpremise"
          ]
        },
        {
          "long_name": "\u5bf6\u5b89\u6a13",
          "short_name": "\u5bf6\u5b89\u6a13",
          "types": [
            "premise"
          ]
        },
        {
          "long_name": "165-167",
          "short_name": "165-167",
          "types": [
            "street_number"
          ]
        },
        {
          "long_name": "\u5bf6\u5176\u5229\u8857",
          "short_name": "\u5bf6\u5176\u5229\u8857",
          "types": [
            "route"
          ]
        },
        {
          "long_name": "\u7d05\u78e1",
          "short_name": "\u7d05\u78e1",
          "types": [
            "neighborhood",
            "political"
          ]
        },
        {
          "long_name": "\u4e5d\u9f8d",
          "short_name": "\u4e5d\u9f8d",
          "types": [
            "administrative_area_level_1",
            "political"
          ]
        },
        {
          "long_name": "\u9999\u6e2f",
          "short_name": "HK",
          "types": [
            "country",
            "political"
          ]
        }
      ],
      "formatted_address": "\u9999\u6e2f\u7d05\u78e1\u5bf6\u5176\u5229\u8857165-167\u865f\u5bf6\u5b89\u6a13\u5730\u4e0bB\u53caC",
      "geometry": {
        "bounds": {
          "northeast": {
            "lat": 22.308283,
            "lng": 114.1838601
          },
          "southwest": {
            "lat": 22.308157,
            "lng": 114.1837331
          }
        },
        "location": {
          "lat": 22.3082171,
          "lng": 114.1837972
        },
        "location_type": "ROOFTOP",
        "viewport": {
          "northeast": {
            "lat": 22.3095689802915,
            "lng": 114.1851455802915
          },
          "southwest": {
            "lat": 22.3068710197085,
            "lng": 114.1824476197085
          }
        }
      },
      "partial_match": true,
      "place_id": "EkDlnLDkuItC5Y-KQywgUG8gT24gTGF1LCAxNjUtMTY3IEJ1bGtlbGV5IFN0LCBIdW5nIEhvbSwgSG9uZyBLb25nIicaJQoWChQKEgnVpz--3QAENBG-o9wHqf7K2BIL5Zyw5LiLQuWPikM",
      "types": [
        "subpremise"
      ]
    },
    {
      "address_components": [
        {
          "long_name": "161\u53f7",
          "short_name": "161\u53f7",
          "types": [
            "premise"
          ]
        },
        {
          "long_name": "\u5bf6\u5176\u5229\u8857",
          "short_name": "\u5bf6\u5176\u5229\u8857",
          "types": [
            "route"
          ]
        },
        {
          "long_name": "\u7d05\u78e1",
          "short_name": "\u7d05\u78e1",
          "types": [
            "neighborhood",
            "political"
          ]
        },
        {
          "long_name": "\u4e5d\u9f8d",
          "short_name": "\u4e5d\u9f8d",
          "types": [
            "administrative_area_level_1",
            "political"
          ]
        },
        {
          "long_name": "\u9999\u6e2f",
          "short_name": "HK",
          "types": [
            "country",
            "political"
          ]
        }
      ],
      "formatted_address": "\u9999\u6e2f\u7d05\u78e1\u5bf6\u5176\u5229\u8857161\u53f7",
      "geometry": {
        "location": {
          "lat": 22.3073209,
          "lng": 114.1849677
        },
        "location_type": "ROOFTOP",
        "viewport": {
          "northeast": {
            "lat": 22.3086698802915,
            "lng": 114.1863166802915
          },
          "southwest": {
            "lat": 22.3059719197085,
            "lng": 114.1836187197085
          }
        }
      },
      "partial_match": true,
      "place_id": "ChIJ4xok5d0ABDQRaKLqOL-fiSI",
      "plus_code": {
        "compound_code": "854M+WX \u9999\u6e2f",
        "global_code": "7PJP854M+WX"
      },
      "types": [
        "establishment",
        "food",
        "point_of_interest",
        "restaurant"
      ]
    }
  ],
  "licno": "2252805927",
  "timestamp": 1564968756,
  "version": "1564966095"
}
