{
  "adr_en": "WILDFIRE, SHOP C & D, G/F., LUEN HING APARTMENTS, NO. 36 FORBES STREET, KENNEDY TOWN, HONG KONG",
  "adr_tc": "\u9999\u6e2f\u4e2d\u897f\u5340\u5805\u5c3c\u5730\u57ce\u79d1\u58eb\u885736\u865f \u806f\u8208\u65b0\u6a13\u5730\u4e0bC&D\u8216 WILDFIRE",
  "geocode_en": [
    {
      "address_components": [
        {
          "long_name": "36",
          "short_name": "36",
          "types": [
            "street_number"
          ]
        },
        {
          "long_name": "Forbes Street",
          "short_name": "Forbes St",
          "types": [
            "route"
          ]
        },
        {
          "long_name": "Kennedy Town",
          "short_name": "Kennedy Town",
          "types": [
            "neighborhood",
            "political"
          ]
        },
        {
          "long_name": "Hong Kong Island",
          "short_name": "Hong Kong Island",
          "types": [
            "administrative_area_level_1",
            "political"
          ]
        },
        {
          "long_name": "Hong Kong",
          "short_name": "HK",
          "types": [
            "country",
            "political"
          ]
        }
      ],
      "formatted_address": "36 Forbes St, Kennedy Town, Hong Kong",
      "geometry": {
        "bounds": {
          "northeast": {
            "lat": 22.2816768,
            "lng": 114.1279712
          },
          "southwest": {
            "lat": 22.2814176,
            "lng": 114.1277228
          }
        },
        "location": {
          "lat": 22.2815906,
          "lng": 114.1278529
        },
        "location_type": "ROOFTOP",
        "viewport": {
          "northeast": {
            "lat": 22.2828961802915,
            "lng": 114.1291959802915
          },
          "southwest": {
            "lat": 22.2801982197085,
            "lng": 114.1264980197085
          }
        }
      },
      "partial_match": true,
      "place_id": "ChIJ0d9CmZD_AzQRbpqrGyB5CR0",
      "types": [
        "establishment",
        "premise"
      ]
    }
  ],
  "geocode_tc": [
    {
      "address_components": [
        {
          "long_name": "\u5730\u4e0bC&D\u8216",
          "short_name": "\u5730\u4e0bC&D\u8216",
          "types": [
            "subpremise"
          ]
        },
        {
          "long_name": "\u806f\u8208\u65b0\u6a13",
          "short_name": "\u806f\u8208\u65b0\u6a13",
          "types": [
            "premise"
          ]
        },
        {
          "long_name": "36",
          "short_name": "36",
          "types": [
            "street_number"
          ]
        },
        {
          "long_name": "\u79d1\u58eb\u8857",
          "short_name": "\u79d1\u58eb\u8857",
          "types": [
            "route"
          ]
        },
        {
          "long_name": "\u5805\u5c3c\u5730\u57ce",
          "short_name": "\u5805\u5c3c\u5730\u57ce",
          "types": [
            "neighborhood",
            "political"
          ]
        },
        {
          "long_name": "\u9999\u6e2f\u5cf6",
          "short_name": "\u9999\u6e2f\u5cf6",
          "types": [
            "administrative_area_level_1",
            "political"
          ]
        },
        {
          "long_name": "\u9999\u6e2f",
          "short_name": "HK",
          "types": [
            "country",
            "political"
          ]
        }
      ],
      "formatted_address": "\u9999\u6e2f\u5805\u5c3c\u5730\u57ce\u79d1\u58eb\u885736\u865f\u806f\u8208\u65b0\u6a13\u5730\u4e0bC&D\u8216",
      "geometry": {
        "bounds": {
          "northeast": {
            "lat": 22.2816768,
            "lng": 114.1279712
          },
          "southwest": {
            "lat": 22.2814176,
            "lng": 114.1277228
          }
        },
        "location": {
          "lat": 22.2815906,
          "lng": 114.1278529
        },
        "location_type": "ROOFTOP",
        "viewport": {
          "northeast": {
            "lat": 22.2828961802915,
            "lng": 114.1291959802915
          },
          "southwest": {
            "lat": 22.2801982197085,
            "lng": 114.1264980197085
          }
        }
      },
      "partial_match": true,
      "place_id": "EknlnLDkuItDJkToiJYsIEx1ZW4gSGluZyBBcGFydG1lbnRzLCAzNiBGb3JiZXMgU3QsIEtlbm5lZHkgVG93biwgSG9uZyBLb25nIigaJgoWChQKEgnR30KZkP8DNBFumqsbIHkJHRIM5Zyw5LiLQyZE6IiW",
      "types": [
        "subpremise"
      ]
    }
  ],
  "licno": "2218813445",
  "timestamp": 1564968756,
  "version": "1564966095"
}
