{
  "adr_en": "Tasty Vietnam HK, SHOP D3, G/F, TAK MAN BUILDING, 29 TAK MAN STREET, HUNG HOM, KOWLOON",
  "adr_tc": "\u4e5d\u9f8d\u7d05\u78e1\u5fb7\u6c11\u885729\u865f\u5fb7\u6c11\u5927\u5ec8\u5730\u4e0bD3\u92ea \u8d8a\u4e4b\u5473",
  "geocode_en": [
    {
      "address_components": [
        {
          "long_name": "29\u865f",
          "short_name": "29\u865f",
          "types": [
            "street_number"
          ]
        },
        {
          "long_name": "Tak Man Street",
          "short_name": "Tak Man St",
          "types": [
            "route"
          ]
        },
        {
          "long_name": "Hung Hom",
          "short_name": "Hung Hom",
          "types": [
            "neighborhood",
            "political"
          ]
        },
        {
          "long_name": "Kowloon",
          "short_name": "Kowloon",
          "types": [
            "administrative_area_level_1",
            "political"
          ]
        },
        {
          "long_name": "Hong Kong",
          "short_name": "HK",
          "types": [
            "country",
            "political"
          ]
        }
      ],
      "formatted_address": "29\u865f Tak Man St, Hung Hom, Hong Kong",
      "geometry": {
        "location": {
          "lat": 22.306208,
          "lng": 114.18833
        },
        "location_type": "ROOFTOP",
        "viewport": {
          "northeast": {
            "lat": 22.3075569802915,
            "lng": 114.1896789802915
          },
          "southwest": {
            "lat": 22.30485901970849,
            "lng": 114.1869810197085
          }
        }
      },
      "partial_match": true,
      "place_id": "ChIJp8iqK94ABDQR1T1hcM6wJQE",
      "plus_code": {
        "compound_code": "854Q+F8 Hong Kong",
        "global_code": "7PJP854Q+F8"
      },
      "types": [
        "establishment",
        "point_of_interest"
      ]
    },
    {
      "address_components": [
        {
          "long_name": "Whampoa Estate Tak Man Building",
          "short_name": "Whampoa Estate Tak Man Building",
          "types": [
            "premise"
          ]
        },
        {
          "long_name": "29",
          "short_name": "29",
          "types": [
            "street_number"
          ]
        },
        {
          "long_name": "Tak Man Street",
          "short_name": "Tak Man St",
          "types": [
            "route"
          ]
        },
        {
          "long_name": "Hung Hom",
          "short_name": "Hung Hom",
          "types": [
            "neighborhood",
            "political"
          ]
        },
        {
          "long_name": "Kowloon",
          "short_name": "Kowloon",
          "types": [
            "administrative_area_level_1",
            "political"
          ]
        },
        {
          "long_name": "Hong Kong",
          "short_name": "HK",
          "types": [
            "country",
            "political"
          ]
        }
      ],
      "formatted_address": "Whampoa Estate Tak Man Building, 29 Tak Man St, Hung Hom, Hong Kong",
      "geometry": {
        "bounds": {
          "northeast": {
            "lat": 22.3064381,
            "lng": 114.188522
          },
          "southwest": {
            "lat": 22.3059811,
            "lng": 114.1881339
          }
        },
        "location": {
          "lat": 22.3062296,
          "lng": 114.1883138
        },
        "location_type": "ROOFTOP",
        "viewport": {
          "northeast": {
            "lat": 22.30755858029151,
            "lng": 114.1896769302915
          },
          "southwest": {
            "lat": 22.3048606197085,
            "lng": 114.1869789697085
          }
        }
      },
      "partial_match": true,
      "place_id": "ChIJQ9uqK94ABDQRPAe89wj_W2M",
      "types": [
        "premise"
      ]
    }
  ],
  "geocode_tc": [
    {
      "address_components": [
        {
          "long_name": "\u7d05\u78e1",
          "short_name": "\u7d05\u78e1",
          "types": [
            "neighborhood",
            "political"
          ]
        },
        {
          "long_name": "\u4e5d\u9f8d",
          "short_name": "\u4e5d\u9f8d",
          "types": [
            "administrative_area_level_1",
            "political"
          ]
        },
        {
          "long_name": "\u9999\u6e2f",
          "short_name": "HK",
          "types": [
            "country",
            "political"
          ]
        }
      ],
      "formatted_address": "\u9999\u6e2f\u7d05\u78e1",
      "geometry": {
        "location": {
          "lat": 22.306226,
          "lng": 114.188317
        },
        "location_type": "GEOMETRIC_CENTER",
        "viewport": {
          "northeast": {
            "lat": 22.3075749802915,
            "lng": 114.1896659802915
          },
          "southwest": {
            "lat": 22.3048770197085,
            "lng": 114.1869680197085
          }
        }
      },
      "place_id": "ChIJwe-rK94ABDQR9lyik46CQmo",
      "plus_code": {
        "compound_code": "854Q+F8 \u9999\u6e2f",
        "global_code": "7PJP854Q+F8"
      },
      "types": [
        "establishment",
        "point_of_interest"
      ]
    }
  ],
  "licno": "3152802908",
  "timestamp": 1564975666,
  "version": "1564966095"
}
