{
  "adr_en": "Pizza Hut, MAJOR PORTION OF 3/F, GINZA PLAZA, 2A-2H SAI YEUNG CHOI STREET SOUTH, MONG KOK, KOWLOON",
  "adr_tc": "\u4e5d\u9f8d\u65fa\u89d2\u897f\u6d0b\u83dc\u8857\u53572A-2H\u865f\u9280\u57ce\u5ee3\u58343\u6a13\u8f03\u5927\u90e8\u4efd \u5fc5\u52dd\u5ba2",
  "geocode_en": [
    {
      "address_components": [
        {
          "long_name": "Ginza Plaza",
          "short_name": "Ginza Plaza",
          "types": [
            "premise"
          ]
        },
        {
          "long_name": "2A",
          "short_name": "2A",
          "types": [
            "street_number"
          ]
        },
        {
          "long_name": "Sai Yeung Choi Street South",
          "short_name": "Sai Yeung Choi St S",
          "types": [
            "route"
          ]
        },
        {
          "long_name": "Mong Kok",
          "short_name": "Mong Kok",
          "types": [
            "neighborhood",
            "political"
          ]
        },
        {
          "long_name": "Kowloon",
          "short_name": "Kowloon",
          "types": [
            "administrative_area_level_1",
            "political"
          ]
        },
        {
          "long_name": "Hong Kong",
          "short_name": "HK",
          "types": [
            "country",
            "political"
          ]
        }
      ],
      "formatted_address": "Ginza Plaza, 2A Sai Yeung Choi St S, Mong Kok, Hong Kong",
      "geometry": {
        "bounds": {
          "northeast": {
            "lat": 22.316462,
            "lng": 114.1709419
          },
          "southwest": {
            "lat": 22.3160211,
            "lng": 114.1706879
          }
        },
        "location": {
          "lat": 22.3162458,
          "lng": 114.1708277
        },
        "location_type": "ROOFTOP",
        "viewport": {
          "northeast": {
            "lat": 22.3175905302915,
            "lng": 114.1721638802915
          },
          "southwest": {
            "lat": 22.3148925697085,
            "lng": 114.1694659197085
          }
        }
      },
      "partial_match": true,
      "place_id": "ChIJPeFE4sYABDQRKE-QtwUDXvA",
      "types": [
        "premise"
      ]
    }
  ],
  "geocode_tc": [
    {
      "address_components": [
        {
          "long_name": "2A",
          "short_name": "2A",
          "types": [
            "street_number"
          ]
        },
        {
          "long_name": "Sai Yeung Choi Street South",
          "short_name": "Sai Yeung Choi St S",
          "types": [
            "route"
          ]
        },
        {
          "long_name": "Mong Kok",
          "short_name": "Mong Kok",
          "types": [
            "neighborhood",
            "political"
          ]
        },
        {
          "long_name": "\u9999\u6e2f",
          "short_name": "HK",
          "types": [
            "country",
            "political"
          ]
        }
      ],
      "formatted_address": "\u865f, 2A Sai Yeung Choi St S, Mong Kok, \u9999\u6e2f",
      "geometry": {
        "location": {
          "lat": 22.3162416,
          "lng": 114.1708149
        },
        "location_type": "ROOFTOP",
        "viewport": {
          "northeast": {
            "lat": 22.3175905802915,
            "lng": 114.1721638802915
          },
          "southwest": {
            "lat": 22.31489261970849,
            "lng": 114.1694659197085
          }
        }
      },
      "partial_match": true,
      "place_id": "ChIJJeFE4sYABDQRTL70EF9-uHs",
      "plus_code": {
        "compound_code": "858C+F8 \u9999\u6e2f",
        "global_code": "7PJP858C+F8"
      },
      "types": [
        "establishment",
        "point_of_interest",
        "shopping_mall"
      ]
    }
  ],
  "licno": "2262810485",
  "timestamp": 1564968756,
  "version": "1564966095"
}
