{
  "adr_en": "Ben\u54e5\u7c73\u7dab, SHOP NO. N16A ON G/F, 1-12, 14-16, 18, 20, 22 & 24 NASSAU STREET, 1, 3, 5 & 7 HUMBERT STREET, MEI FOO SUN CHUEN, KOWLOON",
  "adr_tc": "\u4e5d\u9f8d\u7f8e\u5b5a\u65b0\u90a8\u6046\u67cf\u88571,3,5,7\u865f \u862d\u79c0\u9053 1-12,14-16,18,20,22 & 24\u865f\u5730\u4e0b N16A\u92ea Ben\u54e5\u7c73\u7dab",
  "geocode_en": [
    {
      "address_components": [
        {
          "long_name": "Nassau Street",
          "short_name": "Nassau St",
          "types": [
            "route"
          ]
        },
        {
          "long_name": "Mei Foo Sun Chuen",
          "short_name": "Mei Foo",
          "types": [
            "neighborhood",
            "political"
          ]
        },
        {
          "long_name": "Kowloon",
          "short_name": "Kowloon",
          "types": [
            "administrative_area_level_1",
            "political"
          ]
        },
        {
          "long_name": "Hong Kong",
          "short_name": "HK",
          "types": [
            "country",
            "political"
          ]
        }
      ],
      "formatted_address": "N16A, Nassau St, Mei Foo Sun Chuen, Hong Kong",
      "geometry": {
        "location": {
          "lat": 22.3389949,
          "lng": 114.1385954
        },
        "location_type": "GEOMETRIC_CENTER",
        "viewport": {
          "northeast": {
            "lat": 22.3403438802915,
            "lng": 114.1399443802915
          },
          "southwest": {
            "lat": 22.3376459197085,
            "lng": 114.1372464197085
          }
        }
      },
      "partial_match": true,
      "place_id": "ChIJTS5SBRv5AzQRsJ9oSZX4Oe0",
      "plus_code": {
        "compound_code": "84QQ+HC Hong Kong",
        "global_code": "7PJP84QQ+HC"
      },
      "types": [
        "establishment",
        "food",
        "point_of_interest",
        "restaurant"
      ]
    },
    {
      "address_components": [
        {
          "long_name": "18",
          "short_name": "18",
          "types": [
            "subpremise"
          ]
        },
        {
          "long_name": "24",
          "short_name": "24",
          "types": [
            "street_number"
          ]
        },
        {
          "long_name": "Nassau Street",
          "short_name": "Nassau St",
          "types": [
            "route"
          ]
        },
        {
          "long_name": "Lai Chi Kok",
          "short_name": "Lai Chi Kok",
          "types": [
            "neighborhood",
            "political"
          ]
        },
        {
          "long_name": "Kowloon",
          "short_name": "Kowloon",
          "types": [
            "administrative_area_level_1",
            "political"
          ]
        },
        {
          "long_name": "Hong Kong",
          "short_name": "HK",
          "types": [
            "country",
            "political"
          ]
        }
      ],
      "formatted_address": "18, 24 Nassau St, Lai Chi Kok, Hong Kong",
      "geometry": {
        "location": {
          "lat": 22.338486,
          "lng": 114.139494
        },
        "location_type": "ROOFTOP",
        "viewport": {
          "northeast": {
            "lat": 22.3398349802915,
            "lng": 114.1408429802915
          },
          "southwest": {
            "lat": 22.3371370197085,
            "lng": 114.1381450197085
          }
        }
      },
      "partial_match": true,
      "place_id": "EigxOCwgMjQgTmFzc2F1IFN0LCBMYWkgQ2hpIEtvaywgSG9uZyBLb25nIh4aHAoWChQKEgkdOKoMq_gDNBHkIc0fB0_6XRICMTg",
      "types": [
        "subpremise"
      ]
    },
    {
      "address_components": [
        {
          "long_name": "20",
          "short_name": "20",
          "types": [
            "subpremise"
          ]
        },
        {
          "long_name": "24",
          "short_name": "24",
          "types": [
            "street_number"
          ]
        },
        {
          "long_name": "Nassau Street",
          "short_name": "Nassau St",
          "types": [
            "route"
          ]
        },
        {
          "long_name": "Lai Chi Kok",
          "short_name": "Lai Chi Kok",
          "types": [
            "neighborhood",
            "political"
          ]
        },
        {
          "long_name": "Kowloon",
          "short_name": "Kowloon",
          "types": [
            "administrative_area_level_1",
            "political"
          ]
        },
        {
          "long_name": "Hong Kong",
          "short_name": "HK",
          "types": [
            "country",
            "political"
          ]
        }
      ],
      "formatted_address": "20, 24 Nassau St, Lai Chi Kok, Hong Kong",
      "geometry": {
        "location": {
          "lat": 22.338486,
          "lng": 114.139494
        },
        "location_type": "ROOFTOP",
        "viewport": {
          "northeast": {
            "lat": 22.3398349802915,
            "lng": 114.1408429802915
          },
          "southwest": {
            "lat": 22.3371370197085,
            "lng": 114.1381450197085
          }
        }
      },
      "partial_match": true,
      "place_id": "EigyMCwgMjQgTmFzc2F1IFN0LCBMYWkgQ2hpIEtvaywgSG9uZyBLb25nIh4aHAoWChQKEgkdOKoMq_gDNBHkIc0fB0_6XRICMjA",
      "types": [
        "subpremise"
      ]
    },
    {
      "address_components": [
        {
          "long_name": "22",
          "short_name": "22",
          "types": [
            "subpremise"
          ]
        },
        {
          "long_name": "Mei Foo Sun Chuen Stage 5 - 5-7 Humbert St",
          "short_name": "Mei Foo Sun Chuen Stage 5 - 5-7 Humbert St",
          "types": [
            "premise"
          ]
        },
        {
          "long_name": "5-7",
          "short_name": "5-7",
          "types": [
            "street_number"
          ]
        },
        {
          "long_name": "Humbert Street",
          "short_name": "Humbert St",
          "types": [
            "route"
          ]
        },
        {
          "long_name": "Lai Chi Kok",
          "short_name": "Lai Chi Kok",
          "types": [
            "neighborhood",
            "political"
          ]
        },
        {
          "long_name": "Kowloon",
          "short_name": "Kowloon",
          "types": [
            "administrative_area_level_1",
            "political"
          ]
        },
        {
          "long_name": "Hong Kong",
          "short_name": "HK",
          "types": [
            "country",
            "political"
          ]
        }
      ],
      "formatted_address": "22, Mei Foo Sun Chuen Stage 5 - 5-7 Humbert St, 5-7 Humbert St, Lai Chi Kok, Hong Kong",
      "geometry": {
        "bounds": {
          "northeast": {
            "lat": 22.3397261,
            "lng": 114.139829
          },
          "southwest": {
            "lat": 22.3394431,
            "lng": 114.1395269
          }
        },
        "location": {
          "lat": 22.3395505,
          "lng": 114.1397086
        },
        "location_type": "ROOFTOP",
        "viewport": {
          "northeast": {
            "lat": 22.3409335802915,
            "lng": 114.1410269302915
          },
          "southwest": {
            "lat": 22.3382356197085,
            "lng": 114.1383289697085
          }
        }
      },
      "partial_match": true,
      "place_id": "ElYyMiwgTWVpIEZvbyBTdW4gQ2h1ZW4gU3RhZ2UgNSAtIDUtNyBIdW1iZXJ0IFN0LCA1LTcgSHVtYmVydCBTdCwgTGFpIENoaSBLb2ssIEhvbmcgS29uZyIeGhwKFgoUChIJh-7evKv4AzQR5EFRSPJ8Dn0SAjIy",
      "types": [
        "subpremise"
      ]
    },
    {
      "address_components": [
        {
          "long_name": "3",
          "short_name": "3",
          "types": [
            "subpremise"
          ]
        },
        {
          "long_name": "Mei Foo Sun Chuen Stage 5 - 5-7 Humbert St",
          "short_name": "Mei Foo Sun Chuen Stage 5 - 5-7 Humbert St",
          "types": [
            "premise"
          ]
        },
        {
          "long_name": "5-7",
          "short_name": "5-7",
          "types": [
            "street_number"
          ]
        },
        {
          "long_name": "Humbert Street",
          "short_name": "Humbert St",
          "types": [
            "route"
          ]
        },
        {
          "long_name": "Lai Chi Kok",
          "short_name": "Lai Chi Kok",
          "types": [
            "neighborhood",
            "political"
          ]
        },
        {
          "long_name": "Kowloon",
          "short_name": "Kowloon",
          "types": [
            "administrative_area_level_1",
            "political"
          ]
        },
        {
          "long_name": "Hong Kong",
          "short_name": "HK",
          "types": [
            "country",
            "political"
          ]
        }
      ],
      "formatted_address": "3, Mei Foo Sun Chuen Stage 5 - 5-7 Humbert St, 5-7 Humbert St, Lai Chi Kok, Hong Kong",
      "geometry": {
        "bounds": {
          "northeast": {
            "lat": 22.3397261,
            "lng": 114.139829
          },
          "southwest": {
            "lat": 22.3394431,
            "lng": 114.1395269
          }
        },
        "location": {
          "lat": 22.3395505,
          "lng": 114.1397086
        },
        "location_type": "ROOFTOP",
        "viewport": {
          "northeast": {
            "lat": 22.3409335802915,
            "lng": 114.1410269302915
          },
          "southwest": {
            "lat": 22.3382356197085,
            "lng": 114.1383289697085
          }
        }
      },
      "partial_match": true,
      "place_id": "ElUzLCBNZWkgRm9vIFN1biBDaHVlbiBTdGFnZSA1IC0gNS03IEh1bWJlcnQgU3QsIDUtNyBIdW1iZXJ0IFN0LCBMYWkgQ2hpIEtvaywgSG9uZyBLb25nIh0aGwoWChQKEgmH7t68q_gDNBHkQVFI8nwOfRIBMw",
      "types": [
        "subpremise"
      ]
    },
    {
      "address_components": [
        {
          "long_name": "1",
          "short_name": "1",
          "types": [
            "subpremise"
          ]
        },
        {
          "long_name": "Mei Foo Sun Chuen Stage 5 - 5-7 Humbert St",
          "short_name": "Mei Foo Sun Chuen Stage 5 - 5-7 Humbert St",
          "types": [
            "premise"
          ]
        },
        {
          "long_name": "5-7",
          "short_name": "5-7",
          "types": [
            "street_number"
          ]
        },
        {
          "long_name": "Humbert Street",
          "short_name": "Humbert St",
          "types": [
            "route"
          ]
        },
        {
          "long_name": "Lai Chi Kok",
          "short_name": "Lai Chi Kok",
          "types": [
            "neighborhood",
            "political"
          ]
        },
        {
          "long_name": "Kowloon",
          "short_name": "Kowloon",
          "types": [
            "administrative_area_level_1",
            "political"
          ]
        },
        {
          "long_name": "Hong Kong",
          "short_name": "HK",
          "types": [
            "country",
            "political"
          ]
        }
      ],
      "formatted_address": "1, Mei Foo Sun Chuen Stage 5 - 5-7 Humbert St, 5-7 Humbert St, Lai Chi Kok, Hong Kong",
      "geometry": {
        "bounds": {
          "northeast": {
            "lat": 22.3397261,
            "lng": 114.139829
          },
          "southwest": {
            "lat": 22.3394431,
            "lng": 114.1395269
          }
        },
        "location": {
          "lat": 22.3395505,
          "lng": 114.1397086
        },
        "location_type": "ROOFTOP",
        "viewport": {
          "northeast": {
            "lat": 22.3409335802915,
            "lng": 114.1410269302915
          },
          "southwest": {
            "lat": 22.3382356197085,
            "lng": 114.1383289697085
          }
        }
      },
      "partial_match": true,
      "place_id": "ElUxLCBNZWkgRm9vIFN1biBDaHVlbiBTdGFnZSA1IC0gNS03IEh1bWJlcnQgU3QsIDUtNyBIdW1iZXJ0IFN0LCBMYWkgQ2hpIEtvaywgSG9uZyBLb25nIh0aGwoWChQKEgmH7t68q_gDNBHkQVFI8nwOfRIBMQ",
      "types": [
        "subpremise"
      ]
    }
  ],
  "geocode_tc": [
    {
      "address_components": [
        {
          "long_name": "\u7f8e\u5b5a\u65b0\u90a8\u4e94\u671f\u862d\u79c0\u90535-7\u865f",
          "short_name": "\u7f8e\u5b5a\u65b0\u90a8\u4e94\u671f\u862d\u79c0\u90535-7\u865f",
          "types": [
            "premise"
          ]
        },
        {
          "long_name": "5-7",
          "short_name": "5-7",
          "types": [
            "street_number"
          ]
        },
        {
          "long_name": "\u862d\u79c0\u9053",
          "short_name": "\u862d\u79c0\u9053",
          "types": [
            "route"
          ]
        },
        {
          "long_name": "\u8354\u679d\u89d2",
          "short_name": "\u8354\u679d\u89d2",
          "types": [
            "neighborhood",
            "political"
          ]
        },
        {
          "long_name": "\u4e5d\u9f8d",
          "short_name": "\u4e5d\u9f8d",
          "types": [
            "administrative_area_level_1",
            "political"
          ]
        },
        {
          "long_name": "\u9999\u6e2f",
          "short_name": "HK",
          "types": [
            "country",
            "political"
          ]
        }
      ],
      "formatted_address": "\u9999\u6e2f\u8354\u679d\u89d2\u862d\u79c0\u90535-7\u865f\u7f8e\u5b5a\u65b0\u90a8\u4e94\u671f\u862d\u79c0\u90535-7\u865f",
      "geometry": {
        "bounds": {
          "northeast": {
            "lat": 22.3397201,
            "lng": 114.139141
          },
          "southwest": {
            "lat": 22.33942,
            "lng": 114.138836
          }
        },
        "location": {
          "lat": 22.3395803,
          "lng": 114.1389655
        },
        "location_type": "ROOFTOP",
        "viewport": {
          "northeast": {
            "lat": 22.3409190302915,
            "lng": 114.1403374802915
          },
          "southwest": {
            "lat": 22.3382210697085,
            "lng": 114.1376395197085
          }
        }
      },
      "partial_match": true,
      "place_id": "ChIJ-3Vumqv4AzQRIjTqqVmuwHc",
      "types": [
        "premise"
      ]
    },
    {
      "address_components": [
        {
          "long_name": "\u7f8e\u5b5a\u65b0\u90a8\u4e94\u671f\u6052\u67cf\u90531-3\u865f",
          "short_name": "\u7f8e\u5b5a\u65b0\u90a8\u4e94\u671f\u6052\u67cf\u90531-3\u865f",
          "types": [
            "premise"
          ]
        },
        {
          "long_name": "1-3",
          "short_name": "1-3",
          "types": [
            "street_number"
          ]
        },
        {
          "long_name": "\u6052\u67cf\u8857",
          "short_name": "\u6052\u67cf\u8857",
          "types": [
            "route"
          ]
        },
        {
          "long_name": "\u8354\u679d\u89d2",
          "short_name": "\u8354\u679d\u89d2",
          "types": [
            "neighborhood",
            "political"
          ]
        },
        {
          "long_name": "\u4e5d\u9f8d",
          "short_name": "\u4e5d\u9f8d",
          "types": [
            "administrative_area_level_1",
            "political"
          ]
        },
        {
          "long_name": "\u9999\u6e2f",
          "short_name": "HK",
          "types": [
            "country",
            "political"
          ]
        }
      ],
      "formatted_address": "\u9999\u6e2f\u8354\u679d\u89d2\u6052\u67cf\u88571-3\u865f\u7f8e\u5b5a\u65b0\u90a8\u4e94\u671f\u6052\u67cf\u90531-3\u865f",
      "geometry": {
        "bounds": {
          "northeast": {
            "lat": 22.339842,
            "lng": 114.139565
          },
          "southwest": {
            "lat": 22.339557,
            "lng": 114.139235
          }
        },
        "location": {
          "lat": 22.3396816,
          "lng": 114.1394299
        },
        "location_type": "ROOFTOP",
        "viewport": {
          "northeast": {
            "lat": 22.34104848029151,
            "lng": 114.1407489802915
          },
          "southwest": {
            "lat": 22.3383505197085,
            "lng": 114.1380510197085
          }
        }
      },
      "partial_match": true,
      "place_id": "ChIJtxnJl6v4AzQRetC2gbJc6lE",
      "types": [
        "premise"
      ]
    },
    {
      "address_components": [
        {
          "long_name": "Nassau Street",
          "short_name": "Nassau St",
          "types": [
            "route"
          ]
        },
        {
          "long_name": "Mei Foo Sun Chuen",
          "short_name": "Mei Foo",
          "types": [
            "neighborhood",
            "political"
          ]
        },
        {
          "long_name": "Kowloon",
          "short_name": "Kowloon",
          "types": [
            "administrative_area_level_1",
            "political"
          ]
        },
        {
          "long_name": "\u9999\u6e2f",
          "short_name": "HK",
          "types": [
            "country",
            "political"
          ]
        }
      ],
      "formatted_address": "N16A, Nassau St, Mei Foo Sun Chuen, \u9999\u6e2f",
      "geometry": {
        "location": {
          "lat": 22.3389949,
          "lng": 114.1385954
        },
        "location_type": "GEOMETRIC_CENTER",
        "viewport": {
          "northeast": {
            "lat": 22.3403438802915,
            "lng": 114.1399443802915
          },
          "southwest": {
            "lat": 22.3376459197085,
            "lng": 114.1372464197085
          }
        }
      },
      "partial_match": true,
      "place_id": "ChIJTS5SBRv5AzQRsJ9oSZX4Oe0",
      "plus_code": {
        "compound_code": "84QQ+HC \u9999\u6e2f",
        "global_code": "7PJP84QQ+HC"
      },
      "types": [
        "establishment",
        "food",
        "point_of_interest",
        "restaurant"
      ]
    }
  ],
  "licno": "3163802050",
  "timestamp": 1564975666,
  "version": "1564966095"
}
