{
  "adr_en": "\u53cb\u9593\u5c0f\u83dc\u9928, SHOP C, G/F, GARTSIDE BUILDING, NO. 24 YUK WAH CRESCENT, TSZ WAN SHAN, KOWLOON",
  "adr_tc": "\u4e5d\u9f8d\u6148\u96f2\u5c71\u6bd3\u83ef\u91cc24\u865f\u5609\u831c\u5927\u5ec8\u5730\u4e0bC\u92ea \u53cb\u9593\u5c0f\u83dc\u9928",
  "geocode_en": [
    {
      "address_components": [
        {
          "long_name": "Yuk Wah Crescent",
          "short_name": "Yuk Wah Cres",
          "types": [
            "route"
          ]
        },
        {
          "long_name": "Tsz Wan Shan",
          "short_name": "Tsz Wan Shan",
          "types": [
            "neighborhood",
            "political"
          ]
        },
        {
          "long_name": "Kowloon",
          "short_name": "Kowloon",
          "types": [
            "administrative_area_level_1",
            "political"
          ]
        },
        {
          "long_name": "Hong Kong",
          "short_name": "HK",
          "types": [
            "country",
            "political"
          ]
        }
      ],
      "formatted_address": "Yuk Wah Cres, Tsz Wan Shan, Hong Kong",
      "geometry": {
        "location": {
          "lat": 22.346947,
          "lng": 114.202754
        },
        "location_type": "GEOMETRIC_CENTER",
        "viewport": {
          "northeast": {
            "lat": 22.3482959802915,
            "lng": 114.2041029802915
          },
          "southwest": {
            "lat": 22.3455980197085,
            "lng": 114.2014050197085
          }
        }
      },
      "partial_match": true,
      "place_id": "ChIJ48WFkegHBDQR02LYqDzIjK8",
      "plus_code": {
        "compound_code": "86W3+Q4 Hong Kong",
        "global_code": "7PJP86W3+Q4"
      },
      "types": [
        "establishment",
        "food",
        "point_of_interest",
        "restaurant"
      ]
    },
    {
      "address_components": [
        {
          "long_name": "Gartside Building",
          "short_name": "Gartside Building",
          "types": [
            "premise"
          ]
        },
        {
          "long_name": "24",
          "short_name": "24",
          "types": [
            "street_number"
          ]
        },
        {
          "long_name": "Yuk Wah Crescent",
          "short_name": "Yuk Wah Cres",
          "types": [
            "route"
          ]
        },
        {
          "long_name": "Tsz Wan Shan",
          "short_name": "Tsz Wan Shan",
          "types": [
            "neighborhood",
            "political"
          ]
        },
        {
          "long_name": "Kowloon",
          "short_name": "Kowloon",
          "types": [
            "administrative_area_level_1",
            "political"
          ]
        },
        {
          "long_name": "Hong Kong",
          "short_name": "HK",
          "types": [
            "country",
            "political"
          ]
        }
      ],
      "formatted_address": "Gartside Building, 24 Yuk Wah Cres, Tsz Wan Shan, Hong Kong",
      "geometry": {
        "bounds": {
          "northeast": {
            "lat": 22.3467741,
            "lng": 114.202828
          },
          "southwest": {
            "lat": 22.3466931,
            "lng": 114.2026999
          }
        },
        "location": {
          "lat": 22.3467439,
          "lng": 114.2027689
        },
        "location_type": "ROOFTOP",
        "viewport": {
          "northeast": {
            "lat": 22.3480825802915,
            "lng": 114.2041129302915
          },
          "southwest": {
            "lat": 22.3453846197085,
            "lng": 114.2014149697085
          }
        }
      },
      "partial_match": true,
      "place_id": "ChIJZ4o9N90GBDQRqlRg77UAqYw",
      "types": [
        "premise"
      ]
    }
  ],
  "geocode_tc": [
    {
      "address_components": [
        {
          "long_name": "\u6bd3\u83ef\u91cc",
          "short_name": "\u6bd3\u83ef\u91cc",
          "types": [
            "route"
          ]
        },
        {
          "long_name": "\u6148\u96f2\u5c71",
          "short_name": "\u6148\u96f2\u5c71",
          "types": [
            "neighborhood",
            "political"
          ]
        },
        {
          "long_name": "\u4e5d\u9f8d",
          "short_name": "\u4e5d\u9f8d",
          "types": [
            "administrative_area_level_1",
            "political"
          ]
        },
        {
          "long_name": "\u9999\u6e2f",
          "short_name": "HK",
          "types": [
            "country",
            "political"
          ]
        }
      ],
      "formatted_address": "\u9999\u6e2f\u6148\u96f2\u5c71\u6bd3\u83ef\u91cc",
      "geometry": {
        "location": {
          "lat": 22.346947,
          "lng": 114.202754
        },
        "location_type": "GEOMETRIC_CENTER",
        "viewport": {
          "northeast": {
            "lat": 22.3482959802915,
            "lng": 114.2041029802915
          },
          "southwest": {
            "lat": 22.3455980197085,
            "lng": 114.2014050197085
          }
        }
      },
      "place_id": "ChIJ48WFkegHBDQR02LYqDzIjK8",
      "plus_code": {
        "compound_code": "86W3+Q4 \u9999\u6e2f",
        "global_code": "7PJP86W3+Q4"
      },
      "types": [
        "establishment",
        "food",
        "point_of_interest",
        "restaurant"
      ]
    }
  ],
  "licno": "2253803034",
  "timestamp": 1564968756,
  "version": "1564966095"
}
