{
  "adr_en": "\u91d1\u57ce, SHOP NO. 19A, G/F, BLOCK C, GREENERY PLAZA, TAI PO TAI WO ROAD, TAI PO, NEW TERRITORIES",
  "adr_tc": "\u65b0\u754c\u5927\u57d4\u5927\u57d4\u592a\u548c\u8def\u7fe0\u6021\u82b1\u5712C\u5ea7\u5730\u4e0b19A\u8216 \u91d1\u57ce",
  "geocode_en": [
    {
      "address_components": [
        {
          "long_name": "Greenery Plaza Block C",
          "short_name": "Greenery Plaza Block C",
          "types": [
            "premise"
          ]
        },
        {
          "long_name": "3",
          "short_name": "3",
          "types": [
            "street_number"
          ]
        },
        {
          "long_name": "Tai Po Tai Wo Road",
          "short_name": "Tai Po Tai Wo Rd",
          "types": [
            "route"
          ]
        },
        {
          "long_name": "Tai Po",
          "short_name": "Tai Po",
          "types": [
            "neighborhood",
            "political"
          ]
        },
        {
          "long_name": "New Territories",
          "short_name": "New Territories",
          "types": [
            "administrative_area_level_1",
            "political"
          ]
        },
        {
          "long_name": "Hong Kong",
          "short_name": "HK",
          "types": [
            "country",
            "political"
          ]
        }
      ],
      "formatted_address": "Greenery Plaza Block C, 3 Tai Po Tai Wo Rd, Tai Po, Hong Kong",
      "geometry": {
        "bounds": {
          "northeast": {
            "lat": 22.4530511,
            "lng": 114.1628479
          },
          "southwest": {
            "lat": 22.452845,
            "lng": 114.1626161
          }
        },
        "location": {
          "lat": 22.4529412,
          "lng": 114.1627462
        },
        "location_type": "ROOFTOP",
        "viewport": {
          "northeast": {
            "lat": 22.4542970302915,
            "lng": 114.1640809802915
          },
          "southwest": {
            "lat": 22.4515990697085,
            "lng": 114.1613830197085
          }
        }
      },
      "partial_match": true,
      "place_id": "ChIJPWZamjkIBDQRhC39Hhwm4sk",
      "types": [
        "premise"
      ]
    }
  ],
  "geocode_tc": [
    {
      "address_components": [
        {
          "long_name": "24",
          "short_name": "24",
          "types": [
            "street_number"
          ]
        },
        {
          "long_name": "\u5927\u57d4\u592a\u548c\u8def",
          "short_name": "\u5927\u57d4\u592a\u548c\u8def",
          "types": [
            "route"
          ]
        },
        {
          "long_name": "\u5927\u57d4",
          "short_name": "\u5927\u57d4",
          "types": [
            "neighborhood",
            "political"
          ]
        },
        {
          "long_name": "\u65b0\u754c",
          "short_name": "\u65b0\u754c",
          "types": [
            "administrative_area_level_1",
            "political"
          ]
        },
        {
          "long_name": "\u9999\u6e2f",
          "short_name": "HK",
          "types": [
            "country",
            "political"
          ]
        }
      ],
      "formatted_address": "\u9999\u6e2f\u5927\u57d4\u5927\u57d4\u592a\u548c\u8def24\u865f",
      "geometry": {
        "location": {
          "lat": 22.452629,
          "lng": 114.163198
        },
        "location_type": "ROOFTOP",
        "viewport": {
          "northeast": {
            "lat": 22.4539779802915,
            "lng": 114.1645469802915
          },
          "southwest": {
            "lat": 22.45128001970849,
            "lng": 114.1618490197085
          }
        }
      },
      "place_id": "ChIJbYFOnzkIBDQRj--6G8lD7cg",
      "plus_code": {
        "compound_code": "F537+37 \u9999\u6e2f",
        "global_code": "7PJPF537+37"
      },
      "types": [
        "establishment",
        "point_of_interest"
      ]
    }
  ],
  "licno": "3195000383",
  "timestamp": 1564975666,
  "version": "1564966095"
}
