{
  "adr_en": "Starbucks Coffee, SHOP UG39 AND PORTIONS AT SHOP FRONT CORRIDOR, UG/F, THE LAGUNA MALL, NO. 8 LAGUNA VERDE AVENUE, HUNG HOM, KOWLOON",
  "adr_tc": "\u4e5d\u9f8d\u7d05\u78e1\u6d77\u9038\u90538\u865f\u6d77\u9038\u574a\u5730\u4e0b\u9ad8\u5c64 UG39\u865f\u8216\u53ca\u8216\u524d\u90e8\u4efd\u8d70\u5eca Starbucks Coffee",
  "geocode_en": [
    {
      "address_components": [
        {
          "long_name": "8",
          "short_name": "8",
          "types": [
            "street_number"
          ]
        },
        {
          "long_name": "Laguna Verde Avenue",
          "short_name": "Laguna Verde Ave",
          "types": [
            "route"
          ]
        },
        {
          "long_name": "Laguna Verde",
          "short_name": "Laguna Verde",
          "types": [
            "neighborhood",
            "political"
          ]
        },
        {
          "long_name": "Hong Kong",
          "short_name": "HK",
          "types": [
            "country",
            "political"
          ]
        }
      ],
      "formatted_address": "\u6d77\u9038\u574a, 8 Laguna Verde Ave, Laguna Verde, Hong Kong",
      "geometry": {
        "location": {
          "lat": 22.3087652,
          "lng": 114.1910584
        },
        "location_type": "ROOFTOP",
        "viewport": {
          "northeast": {
            "lat": 22.3101141802915,
            "lng": 114.1924073802915
          },
          "southwest": {
            "lat": 22.3074162197085,
            "lng": 114.1897094197085
          }
        }
      },
      "partial_match": true,
      "place_id": "ChIJmf_hYt8ABDQR6kRSwoqEoFo",
      "plus_code": {
        "compound_code": "855R+GC Hong Kong",
        "global_code": "7PJP855R+GC"
      },
      "types": [
        "establishment",
        "point_of_interest",
        "shopping_mall"
      ]
    }
  ],
  "geocode_tc": [
    {
      "address_components": [
        {
          "long_name": "\u6d77\u9038\u574a",
          "short_name": "\u6d77\u9038\u574a",
          "types": [
            "premise"
          ]
        },
        {
          "long_name": "8",
          "short_name": "8",
          "types": [
            "street_number"
          ]
        },
        {
          "long_name": "\u6d77\u9038\u9053",
          "short_name": "\u6d77\u9038\u9053",
          "types": [
            "route"
          ]
        },
        {
          "long_name": "\u6d77\u9038\u8c6a\u5712",
          "short_name": "\u6d77\u9038\u8c6a\u5712",
          "types": [
            "neighborhood",
            "political"
          ]
        },
        {
          "long_name": "\u4e5d\u9f8d",
          "short_name": "\u4e5d\u9f8d",
          "types": [
            "administrative_area_level_1",
            "political"
          ]
        },
        {
          "long_name": "\u9999\u6e2f",
          "short_name": "HK",
          "types": [
            "country",
            "political"
          ]
        }
      ],
      "formatted_address": "\u9999\u6e2f\u6d77\u9038\u8c6a\u5712\u6d77\u9038\u90538\u865f\u6d77\u9038\u574a",
      "geometry": {
        "bounds": {
          "northeast": {
            "lat": 22.3098836,
            "lng": 114.192048
          },
          "southwest": {
            "lat": 22.3086477,
            "lng": 114.1908788
          }
        },
        "location": {
          "lat": 22.3094404,
          "lng": 114.191588
        },
        "location_type": "ROOFTOP",
        "viewport": {
          "northeast": {
            "lat": 22.3106146302915,
            "lng": 114.1928123802915
          },
          "southwest": {
            "lat": 22.3079166697085,
            "lng": 114.1901144197085
          }
        }
      },
      "partial_match": true,
      "place_id": "ChIJeQhtYt8ABDQRmo_60KX_pgs",
      "types": [
        "premise"
      ]
    }
  ],
  "licno": "3152802050",
  "timestamp": 1564975666,
  "version": "1564966095"
}
