{
  "adr_en": "Fridge, SHOP I & J, G/F., 48-52A PEEL STREET, CENTRAL, HONG KONG",
  "adr_tc": "\u9999\u6e2f\u4e2d\u74b0\u5351\u5229\u885748-52A\u865f\u5730\u4e0bI\u53caJ\u865f\u8216 Fridge",
  "geocode_en": [
    {
      "address_components": [
        {
          "long_name": "48",
          "short_name": "48",
          "types": [
            "street_number"
          ]
        },
        {
          "long_name": "Peel Street",
          "short_name": "Peel St",
          "types": [
            "route"
          ]
        },
        {
          "long_name": "Central",
          "short_name": "Central",
          "types": [
            "neighborhood",
            "political"
          ]
        },
        {
          "long_name": "Hong Kong Island",
          "short_name": "Hong Kong Island",
          "types": [
            "administrative_area_level_1",
            "political"
          ]
        },
        {
          "long_name": "Hong Kong",
          "short_name": "HK",
          "types": [
            "country",
            "political"
          ]
        }
      ],
      "formatted_address": "48 Peel St, Central, Hong Kong",
      "geometry": {
        "location": {
          "lat": 22.282488,
          "lng": 114.15266
        },
        "location_type": "ROOFTOP",
        "viewport": {
          "northeast": {
            "lat": 22.2838369802915,
            "lng": 114.1540089802915
          },
          "southwest": {
            "lat": 22.2811390197085,
            "lng": 114.1513110197085
          }
        }
      },
      "partial_match": true,
      "place_id": "ChIJo4rdnnsABDQRiCQwxDTPidg",
      "plus_code": {
        "compound_code": "75J3+X3 Central, Hong Kong",
        "global_code": "7PJP75J3+X3"
      },
      "types": [
        "bar",
        "establishment",
        "food",
        "point_of_interest",
        "restaurant"
      ]
    },
    {
      "address_components": [
        {
          "long_name": "G",
          "short_name": "G",
          "types": [
            "subpremise"
          ]
        },
        {
          "long_name": "Garley Building",
          "short_name": "Garley Building",
          "types": [
            "premise"
          ]
        },
        {
          "long_name": "48-52A",
          "short_name": "48-52A",
          "types": [
            "street_number"
          ]
        },
        {
          "long_name": "Peel Street",
          "short_name": "Peel St",
          "types": [
            "route"
          ]
        },
        {
          "long_name": "Central",
          "short_name": "Central",
          "types": [
            "neighborhood",
            "political"
          ]
        },
        {
          "long_name": "Hong Kong Island",
          "short_name": "Hong Kong Island",
          "types": [
            "administrative_area_level_1",
            "political"
          ]
        },
        {
          "long_name": "Hong Kong",
          "short_name": "HK",
          "types": [
            "country",
            "political"
          ]
        }
      ],
      "formatted_address": "G, Garley Building, 48-52A Peel St, Central, Hong Kong",
      "geometry": {
        "bounds": {
          "northeast": {
            "lat": 22.282576,
            "lng": 114.152901
          },
          "southwest": {
            "lat": 22.282317,
            "lng": 114.152538
          }
        },
        "location": {
          "lat": 22.282456,
          "lng": 114.1526907
        },
        "location_type": "ROOFTOP",
        "viewport": {
          "northeast": {
            "lat": 22.2837954802915,
            "lng": 114.1540684802915
          },
          "southwest": {
            "lat": 22.2810975197085,
            "lng": 114.1513705197085
          }
        }
      },
      "partial_match": true,
      "place_id": "EjZHLCBHYXJsZXkgQnVpbGRpbmcsIDQ4LTUyQSBQZWVsIFN0LCBDZW50cmFsLCBIb25nIEtvbmciHRobChYKFAoSCcW_vJ97AAQ0EaTOfT1q5zxLEgFH",
      "types": [
        "subpremise"
      ]
    },
    {
      "address_components": [
        {
          "long_name": "F",
          "short_name": "F",
          "types": [
            "subpremise"
          ]
        },
        {
          "long_name": "Garley Building",
          "short_name": "Garley Building",
          "types": [
            "premise"
          ]
        },
        {
          "long_name": "48-52A",
          "short_name": "48-52A",
          "types": [
            "street_number"
          ]
        },
        {
          "long_name": "Peel Street",
          "short_name": "Peel St",
          "types": [
            "route"
          ]
        },
        {
          "long_name": "Central",
          "short_name": "Central",
          "types": [
            "neighborhood",
            "political"
          ]
        },
        {
          "long_name": "Hong Kong Island",
          "short_name": "Hong Kong Island",
          "types": [
            "administrative_area_level_1",
            "political"
          ]
        },
        {
          "long_name": "Hong Kong",
          "short_name": "HK",
          "types": [
            "country",
            "political"
          ]
        }
      ],
      "formatted_address": "F, Garley Building, 48-52A Peel St, Central, Hong Kong",
      "geometry": {
        "bounds": {
          "northeast": {
            "lat": 22.282576,
            "lng": 114.152901
          },
          "southwest": {
            "lat": 22.282317,
            "lng": 114.152538
          }
        },
        "location": {
          "lat": 22.282456,
          "lng": 114.1526907
        },
        "location_type": "ROOFTOP",
        "viewport": {
          "northeast": {
            "lat": 22.2837954802915,
            "lng": 114.1540684802915
          },
          "southwest": {
            "lat": 22.2810975197085,
            "lng": 114.1513705197085
          }
        }
      },
      "partial_match": true,
      "place_id": "EjZGLCBHYXJsZXkgQnVpbGRpbmcsIDQ4LTUyQSBQZWVsIFN0LCBDZW50cmFsLCBIb25nIEtvbmciHRobChYKFAoSCcW_vJ97AAQ0EaTOfT1q5zxLEgFG",
      "types": [
        "subpremise"
      ]
    }
  ],
  "geocode_tc": [
    {
      "address_components": [
        {
          "long_name": "\u5730\u4e0bI\u53caJ",
          "short_name": "\u5730\u4e0bI\u53caJ",
          "types": [
            "subpremise"
          ]
        },
        {
          "long_name": "\u5609\u5229\u5927\u5ec8",
          "short_name": "\u5609\u5229\u5927\u5ec8",
          "types": [
            "premise"
          ]
        },
        {
          "long_name": "48-52A",
          "short_name": "48-52A",
          "types": [
            "street_number"
          ]
        },
        {
          "long_name": "\u5351\u5229\u8857",
          "short_name": "\u5351\u5229\u8857",
          "types": [
            "route"
          ]
        },
        {
          "long_name": "\u4e2d\u74b0",
          "short_name": "\u4e2d\u74b0",
          "types": [
            "neighborhood",
            "political"
          ]
        },
        {
          "long_name": "\u9999\u6e2f\u5cf6",
          "short_name": "\u9999\u6e2f\u5cf6",
          "types": [
            "administrative_area_level_1",
            "political"
          ]
        },
        {
          "long_name": "\u9999\u6e2f",
          "short_name": "HK",
          "types": [
            "country",
            "political"
          ]
        }
      ],
      "formatted_address": "\u9999\u6e2f\u4e2d\u74b0\u5351\u5229\u885748-52A\u865f\u5609\u5229\u5927\u5ec8\u5730\u4e0bI\u53caJ",
      "geometry": {
        "bounds": {
          "northeast": {
            "lat": 22.282576,
            "lng": 114.152901
          },
          "southwest": {
            "lat": 22.282317,
            "lng": 114.152538
          }
        },
        "location": {
          "lat": 22.282456,
          "lng": 114.1526907
        },
        "location_type": "ROOFTOP",
        "viewport": {
          "northeast": {
            "lat": 22.2837954802915,
            "lng": 114.1540684802915
          },
          "southwest": {
            "lat": 22.2810975197085,
            "lng": 114.1513705197085
          }
        }
      },
      "partial_match": true,
      "place_id": "EkDlnLDkuItJ5Y-KSiwgR2FybGV5IEJ1aWxkaW5nLCA0OC01MkEgUGVlbCBTdCwgQ2VudHJhbCwgSG9uZyBLb25nIicaJQoWChQKEgnFv7yfewAENBGkzn09auc8SxIL5Zyw5LiLSeWPiko",
      "types": [
        "subpremise"
      ]
    },
    {
      "address_components": [
        {
          "long_name": "48",
          "short_name": "48",
          "types": [
            "street_number"
          ]
        },
        {
          "long_name": "\u5351\u5229\u8857",
          "short_name": "\u5351\u5229\u8857",
          "types": [
            "route"
          ]
        },
        {
          "long_name": "\u4e2d\u74b0",
          "short_name": "\u4e2d\u74b0",
          "types": [
            "neighborhood",
            "political"
          ]
        },
        {
          "long_name": "\u9999\u6e2f\u5cf6",
          "short_name": "\u9999\u6e2f\u5cf6",
          "types": [
            "administrative_area_level_1",
            "political"
          ]
        },
        {
          "long_name": "\u9999\u6e2f",
          "short_name": "HK",
          "types": [
            "country",
            "political"
          ]
        }
      ],
      "formatted_address": "\u9999\u6e2f\u4e2d\u74b0\u5351\u5229\u885748\u865f",
      "geometry": {
        "location": {
          "lat": 22.282488,
          "lng": 114.15266
        },
        "location_type": "ROOFTOP",
        "viewport": {
          "northeast": {
            "lat": 22.2838369802915,
            "lng": 114.1540089802915
          },
          "southwest": {
            "lat": 22.2811390197085,
            "lng": 114.1513110197085
          }
        }
      },
      "partial_match": true,
      "place_id": "ChIJo4rdnnsABDQRiCQwxDTPidg",
      "plus_code": {
        "compound_code": "75J3+X3 \u9999\u6e2f\u4e2d\u74b0",
        "global_code": "7PJP75J3+X3"
      },
      "types": [
        "bar",
        "establishment",
        "food",
        "point_of_interest",
        "restaurant"
      ]
    }
  ],
  "licno": "3118807107",
  "timestamp": 1564975666,
  "version": "1564966095"
}
