{
  "adr_en": "\u65b0\u6b63\u8a18, SHOP 4, G/F, HO SING BUILDING, YLTL 305, KAM FAI PATH, YUEN LONG, NEW TERRITORIES",
  "adr_tc": "\u65b0\u754c\u5143\u6717\u91d1\u8f1d\u5f91\u5143\u6717\u5e02\u5730\u6bb5\u7b2c305\u865f\u597d\u76db\u6d0b\u6a13\u5730\u4e0b4\u865f\u92ea \u65b0\u6b63\u8a18",
  "geocode_en": [
    {
      "address_components": [
        {
          "long_name": "Hong Kong",
          "short_name": "HK",
          "types": [
            "country",
            "political"
          ]
        }
      ],
      "formatted_address": "Hong Kong, \u5143\u6717\u91d1\u8f1d\u5f9128\u865f\u597d\u76db\u5927\u5ec8\u5730\u4e0b1\u865f\u8216",
      "geometry": {
        "location": {
          "lat": 22.442417,
          "lng": 114.026185
        },
        "location_type": "GEOMETRIC_CENTER",
        "viewport": {
          "northeast": {
            "lat": 22.4437659802915,
            "lng": 114.0275339802915
          },
          "southwest": {
            "lat": 22.4410680197085,
            "lng": 114.0248360197085
          }
        }
      },
      "partial_match": true,
      "place_id": "ChIJnyWXvAr6AzQRX-2mJKH09Xw",
      "plus_code": {
        "compound_code": "C2RG+XF Hong Kong",
        "global_code": "7PJPC2RG+XF"
      },
      "types": [
        "establishment",
        "food",
        "point_of_interest",
        "restaurant"
      ]
    },
    {
      "address_components": [
        {
          "long_name": "Ho Sing Building",
          "short_name": "Ho Sing Building",
          "types": [
            "premise"
          ]
        },
        {
          "long_name": "28",
          "short_name": "28",
          "types": [
            "street_number"
          ]
        },
        {
          "long_name": "Kam Fai Path",
          "short_name": "Kam Fai Path",
          "types": [
            "route"
          ]
        },
        {
          "long_name": "Yuen Long",
          "short_name": "Yuen Long",
          "types": [
            "neighborhood",
            "political"
          ]
        },
        {
          "long_name": "New Territories",
          "short_name": "New Territories",
          "types": [
            "administrative_area_level_1",
            "political"
          ]
        },
        {
          "long_name": "Hong Kong",
          "short_name": "HK",
          "types": [
            "country",
            "political"
          ]
        }
      ],
      "formatted_address": "Ho Sing Building, 28 Kam Fai Path, Yuen Long, Hong Kong",
      "geometry": {
        "bounds": {
          "northeast": {
            "lat": 22.442486,
            "lng": 114.026393
          },
          "southwest": {
            "lat": 22.442327,
            "lng": 114.0259591
          }
        },
        "location": {
          "lat": 22.4423936,
          "lng": 114.0261755
        },
        "location_type": "ROOFTOP",
        "viewport": {
          "northeast": {
            "lat": 22.4437554802915,
            "lng": 114.0275250302915
          },
          "southwest": {
            "lat": 22.4410575197085,
            "lng": 114.0248270697085
          }
        }
      },
      "partial_match": true,
      "place_id": "ChIJWYKQvAr6AzQRijYeQ1XsHZM",
      "types": [
        "premise"
      ]
    }
  ],
  "geocode_tc": [
    {
      "address_components": [
        {
          "long_name": "\u9999\u6e2f",
          "short_name": "HK",
          "types": [
            "country",
            "political"
          ]
        }
      ],
      "formatted_address": "\u9999\u6e2f\u5143\u6717\u91d1\u8f1d\u5f9128\u865f\u597d\u76db\u5927\u5ec8\u5730\u4e0b1\u865f\u8216",
      "geometry": {
        "location": {
          "lat": 22.442417,
          "lng": 114.026185
        },
        "location_type": "GEOMETRIC_CENTER",
        "viewport": {
          "northeast": {
            "lat": 22.4437659802915,
            "lng": 114.0275339802915
          },
          "southwest": {
            "lat": 22.4410680197085,
            "lng": 114.0248360197085
          }
        }
      },
      "partial_match": true,
      "place_id": "ChIJnyWXvAr6AzQRX-2mJKH09Xw",
      "plus_code": {
        "compound_code": "C2RG+XF \u9999\u6e2f",
        "global_code": "7PJPC2RG+XF"
      },
      "types": [
        "establishment",
        "food",
        "point_of_interest",
        "restaurant"
      ]
    }
  ],
  "licno": "2294804993",
  "timestamp": 1564975666,
  "version": "1564966095"
}
