{
  "adr_en": "One More, SHOP NO. 9A, G/F., SITE 1, WHAMPOA GARDEN, HUNG HOM, KOWLOON",
  "adr_tc": "\u4e5d\u9f8d\u7d05\u78e1\u9ec3\u57d4\u82b1\u5712\u7b2c1\u671f\u5730\u4e0b9A\u8216 \u591a\u4e00\u5ea6",
  "geocode_en": [
    {
      "address_components": [
        {
          "long_name": "Kowloon Tong",
          "short_name": "Kowloon Tong",
          "types": [
            "neighborhood",
            "political"
          ]
        },
        {
          "long_name": "Kowloon",
          "short_name": "Kowloon",
          "types": [
            "administrative_area_level_1",
            "political"
          ]
        },
        {
          "long_name": "Hong Kong",
          "short_name": "HK",
          "types": [
            "country",
            "political"
          ]
        }
      ],
      "formatted_address": "Whampoa Garden, Shop 9, G/F, Juniper Mansion, Site 1, Kowloon Tong, Hong Kong",
      "geometry": {
        "location": {
          "lat": 22.3047172,
          "lng": 114.1878235
        },
        "location_type": "GEOMETRIC_CENTER",
        "viewport": {
          "northeast": {
            "lat": 22.3060661802915,
            "lng": 114.1891724802915
          },
          "southwest": {
            "lat": 22.3033682197085,
            "lng": 114.1864745197085
          }
        }
      },
      "place_id": "ChIJgVJIdDEHBDQRKifdBUFczAU",
      "plus_code": {
        "compound_code": "853Q+V4 Kowloon Tong, Hong Kong",
        "global_code": "7PJP853Q+V4"
      },
      "types": [
        "bank",
        "establishment",
        "finance",
        "point_of_interest"
      ]
    }
  ],
  "geocode_tc": [
    {
      "address_components": [
        {
          "long_name": "\u4e5d\u9f8d",
          "short_name": "\u4e5d\u9f8d",
          "types": [
            "administrative_area_level_1",
            "political"
          ]
        },
        {
          "long_name": "\u9999\u6e2f",
          "short_name": "HK",
          "types": [
            "country",
            "political"
          ]
        }
      ],
      "formatted_address": "\u9999\u6e2f\u4e5d\u9f8d\u7d05\u78e1\u9ec3\u57d4\u82b1\u571212\u671f\u5730\u4e0bG9B\u8216",
      "geometry": {
        "location": {
          "lat": 22.3058703,
          "lng": 114.1912894
        },
        "location_type": "GEOMETRIC_CENTER",
        "viewport": {
          "northeast": {
            "lat": 22.3072192802915,
            "lng": 114.1926383802915
          },
          "southwest": {
            "lat": 22.3045213197085,
            "lng": 114.1899404197085
          }
        }
      },
      "place_id": "ChIJ52jX_t8ABDQR9jPm1XHnK0w",
      "plus_code": {
        "compound_code": "854R+8G \u9999\u6e2f",
        "global_code": "7PJP854R+8G"
      },
      "types": [
        "establishment",
        "point_of_interest",
        "real_estate_agency"
      ]
    }
  ],
  "licno": "3852811912",
  "timestamp": 1564975666,
  "version": "1564966095"
}
