{
  "adr_en": "MARIO, SHOP 1, G/F, KIN WAI BUILDING, 27-29 YAU SAN STREET, YUEN LONG, NEW TERRITORIES",
  "adr_tc": "\u65b0\u754c\u5143\u6717\u53c8\u65b0\u885727-29\u865f\u5efa\u5a01\u5927\u5ec8\u5730\u4e0b1\u865f\u92ea \u5b56\u5bf6",
  "geocode_en": [
    {
      "address_components": [
        {
          "long_name": "Kin Wai Building",
          "short_name": "Kin Wai Building",
          "types": [
            "premise"
          ]
        },
        {
          "long_name": "27-29J",
          "short_name": "27-29J",
          "types": [
            "street_number"
          ]
        },
        {
          "long_name": "Yau San Street",
          "short_name": "Yau San St",
          "types": [
            "route"
          ]
        },
        {
          "long_name": "Yuen Long",
          "short_name": "Yuen Long",
          "types": [
            "neighborhood",
            "political"
          ]
        },
        {
          "long_name": "New Territories",
          "short_name": "New Territories",
          "types": [
            "administrative_area_level_1",
            "political"
          ]
        },
        {
          "long_name": "Hong Kong",
          "short_name": "HK",
          "types": [
            "country",
            "political"
          ]
        }
      ],
      "formatted_address": "Kin Wai Building, 27-29J Yau San St, Yuen Long, Hong Kong",
      "geometry": {
        "bounds": {
          "northeast": {
            "lat": 22.443784,
            "lng": 114.0313411
          },
          "southwest": {
            "lat": 22.443522,
            "lng": 114.031185
          }
        },
        "location": {
          "lat": 22.443684,
          "lng": 114.031286
        },
        "location_type": "ROOFTOP",
        "viewport": {
          "northeast": {
            "lat": 22.4450019802915,
            "lng": 114.0326120302915
          },
          "southwest": {
            "lat": 22.44230401970849,
            "lng": 114.0299140697085
          }
        }
      },
      "partial_match": true,
      "place_id": "ChIJm30zSqfwAzQRWMkyf9gKdWM",
      "types": [
        "premise"
      ]
    }
  ],
  "geocode_tc": [
    {
      "address_components": [
        {
          "long_name": "\u865f\u92ea",
          "short_name": "\u865f\u92ea",
          "types": [
            "subpremise"
          ]
        },
        {
          "long_name": "\u5efa\u5a01\u5927\u5ec8",
          "short_name": "\u5efa\u5a01\u5927\u5ec8",
          "types": [
            "premise"
          ]
        },
        {
          "long_name": "27-29J",
          "short_name": "27-29J",
          "types": [
            "street_number"
          ]
        },
        {
          "long_name": "\u53c8\u65b0\u8857",
          "short_name": "\u53c8\u65b0\u8857",
          "types": [
            "route"
          ]
        },
        {
          "long_name": "\u5143\u6717",
          "short_name": "\u5143\u6717",
          "types": [
            "neighborhood",
            "political"
          ]
        },
        {
          "long_name": "\u65b0\u754c",
          "short_name": "\u65b0\u754c",
          "types": [
            "administrative_area_level_1",
            "political"
          ]
        },
        {
          "long_name": "\u9999\u6e2f",
          "short_name": "HK",
          "types": [
            "country",
            "political"
          ]
        }
      ],
      "formatted_address": "\u9999\u6e2f\u5143\u6717\u53c8\u65b0\u885727-29J\u865f\u5efa\u5a01\u5927\u5ec8\u865f\u92ea",
      "geometry": {
        "bounds": {
          "northeast": {
            "lat": 22.443784,
            "lng": 114.0313411
          },
          "southwest": {
            "lat": 22.443522,
            "lng": 114.031185
          }
        },
        "location": {
          "lat": 22.443684,
          "lng": 114.031286
        },
        "location_type": "ROOFTOP",
        "viewport": {
          "northeast": {
            "lat": 22.4450019802915,
            "lng": 114.0326120302915
          },
          "southwest": {
            "lat": 22.44230401970849,
            "lng": 114.0299140697085
          }
        }
      },
      "partial_match": true,
      "place_id": "EkHomZ_pi6osIEtpbiBXYWkgQnVpbGRpbmcsIDI3LTI5SiBZYXUgU2FuIFN0LCBZdWVuIExvbmcsIEhvbmcgS29uZyIiGiAKFgoUChIJm30zSqfwAzQRWMkyf9gKdWMSBuiZn-mLqg",
      "types": [
        "subpremise"
      ]
    },
    {
      "address_components": [
        {
          "long_name": "\u5730\u4e0b1\u865f\u8216",
          "short_name": "\u5730\u4e0b1\u865f\u8216",
          "types": [
            "subpremise"
          ]
        },
        {
          "long_name": "27\u865f",
          "short_name": "27\u865f",
          "types": [
            "street_number"
          ]
        },
        {
          "long_name": "\u53c8\u65b0\u8857",
          "short_name": "\u53c8\u65b0\u8857",
          "types": [
            "route"
          ]
        },
        {
          "long_name": "\u5143\u6717",
          "short_name": "\u5143\u6717",
          "types": [
            "neighborhood",
            "political"
          ]
        },
        {
          "long_name": "\u65b0\u754c",
          "short_name": "\u65b0\u754c",
          "types": [
            "administrative_area_level_1",
            "political"
          ]
        },
        {
          "long_name": "\u9999\u6e2f",
          "short_name": "HK",
          "types": [
            "country",
            "political"
          ]
        }
      ],
      "formatted_address": "\u9999\u6e2f\u5143\u6717\u53c8\u65b0\u885727\u865f\u5730\u4e0b1\u865f\u8216",
      "geometry": {
        "location": {
          "lat": 22.4436083,
          "lng": 114.0311056
        },
        "location_type": "ROOFTOP",
        "viewport": {
          "northeast": {
            "lat": 22.4449572802915,
            "lng": 114.0324545802915
          },
          "southwest": {
            "lat": 22.4422593197085,
            "lng": 114.0297566197085
          }
        }
      },
      "partial_match": true,
      "place_id": "ChIJxbAES6fwAzQRWfWpTNl1U4E",
      "plus_code": {
        "compound_code": "C2VJ+CC \u9999\u6e2f",
        "global_code": "7PJPC2VJ+CC"
      },
      "types": [
        "establishment",
        "food",
        "point_of_interest",
        "restaurant"
      ]
    }
  ],
  "licno": "2294804300",
  "timestamp": 1564975666,
  "version": "1564966095"
}
