{
  "adr_en": "\u5408\u8aa0\u6d77\u9bae\u98ef\u5e97, 4B LO UK VILLAGE, PUI O, LANTAU ISLAND, NEW TERRITORIES",
  "adr_tc": "\u5927\u5dbc\u5c71\u8c9d\u6fb3\u7f85\u5c4b\u67514B\u865f \u5408\u8aa0\u6d77\u9bae\u98ef\u5e97",
  "geocode_en": [
    {
      "address_components": [
        {
          "long_name": "New Territories",
          "short_name": "New Territories",
          "types": [
            "administrative_area_level_1",
            "political"
          ]
        },
        {
          "long_name": "Hong Kong",
          "short_name": "HK",
          "types": [
            "country",
            "political"
          ]
        }
      ],
      "formatted_address": "Pui O Beach Lantau Island, Hong Kong",
      "geometry": {
        "location": {
          "lat": 22.2397114,
          "lng": 113.9768132
        },
        "location_type": "GEOMETRIC_CENTER",
        "viewport": {
          "northeast": {
            "lat": 22.2410603802915,
            "lng": 113.9781621802915
          },
          "southwest": {
            "lat": 22.23836241970849,
            "lng": 113.9754642197085
          }
        }
      },
      "partial_match": true,
      "place_id": "ChIJVfI34JdXATQRi9co2iC7JuI",
      "plus_code": {
        "compound_code": "6XQG+VP Hong Kong",
        "global_code": "7PJM6XQG+VP"
      },
      "types": [
        "establishment",
        "point_of_interest"
      ]
    }
  ],
  "geocode_tc": [
    {
      "address_components": [
        {
          "long_name": "\u9999\u6e2f",
          "short_name": "HK",
          "types": [
            "country",
            "political"
          ]
        }
      ],
      "formatted_address": "\u9999\u6e2f\u5927\u5dbc\u5c71\u8c9d\u6fb3\u7f85\u5c4b\u67514\u865f",
      "geometry": {
        "location": {
          "lat": 22.2434418,
          "lng": 113.9762754
        },
        "location_type": "GEOMETRIC_CENTER",
        "viewport": {
          "northeast": {
            "lat": 22.2447907802915,
            "lng": 113.9776243802915
          },
          "southwest": {
            "lat": 22.2420928197085,
            "lng": 113.9749264197085
          }
        }
      },
      "place_id": "ChIJQV6AY5ZXATQRC-zDk90O6xI",
      "plus_code": {
        "compound_code": "6XVG+9G \u9999\u6e2f",
        "global_code": "7PJM6XVG+9G"
      },
      "types": [
        "establishment",
        "food",
        "point_of_interest",
        "restaurant"
      ]
    }
  ],
  "licno": "2217001050",
  "timestamp": 1564968756,
  "version": "1564966095"
}
