{
  "adr_en": "YM TONG, G/F AND THE OUTSIDE SEATING ACCOMMODATION AT SHOP FRONT, 263 TIN SAM VILLAGE, TIN SAM STREET, SHA TIN, NEW TERRITORIES",
  "adr_tc": "\u65b0\u754c\u6c99\u7530\u7530\u5fc3\u8857\u7530\u5fc3\u6751263\u865f\u5730\u4e0b \u53ca\u5e97\u92ea\u524d\u9732\u5929\u5ea7\u4f4d \u4e00\u8317\u5802",
  "geocode_en": [
    {
      "address_components": [
        {
          "long_name": "Tin Sam Street",
          "short_name": "Tin Sam St",
          "types": [
            "route"
          ]
        },
        {
          "long_name": "Tai Wai",
          "short_name": "Tai Wai",
          "types": [
            "neighborhood",
            "political"
          ]
        },
        {
          "long_name": "New Territories",
          "short_name": "New Territories",
          "types": [
            "administrative_area_level_1",
            "political"
          ]
        },
        {
          "long_name": "Hong Kong",
          "short_name": "HK",
          "types": [
            "country",
            "political"
          ]
        }
      ],
      "formatted_address": "Tin Sam St, Tai Wai, Hong Kong",
      "geometry": {
        "bounds": {
          "northeast": {
            "lat": 22.3697776,
            "lng": 114.1805346
          },
          "southwest": {
            "lat": 22.3664695,
            "lng": 114.1729177
          }
        },
        "location": {
          "lat": 22.3680613,
          "lng": 114.177121
        },
        "location_type": "GEOMETRIC_CENTER",
        "viewport": {
          "northeast": {
            "lat": 22.3697776,
            "lng": 114.1805346
          },
          "southwest": {
            "lat": 22.3664695,
            "lng": 114.1729177
          }
        }
      },
      "partial_match": true,
      "place_id": "Eh5UaW4gU2FtIFN0LCBUYWkgV2FpLCBIb25nIEtvbmciLiosChQKEglRJMg6DwcENBE1LW4lv3GTUBIUChIJdTxFuggHBDQRcrOtDSOQjKE",
      "types": [
        "route"
      ]
    }
  ],
  "geocode_tc": [
    {
      "address_components": [
        {
          "long_name": "\u7530\u5fc3\u6751",
          "short_name": "\u7530\u5fc3\u6751",
          "types": [
            "neighborhood",
            "political"
          ]
        },
        {
          "long_name": "\u65b0\u754c",
          "short_name": "\u65b0\u754c",
          "types": [
            "administrative_area_level_1",
            "political"
          ]
        },
        {
          "long_name": "\u9999\u6e2f",
          "short_name": "HK",
          "types": [
            "country",
            "political"
          ]
        }
      ],
      "formatted_address": "\u9999\u6e2f\u7530\u5fc3\u6751\u865f\u5730\u4e0b, 263, \u5927\u56f2",
      "geometry": {
        "location": {
          "lat": 22.3687278,
          "lng": 114.1780151
        },
        "location_type": "GEOMETRIC_CENTER",
        "viewport": {
          "northeast": {
            "lat": 22.3700767802915,
            "lng": 114.1793640802915
          },
          "southwest": {
            "lat": 22.3673788197085,
            "lng": 114.1766661197085
          }
        }
      },
      "place_id": "ChIJz71mEVkHBDQRIaGIcS8uThU",
      "plus_code": {
        "compound_code": "959H+F6 \u9999\u6e2f",
        "global_code": "7PJP959H+F6"
      },
      "types": [
        "establishment",
        "food",
        "point_of_interest",
        "restaurant"
      ]
    }
  ],
  "licno": "2297801515",
  "timestamp": 1564975666,
  "version": "1564966095"
}
