{
  "adr_en": "MOON RIVER, SHOP 3 & 4, G/F, PO SING COURT, 21-25 SHEK KU LUNG ROAD, 40-42 SA PO ROAD, 15-29 CARPENTER ROAD, KOWLOON CITY, KOWLOON, HONG KONG",
  "adr_tc": "\u4e5d\u9f8d\u4e5d\u9f8d\u57ce\u77f3\u9f13\u58df\u905321-25\u865f \u6c99\u6d66\u905340-42\u865f, \u8cc8\u70b3\u9054\u905315-29\u865f \u5bf6\u57ce\u5927\u6a13\u5730\u4e0b3\u865f\u53ca4\u865f\u8216\u4f4d \u6708\u5149\u5149",
  "geocode_en": [
    {
      "address_components": [
        {
          "long_name": "Po Sing Court",
          "short_name": "Po Sing Court",
          "types": [
            "premise"
          ]
        },
        {
          "long_name": "40-42",
          "short_name": "40-42",
          "types": [
            "street_number"
          ]
        },
        {
          "long_name": "Sa Po Road",
          "short_name": "Sa Po Rd",
          "types": [
            "route"
          ]
        },
        {
          "long_name": "Kowloon City",
          "short_name": "Kowloon City",
          "types": [
            "neighborhood",
            "political"
          ]
        },
        {
          "long_name": "Kowloon",
          "short_name": "Kowloon",
          "types": [
            "administrative_area_level_1",
            "political"
          ]
        },
        {
          "long_name": "Hong Kong",
          "short_name": "HK",
          "types": [
            "country",
            "political"
          ]
        }
      ],
      "formatted_address": "Po Sing Court, 40-42 Sa Po Rd, Kowloon City, Hong Kong",
      "geometry": {
        "bounds": {
          "northeast": {
            "lat": 22.3304009,
            "lng": 114.193202
          },
          "southwest": {
            "lat": 22.330243,
            "lng": 114.1928481
          }
        },
        "location": {
          "lat": 22.3303411,
          "lng": 114.1931206
        },
        "location_type": "ROOFTOP",
        "viewport": {
          "northeast": {
            "lat": 22.3316709302915,
            "lng": 114.1943740302915
          },
          "southwest": {
            "lat": 22.3289729697085,
            "lng": 114.1916760697085
          }
        }
      },
      "partial_match": true,
      "place_id": "ChIJr4S3CtUGBDQR6gDXDYmcqTU",
      "types": [
        "premise"
      ]
    },
    {
      "address_components": [
        {
          "long_name": "21-25",
          "short_name": "21-25",
          "types": [
            "street_number"
          ]
        },
        {
          "long_name": "Shek Ku Lung Road",
          "short_name": "Shek Ku Lung Rd",
          "types": [
            "route"
          ]
        },
        {
          "long_name": "Kowloon City",
          "short_name": "Kowloon City",
          "types": [
            "neighborhood",
            "political"
          ]
        },
        {
          "long_name": "Kowloon",
          "short_name": "Kowloon",
          "types": [
            "administrative_area_level_1",
            "political"
          ]
        },
        {
          "long_name": "Hong Kong",
          "short_name": "HK",
          "types": [
            "country",
            "political"
          ]
        }
      ],
      "formatted_address": "21-25 Shek Ku Lung Rd, Kowloon City, Hong Kong",
      "geometry": {
        "location": {
          "lat": 22.3303411,
          "lng": 114.1931206
        },
        "location_type": "ROOFTOP",
        "viewport": {
          "northeast": {
            "lat": 22.3316900802915,
            "lng": 114.1944695802915
          },
          "southwest": {
            "lat": 22.3289921197085,
            "lng": 114.1917716197085
          }
        }
      },
      "partial_match": true,
      "place_id": "ChIJr4S3CtUGBDQR-v43Ud5dzYQ",
      "plus_code": {
        "compound_code": "85JV+46 Hong Kong",
        "global_code": "7PJP85JV+46"
      },
      "types": [
        "street_address"
      ]
    }
  ],
  "geocode_tc": [
    {
      "address_components": [
        {
          "long_name": "\u5bf6\u57ce\u5927\u6a13",
          "short_name": "\u5bf6\u57ce\u5927\u6a13",
          "types": [
            "premise"
          ]
        },
        {
          "long_name": "40-42",
          "short_name": "40-42",
          "types": [
            "street_number"
          ]
        },
        {
          "long_name": "\u6c99\u6d66\u9053",
          "short_name": "\u6c99\u6d66\u9053",
          "types": [
            "route"
          ]
        },
        {
          "long_name": "\u4e5d\u9f8d\u57ce",
          "short_name": "\u4e5d\u9f8d\u57ce",
          "types": [
            "neighborhood",
            "political"
          ]
        },
        {
          "long_name": "\u4e5d\u9f8d",
          "short_name": "\u4e5d\u9f8d",
          "types": [
            "administrative_area_level_1",
            "political"
          ]
        },
        {
          "long_name": "\u9999\u6e2f",
          "short_name": "HK",
          "types": [
            "country",
            "political"
          ]
        }
      ],
      "formatted_address": "\u9999\u6e2f\u4e5d\u9f8d\u57ce\u6c99\u6d66\u905340-42\u865f\u5bf6\u57ce\u5927\u6a13",
      "geometry": {
        "bounds": {
          "northeast": {
            "lat": 22.3304009,
            "lng": 114.193202
          },
          "southwest": {
            "lat": 22.330243,
            "lng": 114.1928481
          }
        },
        "location": {
          "lat": 22.3303411,
          "lng": 114.1931206
        },
        "location_type": "ROOFTOP",
        "viewport": {
          "northeast": {
            "lat": 22.3316709302915,
            "lng": 114.1943740302915
          },
          "southwest": {
            "lat": 22.3289729697085,
            "lng": 114.1916760697085
          }
        }
      },
      "partial_match": true,
      "place_id": "ChIJr4S3CtUGBDQR6gDXDYmcqTU",
      "types": [
        "premise"
      ]
    }
  ],
  "licno": "2252806443",
  "timestamp": 1564968756,
  "version": "1564966095"
}
