{
  "adr_en": "\u7fe1\u7fe0, 116-117, G/F, BLK. 20, SHEK KIP MEI ESTATE, SHEK KIP MEI, SHAM SHUI PO, KOWLOON",
  "adr_tc": "\u4e5d\u9f8d\u77f3\u7864\u5c3e\u675120 \u5ea7\u5730\u4e0b 116 - 117 \u865f\u8216 \u7fe1\u7fe0",
  "geocode_en": [
    {
      "address_components": [
        {
          "long_name": "Block 20; Shek Kip Mei Estate",
          "short_name": "Block 20; Shek Kip Mei Estate",
          "types": [
            "establishment",
            "point_of_interest",
            "transit_station"
          ]
        },
        {
          "long_name": "Shek Kip Mei",
          "short_name": "Shek Kip Mei",
          "types": [
            "neighborhood",
            "political"
          ]
        },
        {
          "long_name": "Kowloon",
          "short_name": "Kowloon",
          "types": [
            "administrative_area_level_1",
            "political"
          ]
        },
        {
          "long_name": "Hong Kong",
          "short_name": "HK",
          "types": [
            "country",
            "political"
          ]
        }
      ],
      "formatted_address": "Block 20; Shek Kip Mei Estate, Shek Kip Mei, Hong Kong",
      "geometry": {
        "location": {
          "lat": 22.3324856,
          "lng": 114.1668505
        },
        "location_type": "GEOMETRIC_CENTER",
        "viewport": {
          "northeast": {
            "lat": 22.3338345802915,
            "lng": 114.1681994802915
          },
          "southwest": {
            "lat": 22.3311366197085,
            "lng": 114.1655015197085
          }
        }
      },
      "partial_match": true,
      "place_id": "ChIJcxL8r0oHBDQRHBl6_S5rePo",
      "plus_code": {
        "compound_code": "85J8+XP Hong Kong",
        "global_code": "7PJP85J8+XP"
      },
      "types": [
        "establishment",
        "point_of_interest",
        "transit_station"
      ]
    }
  ],
  "geocode_tc": [
    {
      "address_components": [
        {
          "long_name": "\u77f3\u7864\u5c3e",
          "short_name": "\u77f3\u7864\u5c3e",
          "types": [
            "neighborhood",
            "political"
          ]
        },
        {
          "long_name": "\u4e5d\u9f8d",
          "short_name": "\u4e5d\u9f8d",
          "types": [
            "administrative_area_level_1",
            "political"
          ]
        },
        {
          "long_name": "\u9999\u6e2f",
          "short_name": "HK",
          "types": [
            "country",
            "political"
          ]
        }
      ],
      "formatted_address": "\u9999\u6e2f\u77f3\u7864\u5c3e",
      "geometry": {
        "bounds": {
          "northeast": {
            "lat": 22.3354985,
            "lng": 114.1694631
          },
          "southwest": {
            "lat": 22.3305711,
            "lng": 114.1639753
          }
        },
        "location": {
          "lat": 22.3337786,
          "lng": 114.1674019
        },
        "location_type": "APPROXIMATE",
        "viewport": {
          "northeast": {
            "lat": 22.3354985,
            "lng": 114.1694631
          },
          "southwest": {
            "lat": 22.3305711,
            "lng": 114.1639753
          }
        }
      },
      "partial_match": true,
      "place_id": "ChIJC8XkcUoHBDQRgqKMdK92EN4",
      "types": [
        "neighborhood",
        "political"
      ]
    }
  ],
  "licno": "2263070352",
  "timestamp": 1564968756,
  "version": "1564966095"
}
