{
  "adr_en": "RYO-ZAN PAKU JAPANESE RESTAURANT, SHOP NOS.767-771, LEVEL 7, THE METROPOLIS MALL, 6 METROPOLIS DRIVE, HUNG HOM, KOWLOON",
  "adr_tc": "\u4e5d\u9f8d\u7d05\u78e1\u90fd\u6703\u90536\u865f\u90fd\u6703\u5546\u5834\u7b2c7\u5c64 767-771\u865f\u8216 \u6881\u5c71\u6cca\u65e5\u672c\u6599\u7406",
  "geocode_en": [
    {
      "address_components": [
        {
          "long_name": "Kowloon",
          "short_name": "Kowloon",
          "types": [
            "administrative_area_level_1",
            "political"
          ]
        },
        {
          "long_name": "Hong Kong",
          "short_name": "HK",
          "types": [
            "country",
            "political"
          ]
        }
      ],
      "formatted_address": "Hong Kong, \u90fd\u6703\u90536\u865f\u90fd\u6703\u5546\u5834767-771\u865f\u8216",
      "geometry": {
        "location": {
          "lat": 22.302966,
          "lng": 114.183308
        },
        "location_type": "GEOMETRIC_CENTER",
        "viewport": {
          "northeast": {
            "lat": 22.3043149802915,
            "lng": 114.1846569802915
          },
          "southwest": {
            "lat": 22.30161701970849,
            "lng": 114.1819590197085
          }
        }
      },
      "partial_match": true,
      "place_id": "ChIJPTyR8uYABDQRxuEPm7AI1VA",
      "plus_code": {
        "compound_code": "853M+58 Hong Kong",
        "global_code": "7PJP853M+58"
      },
      "types": [
        "establishment",
        "food",
        "point_of_interest",
        "restaurant"
      ]
    },
    {
      "address_components": [
        {
          "long_name": "767-771, LEVEL",
          "short_name": "767-771, LEVEL",
          "types": [
            "subpremise"
          ]
        },
        {
          "long_name": "The Metropolis Fortune Metropolis",
          "short_name": "The Metropolis Fortune Metropolis",
          "types": [
            "premise"
          ]
        },
        {
          "long_name": "6",
          "short_name": "6",
          "types": [
            "street_number"
          ]
        },
        {
          "long_name": "Metropolis Drive",
          "short_name": "Metropolis Dr",
          "types": [
            "route"
          ]
        },
        {
          "long_name": "Hung Hom Bay",
          "short_name": "Hung Hom Bay",
          "types": [
            "neighborhood",
            "political"
          ]
        },
        {
          "long_name": "Kowloon",
          "short_name": "Kowloon",
          "types": [
            "administrative_area_level_1",
            "political"
          ]
        },
        {
          "long_name": "Hong Kong",
          "short_name": "HK",
          "types": [
            "country",
            "political"
          ]
        }
      ],
      "formatted_address": "767-771, LEVEL, The Metropolis Fortune Metropolis, 6 Metropolis Dr, Hung Hom Bay, Hong Kong",
      "geometry": {
        "bounds": {
          "northeast": {
            "lat": 22.303373,
            "lng": 114.1836631
          },
          "southwest": {
            "lat": 22.3021319,
            "lng": 114.1828519
          }
        },
        "location": {
          "lat": 22.3027375,
          "lng": 114.1832283
        },
        "location_type": "ROOFTOP",
        "viewport": {
          "northeast": {
            "lat": 22.3041014302915,
            "lng": 114.1846064802915
          },
          "southwest": {
            "lat": 22.3014034697085,
            "lng": 114.1819085197085
          }
        }
      },
      "partial_match": true,
      "place_id": "Els3NjctNzcxLCBMRVZFTCwgVGhlIE1ldHJvcG9saXMgRm9ydHVuZSBNZXRyb3BvbGlzLCA2IE1ldHJvcG9saXMgRHIsIEh1bmcgSG9tIEJheSwgSG9uZyBLb25nIioaKAoWChQKEgk7yJby5gAENBHENdKBpB0YLBIONzY3LTc3MSwgTEVWRUw",
      "types": [
        "subpremise"
      ]
    },
    {
      "address_components": [
        {
          "long_name": "9",
          "short_name": "9",
          "types": [
            "street_number"
          ]
        },
        {
          "long_name": "Metropolis Drive",
          "short_name": "Metropolis Dr",
          "types": [
            "route"
          ]
        },
        {
          "long_name": "Hung Hom",
          "short_name": "Hung Hom",
          "types": [
            "neighborhood",
            "political"
          ]
        },
        {
          "long_name": "New Territories",
          "short_name": "New Territories",
          "types": [
            "administrative_area_level_1",
            "political"
          ]
        },
        {
          "long_name": "Hong Kong",
          "short_name": "HK",
          "types": [
            "country",
            "political"
          ]
        }
      ],
      "formatted_address": "9 Metropolis Dr, Hung Hom, Hong Kong",
      "geometry": {
        "location": {
          "lat": 22.3028517,
          "lng": 114.183465
        },
        "location_type": "ROOFTOP",
        "viewport": {
          "northeast": {
            "lat": 22.3042006802915,
            "lng": 114.1848139802915
          },
          "southwest": {
            "lat": 22.30150271970849,
            "lng": 114.1821160197085
          }
        }
      },
      "partial_match": true,
      "place_id": "ChIJDbSw7eYABDQRLJNNBIM8QSA",
      "plus_code": {
        "compound_code": "853M+49 Hong Kong",
        "global_code": "7PJP853M+49"
      },
      "types": [
        "establishment",
        "point_of_interest",
        "shopping_mall"
      ]
    }
  ],
  "geocode_tc": [
    {
      "address_components": [
        {
          "long_name": "\u4e5d\u9f8d",
          "short_name": "\u4e5d\u9f8d",
          "types": [
            "administrative_area_level_1",
            "political"
          ]
        },
        {
          "long_name": "\u9999\u6e2f",
          "short_name": "HK",
          "types": [
            "country",
            "political"
          ]
        }
      ],
      "formatted_address": "\u9999\u6e2f\u90fd\u6703\u90536\u865f\u90fd\u6703\u5546\u5834767-771\u865f\u8216",
      "geometry": {
        "location": {
          "lat": 22.302966,
          "lng": 114.183308
        },
        "location_type": "GEOMETRIC_CENTER",
        "viewport": {
          "northeast": {
            "lat": 22.3043149802915,
            "lng": 114.1846569802915
          },
          "southwest": {
            "lat": 22.30161701970849,
            "lng": 114.1819590197085
          }
        }
      },
      "place_id": "ChIJPTyR8uYABDQRxuEPm7AI1VA",
      "plus_code": {
        "compound_code": "853M+58 \u9999\u6e2f",
        "global_code": "7PJP853M+58"
      },
      "types": [
        "establishment",
        "food",
        "point_of_interest",
        "restaurant"
      ]
    }
  ],
  "licno": "2261287589",
  "timestamp": 1564968756,
  "version": "1564966095"
}
