{
  "adr_en": "Six-up Inn, LOWER G/F, SHOP 7,8,14,15 & PORT. OF NO. 9, FRANKI CENTRE, 320 JUNCTION ROAD, KOWLOON CITY, KOWLOON",
  "adr_tc": "\u4e5d\u9f8d\u806f\u5408\u9053320\u865f \u5efa\u65b0\u4e2d\u5fc3\u5730\u4e0b\u4f4e\u5c64 7, 8, 14, 15\u865f\u53ca9\u865f\u8216\u90e8\u4efd \u516d\u5408\u5c0f\u9928",
  "geocode_en": [
    {
      "address_components": [
        {
          "long_name": "1",
          "short_name": "1",
          "types": [
            "street_number"
          ]
        },
        {
          "long_name": "Kam Shing Road",
          "short_name": "Kam Shing Rd",
          "types": [
            "route"
          ]
        },
        {
          "long_name": "Kowloon Tong",
          "short_name": "Kowloon Tong",
          "types": [
            "neighborhood",
            "political"
          ]
        },
        {
          "long_name": "Kowloon",
          "short_name": "Kowloon",
          "types": [
            "administrative_area_level_1",
            "political"
          ]
        },
        {
          "long_name": "Hong Kong",
          "short_name": "HK",
          "types": [
            "country",
            "political"
          ]
        }
      ],
      "formatted_address": "1 Kam Shing Rd, Kowloon Tong, Hong Kong",
      "geometry": {
        "location": {
          "lat": 22.3394294,
          "lng": 114.1806658
        },
        "location_type": "ROOFTOP",
        "viewport": {
          "northeast": {
            "lat": 22.3407783802915,
            "lng": 114.1820147802915
          },
          "southwest": {
            "lat": 22.3380804197085,
            "lng": 114.1793168197085
          }
        }
      },
      "partial_match": true,
      "place_id": "ChIJ8Znk6S8HBDQRd7b24vuFztk",
      "plus_code": {
        "compound_code": "85QJ+Q7 Hong Kong",
        "global_code": "7PJP85QJ+Q7"
      },
      "types": [
        "establishment",
        "food",
        "point_of_interest",
        "restaurant"
      ]
    },
    {
      "address_components": [
        {
          "long_name": "9",
          "short_name": "9",
          "types": [
            "subpremise"
          ]
        },
        {
          "long_name": "Franki Centre",
          "short_name": "Franki Centre",
          "types": [
            "premise"
          ]
        },
        {
          "long_name": "320",
          "short_name": "320",
          "types": [
            "street_number"
          ]
        },
        {
          "long_name": "Junction Road",
          "short_name": "Junction Rd",
          "types": [
            "route"
          ]
        },
        {
          "long_name": "Beacon Hill",
          "short_name": "Beacon Hill",
          "types": [
            "neighborhood",
            "political"
          ]
        },
        {
          "long_name": "Kowloon",
          "short_name": "Kowloon",
          "types": [
            "administrative_area_level_1",
            "political"
          ]
        },
        {
          "long_name": "Hong Kong",
          "short_name": "HK",
          "types": [
            "country",
            "political"
          ]
        }
      ],
      "formatted_address": "9, Franki Centre, 320 Junction Rd, Beacon Hill, Hong Kong",
      "geometry": {
        "bounds": {
          "northeast": {
            "lat": 22.3396434,
            "lng": 114.1812204
          },
          "southwest": {
            "lat": 22.3392309,
            "lng": 114.1806161
          }
        },
        "location": {
          "lat": 22.3395633,
          "lng": 114.1808442
        },
        "location_type": "ROOFTOP",
        "viewport": {
          "northeast": {
            "lat": 22.3407861302915,
            "lng": 114.1822672302915
          },
          "southwest": {
            "lat": 22.3380881697085,
            "lng": 114.1795692697085
          }
        }
      },
      "partial_match": true,
      "place_id": "Ejk5LCBGcmFua2kgQ2VudHJlLCAzMjAgSnVuY3Rpb24gUmQsIEJlYWNvbiBIaWxsLCBIb25nIEtvbmciHRobChYKFAoSCYtP-eovBwQ0EQSj0f1MACSIEgE5",
      "types": [
        "subpremise"
      ]
    }
  ],
  "geocode_tc": [
    {
      "address_components": [
        {
          "long_name": "1",
          "short_name": "1",
          "types": [
            "street_number"
          ]
        },
        {
          "long_name": "\u91d1\u57ce\u9053",
          "short_name": "\u91d1\u57ce\u9053",
          "types": [
            "route"
          ]
        },
        {
          "long_name": "\u4e5d\u9f8d\u5858",
          "short_name": "\u4e5d\u9f8d\u5858",
          "types": [
            "neighborhood",
            "political"
          ]
        },
        {
          "long_name": "\u4e5d\u9f8d",
          "short_name": "\u4e5d\u9f8d",
          "types": [
            "administrative_area_level_1",
            "political"
          ]
        },
        {
          "long_name": "\u9999\u6e2f",
          "short_name": "HK",
          "types": [
            "country",
            "political"
          ]
        }
      ],
      "formatted_address": "\u9999\u6e2f\u4e5d\u9f8d\u5858\u91d1\u57ce\u90531\u865f",
      "geometry": {
        "location": {
          "lat": 22.3394294,
          "lng": 114.1806658
        },
        "location_type": "ROOFTOP",
        "viewport": {
          "northeast": {
            "lat": 22.3407783802915,
            "lng": 114.1820147802915
          },
          "southwest": {
            "lat": 22.3380804197085,
            "lng": 114.1793168197085
          }
        }
      },
      "partial_match": true,
      "place_id": "ChIJ8Znk6S8HBDQRd7b24vuFztk",
      "plus_code": {
        "compound_code": "85QJ+Q7 \u9999\u6e2f",
        "global_code": "7PJP85QJ+Q7"
      },
      "types": [
        "establishment",
        "food",
        "point_of_interest",
        "restaurant"
      ]
    },
    {
      "address_components": [
        {
          "long_name": "\u5efa\u65b0\u4e2d\u5fc3",
          "short_name": "\u5efa\u65b0\u4e2d\u5fc3",
          "types": [
            "premise"
          ]
        },
        {
          "long_name": "320",
          "short_name": "320",
          "types": [
            "street_number"
          ]
        },
        {
          "long_name": "\u806f\u5408\u9053",
          "short_name": "\u806f\u5408\u9053",
          "types": [
            "route"
          ]
        },
        {
          "long_name": "\u7562\u67b6\u5c71",
          "short_name": "\u7562\u67b6\u5c71",
          "types": [
            "neighborhood",
            "political"
          ]
        },
        {
          "long_name": "\u4e5d\u9f8d",
          "short_name": "\u4e5d\u9f8d",
          "types": [
            "administrative_area_level_1",
            "political"
          ]
        },
        {
          "long_name": "\u9999\u6e2f",
          "short_name": "HK",
          "types": [
            "country",
            "political"
          ]
        }
      ],
      "formatted_address": "\u9999\u6e2f\u7562\u67b6\u5c71\u806f\u5408\u9053320\u865f\u5efa\u65b0\u4e2d\u5fc3",
      "geometry": {
        "bounds": {
          "northeast": {
            "lat": 22.3396434,
            "lng": 114.1812204
          },
          "southwest": {
            "lat": 22.3392309,
            "lng": 114.1806161
          }
        },
        "location": {
          "lat": 22.3395633,
          "lng": 114.1808442
        },
        "location_type": "ROOFTOP",
        "viewport": {
          "northeast": {
            "lat": 22.3407861302915,
            "lng": 114.1822672302915
          },
          "southwest": {
            "lat": 22.3380881697085,
            "lng": 114.1795692697085
          }
        }
      },
      "partial_match": true,
      "place_id": "ChIJi0_56i8HBDQRBKPR_UwAJIg",
      "types": [
        "premise"
      ]
    }
  ],
  "licno": "2252078499",
  "timestamp": 1564968756,
  "version": "1564966095"
}
